{
  "points": [
    {
      "id": 424089,
      "lat": 31.8142224540001,
      "lon": 34.77642057,
      "label": "מעון מוריה - גדרה",
      "text": "",
      "stayTimes": "05:30 - 06:00",
      "t_start": "2020-04-05T03:30:00",
      "t_end": "2020-04-05T04:00:00",
      "link": ""
    },
    {
      "id": 424090,
      "lat": 31.8142139,
      "lon": 34.7764126000001,
      "label": "מעון מוריה - גדרה",
      "text": "",
      "stayTimes": "14:00 - 22:00",
      "t_start": "2020-04-05T12:00:00",
      "t_end": "2020-04-05T20:00:00",
      "link": ""
    },
    {
      "id": 424091,
      "lat": 32.0268882760001,
      "lon": 34.7464722670001,
      "label": "אירינה - בת ים",
      "text": "",
      "stayTimes": "10:00 - 11:00",
      "t_start": "2020-04-03T08:00:00",
      "t_end": "2020-04-03T09:00:00",
      "link": ""
    },
    {
      "id": 424092,
      "lat": 32.1122901210001,
      "lon": 34.794585226,
      "label": "סוופר פארם - תל אביב - יפו",
      "text": "",
      "stayTimes": "11:00 - 12:00",
      "t_start": "2020-04-03T09:00:00",
      "t_end": "2020-04-03T10:00:00",
      "link": ""
    },
    {
      "id": 424093,
      "lat": 32.3604795000001,
      "lon": 34.8622635,
      "label": "מכולת - חבצלת השרון",
      "text": "",
      "stayTimes": "13:00 - 13:10",
      "t_start": "2020-04-03T11:00:00",
      "t_end": "2020-04-03T11:10:00",
      "link": ""
    },
    {
      "id": 424094,
      "lat": 32.0715922260001,
      "lon": 34.8385385560001,
      "label": "חנות עשר תעשר - בני ברק",
      "text": "",
      "stayTimes": "09:00 - 09:20",
      "t_start": "2020-04-03T07:00:00",
      "t_end": "2020-04-03T07:20:00",
      "link": ""
    },
    {
      "id": 424095,
      "lat": 31.7665910000001,
      "lon": 34.6308036,
      "label": "סופר מארקט מחסני להב - אשדוד",
      "text": "",
      "stayTimes": "14:00 - 14:30",
      "t_start": "2020-04-03T12:00:00",
      "t_end": "2020-04-03T12:30:00",
      "link": ""
    },
    {
      "id": 424096,
      "lat": 32.0898639000001,
      "lon": 34.8851074,
      "label": "בית מרקחת \"גוד פארם\" - פתח תקווה",
      "text": "",
      "stayTimes": "09:30 - 10:00",
      "t_start": "2020-04-03T07:30:00",
      "t_end": "2020-04-03T08:00:00",
      "link": ""
    },
    {
      "id": 424097,
      "lat": 32.0798892330001,
      "lon": 34.902398568,
      "label": "\"שופרסל\" - פתח תקווה",
      "text": "",
      "stayTimes": "13:30 - 14:15",
      "t_start": "2020-04-03T11:30:00",
      "t_end": "2020-04-03T12:15:00",
      "link": ""
    },
    {
      "id": 424098,
      "lat": 32.1762699270001,
      "lon": 34.9341393230001,
      "label": "סופרמרקט שוק העיר - כפר סבא",
      "text": "",
      "stayTimes": "12:00 - 14:30",
      "t_start": "2020-04-03T10:00:00",
      "t_end": "2020-04-03T12:30:00",
      "link": ""
    },
    {
      "id": 424099,
      "lat": 32.0250675660001,
      "lon": 34.7767823610001,
      "label": "סיטי מרקט - חולון",
      "text": "",
      "stayTimes": "14:30 - 15:00",
      "t_start": "2020-04-03T12:30:00",
      "t_end": "2020-04-03T13:00:00",
      "link": ""
    },
    {
      "id": 424100,
      "lat": 31.99084162,
      "lon": 34.761078383,
      "label": "אושר עד - ראשון לציון",
      "text": "",
      "stayTimes": "11:30 - 12:47",
      "t_start": "2020-04-03T09:30:00",
      "t_end": "2020-04-03T10:47:00",
      "link": ""
    },
    {
      "id": 424101,
      "lat": 32.9803820000001,
      "lon": 35.543548,
      "label": "מכולת חממי - חצור הגלילית",
      "text": "",
      "stayTimes": "10:00 - 11:00",
      "t_start": "2020-04-03T08:00:00",
      "t_end": "2020-04-03T09:00:00",
      "link": ""
    },
    {
      "id": 424102,
      "lat": 31.905703074,
      "lon": 35.007384491,
      "label": "מרפאה \"טרם\" - מודיעין-מכבים-רעות",
      "text": "",
      "stayTimes": "05:30 - 06:10",
      "t_start": "2020-04-04T03:30:00",
      "t_end": "2020-04-04T04:10:00",
      "link": ""
    },
    {
      "id": 424103,
      "lat": 32.80547125,
      "lon": 35.001583135,
      "label": "נתיב החסד - חיפה",
      "text": "",
      "stayTimes": "22:00 - 22:40",
      "t_start": "2020-04-04T20:00:00",
      "t_end": "2020-04-04T20:40:00",
      "link": ""
    },
    {
      "id": 424104,
      "lat": 32.1823231000001,
      "lon": 34.8954868000001,
      "label": "ביה\"ח מאיר - כפר סבא",
      "text": "",
      "stayTimes": "08:00 - 08:30",
      "t_start": "2020-04-05T06:00:00",
      "t_end": "2020-04-05T06:30:00",
      "link": ""
    },
    {
      "id": 424105,
      "lat": 32.722020463,
      "lon": 35.4950423440001,
      "label": "ביא' יוקרה - יבנאל",
      "text": "",
      "stayTimes": "06:00 - 14:30",
      "t_start": "2020-04-03T04:00:00",
      "t_end": "2020-04-03T12:30:00",
      "link": ""
    },
    {
      "id": 424106,
      "lat": 32.1058370000001,
      "lon": 34.8923941,
      "label": "אושר עד - פתח תקווה",
      "text": "",
      "stayTimes": "12:00 - 12:30",
      "t_start": "2020-04-03T10:00:00",
      "t_end": "2020-04-03T10:30:00",
      "link": ""
    },
    {
      "id": 424107,
      "lat": 32.0469554490001,
      "lon": 34.8448678510001,
      "label": "מעבדה מרכזית תל השומר - רמת גן",
      "text": "",
      "stayTimes": "07:30 - 09:00",
      "t_start": "2020-04-05T05:30:00",
      "t_end": "2020-04-05T07:00:00",
      "link": ""
    },
    {
      "id": 424108,
      "lat": 32.0444342870001,
      "lon": 34.7691806880001,
      "label": "מעבדה לבריאות הציבור אבו כביר - תל אביב - יפו",
      "text": "",
      "stayTimes": "09:30 - 12:00",
      "t_start": "2020-04-05T07:30:00",
      "t_end": "2020-04-05T10:00:00",
      "link": ""
    },
    {
      "id": 424109,
      "lat": 32.0906142640001,
      "lon": 34.945982932,
      "label": "פינוי מדא לבית חולים - ראש העין",
      "text": "",
      "stayTimes": "00:00 - 00:00",
      "t_start": "2020-04-04T22:00:00",
      "t_end": "2020-04-04T22:00:00",
      "link": ""
    },
    {
      "id": 424110,
      "lat": 32.0872719320001,
      "lon": 34.8304819860001,
      "label": "קופ\"ח לאומית - בני ברק",
      "text": "",
      "stayTimes": "09:00 - 10:00",
      "t_start": "2020-04-03T07:00:00",
      "t_end": "2020-04-03T08:00:00",
      "link": ""
    },
    {
      "id": 424111,
      "lat": 31.6611049270001,
      "lon": 34.589123752,
      "label": "סופר פארם קניון חוצות - אשקלון",
      "text": "",
      "stayTimes": "10:00 - 10:30",
      "t_start": "2020-04-03T08:00:00",
      "t_end": "2020-04-03T08:30:00",
      "link": ""
    },
    {
      "id": 424112,
      "lat": 32.7791922000001,
      "lon": 35.5029054,
      "label": "סופר מרקט יוחננוף - טבריה",
      "text": "",
      "stayTimes": "00:00 - 08:00",
      "t_start": "2020-04-02T22:00:00",
      "t_end": "2020-04-03T06:00:00",
      "link": ""
    },
    {
      "id": 424113,
      "lat": 32.691790129,
      "lon": 35.371605705,
      "label": "קופת חולים כללית - דבוריה",
      "text": "",
      "stayTimes": "09:00 - 09:30",
      "t_start": "2020-04-03T07:00:00",
      "t_end": "2020-04-03T07:30:00",
      "link": ""
    },
    {
      "id": 424114,
      "lat": 31.9990278000001,
      "lon": 34.94685,
      "label": "\"סופר פארם מרכז מסחרי שוהם - שוהם",
      "text": "",
      "stayTimes": "16:30 - 17:30",
      "t_start": "2020-04-03T14:30:00",
      "t_end": "2020-04-03T15:30:00",
      "link": ""
    },
    {
      "id": 424115,
      "lat": 32.166809991,
      "lon": 34.842344559,
      "label": "בן גוריון 2, הרצליה",
      "text": "",
      "stayTimes": "08:00 - 08:30",
      "t_start": "2020-04-03T06:00:00",
      "t_end": "2020-04-03T06:30:00",
      "link": ""
    },
    {
      "id": 424116,
      "lat": 32.0279570000001,
      "lon": 34.864768,
      "label": "קופח כללית - אור יהודה",
      "text": "",
      "stayTimes": "11:30 - 12:00",
      "t_start": "2020-04-03T09:30:00",
      "t_end": "2020-04-03T10:00:00",
      "link": ""
    },
    {
      "id": 424117,
      "lat": 32.028290579,
      "lon": 34.7483266520001,
      "label": "בית חולים בית בלב - בת ים",
      "text": "",
      "stayTimes": "08:00 - 16:00",
      "t_start": "2020-04-05T06:00:00",
      "t_end": "2020-04-05T14:00:00",
      "link": ""
    },
    {
      "id": 424118,
      "lat": 32.1673930440001,
      "lon": 34.8412880870001,
      "label": "סופר פארם - הרצליה",
      "text": "",
      "stayTimes": "12:00 - 12:30",
      "t_start": "2020-04-05T10:00:00",
      "t_end": "2020-04-05T10:30:00",
      "link": ""
    },
    {
      "id": 424119,
      "lat": 32.167390137,
      "lon": 34.841294954,
      "label": "חנות פארם - הרצליה",
      "text": "",
      "stayTimes": "12:30 - 13:00",
      "t_start": "2020-04-05T10:30:00",
      "t_end": "2020-04-05T11:00:00",
      "link": ""
    },
    {
      "id": 424120,
      "lat": 32.1818416,
      "lon": 34.8698910000001,
      "label": "ויקטורי - רעננה",
      "text": "",
      "stayTimes": "19:00 - 20:00",
      "t_start": "2020-04-05T17:00:00",
      "t_end": "2020-04-05T18:00:00",
      "link": ""
    },
    {
      "id": 424121,
      "lat": 31.7390859130001,
      "lon": 34.981738953,
      "label": "מכולת רחוב הנורית - בית שמש",
      "text": "",
      "stayTimes": "10:00 - 10:30",
      "t_start": "2020-04-03T08:00:00",
      "t_end": "2020-04-03T08:30:00",
      "link": ""
    },
    {
      "id": 424122,
      "lat": 31.739338,
      "lon": 34.9829987000001,
      "label": "סופר \"הצלחה\" - בית שמש",
      "text": "",
      "stayTimes": "11:00 - 11:30",
      "t_start": "2020-04-03T09:00:00",
      "t_end": "2020-04-03T09:30:00",
      "link": ""
    },
    {
      "id": 424123,
      "lat": 31.8135049000001,
      "lon": 34.6500062000001,
      "label": "בית הדר - אשדוד",
      "text": "",
      "stayTimes": "08:00 - 08:30",
      "t_start": "2020-04-15T06:00:00",
      "t_end": "2020-04-15T06:30:00",
      "link": ""
    },
    {
      "id": 424124,
      "lat": 31.6611049270001,
      "lon": 34.589126434,
      "label": "סופר פארם קניון חוצות - אשקלון",
      "text": "",
      "stayTimes": "10:00 - 10:30",
      "t_start": "2020-04-03T08:00:00",
      "t_end": "2020-04-03T08:30:00",
      "link": ""
    },
    {
      "id": 424125,
      "lat": 32.1058370000001,
      "lon": 34.8923941,
      "label": "סופר \"אושר עד\" - פתח תקווה",
      "text": "",
      "stayTimes": "14:00 - 15:00",
      "t_start": "2020-04-05T12:00:00",
      "t_end": "2020-04-05T13:00:00",
      "link": ""
    },
    {
      "id": 424126,
      "lat": 32.0751450000001,
      "lon": 34.854613,
      "label": "סופר חביב - גבעת שמואל",
      "text": "",
      "stayTimes": "09:00 - 09:30",
      "t_start": "2020-04-03T07:00:00",
      "t_end": "2020-04-03T07:30:00",
      "link": ""
    },
    {
      "id": 424127,
      "lat": 32.0754956430001,
      "lon": 34.8548399530001,
      "label": "על המשקל - גבעת שמואל",
      "text": "",
      "stayTimes": "09:30 - 09:45",
      "t_start": "2020-04-03T07:30:00",
      "t_end": "2020-04-03T07:45:00",
      "link": ""
    },
    {
      "id": 424128,
      "lat": 32.4407945040001,
      "lon": 34.894924458,
      "label": "יוחננוף סופר מרקט - חדרה",
      "text": "",
      "stayTimes": "10:00 - 12:00",
      "t_start": "2020-04-03T08:00:00",
      "t_end": "2020-04-03T10:00:00",
      "link": ""
    },
    {
      "id": 424129,
      "lat": 32.04834607,
      "lon": 34.9577129480001,
      "label": "זול כל - אלעד",
      "text": "",
      "stayTimes": "18:00 - 18:10",
      "t_start": "2020-04-12T16:00:00",
      "t_end": "2020-04-12T16:10:00",
      "link": ""
    },
    {
      "id": 424130,
      "lat": 32.0751450000001,
      "lon": 34.854613,
      "label": "סופר חביב - גבעת שמואל",
      "text": "",
      "stayTimes": "09:00 - 09:30",
      "t_start": "2020-04-03T07:00:00",
      "t_end": "2020-04-03T07:30:00",
      "link": ""
    },
    {
      "id": 424131,
      "lat": 32.1722288730001,
      "lon": 34.9248283950001,
      "label": "מרכז לסר- ביצים - כפר סבא",
      "text": "",
      "stayTimes": "15:00 - 16:00",
      "t_start": "2020-04-06T13:00:00",
      "t_end": "2020-04-06T14:00:00",
      "link": ""
    },
    {
      "id": 424132,
      "lat": 32.0541667000001,
      "lon": 34.9638889,
      "label": "נתיב החסד - אלעד",
      "text": "",
      "stayTimes": "15:00 - 15:30",
      "t_start": "2020-04-05T13:00:00",
      "t_end": "2020-04-05T13:30:00",
      "link": ""
    },
    {
      "id": 424133,
      "lat": 32.0504166260001,
      "lon": 34.9503998230001,
      "label": "כולל סנטר - אלעד",
      "text": "",
      "stayTimes": "10:45 - 11:30",
      "t_start": "2020-04-05T08:45:00",
      "t_end": "2020-04-05T09:30:00",
      "link": ""
    },
    {
      "id": 424134,
      "lat": 32.7791922000001,
      "lon": 35.5029054,
      "label": "סופר מרקט יוחננוף - טבריה",
      "text": "",
      "stayTimes": "07:00 - 13:00",
      "t_start": "2020-04-05T05:00:00",
      "t_end": "2020-04-05T11:00:00",
      "link": ""
    },
    {
      "id": 424135,
      "lat": 31.9485812,
      "lon": 34.7889725000001,
      "label": "מרכז גריאטרי ראש\"צ - ראשון לציון",
      "text": "",
      "stayTimes": "08:00 - 08:30",
      "t_start": "2020-04-05T06:00:00",
      "t_end": "2020-04-05T06:30:00",
      "link": ""
    },
    {
      "id": 424136,
      "lat": 32.0525832270001,
      "lon": 34.9512222270001,
      "label": "סופר \"יש חסד\" - אלעד",
      "text": "",
      "stayTimes": "11:00 - 12:20",
      "t_start": "2020-04-05T09:00:00",
      "t_end": "2020-04-05T10:20:00",
      "link": ""
    },
    {
      "id": 424137,
      "lat": 32.0480153020001,
      "lon": 34.9546538440001,
      "label": "סופר \"שוק מהדרין\" - אלעד",
      "text": "",
      "stayTimes": "21:00 - 21:30",
      "t_start": "2020-04-05T19:00:00",
      "t_end": "2020-04-05T19:30:00",
      "link": ""
    },
    {
      "id": 424138,
      "lat": 31.8030403000001,
      "lon": 35.2161090000001,
      "label": "מעון אורים - ירושלים",
      "text": "",
      "stayTimes": "08:00 - 08:30",
      "t_start": "2020-04-05T06:00:00",
      "t_end": "2020-04-05T06:30:00",
      "link": ""
    },
    {
      "id": 424139,
      "lat": 32.0675613000001,
      "lon": 34.7946249,
      "label": "סופר \"אושר עד\" - תל אביב - יפו",
      "text": "",
      "stayTimes": "12:30 - 14:00",
      "t_start": "2020-04-05T10:30:00",
      "t_end": "2020-04-05T12:00:00",
      "link": ""
    },
    {
      "id": 424140,
      "lat": 31.9094111000001,
      "lon": 34.8054978000001,
      "label": "סופר פארם שער רחובות - רחובות",
      "text": "",
      "stayTimes": "21:00 - 22:00",
      "t_start": "2020-04-03T19:00:00",
      "t_end": "2020-04-03T20:00:00",
      "link": ""
    },
    {
      "id": 424141,
      "lat": 31.3103803000001,
      "lon": 34.629463,
      "label": "מפעל שניב תעשיות נייר - אופקים",
      "text": "",
      "stayTimes": "07:30 - 12:00",
      "t_start": "2020-04-04T05:30:00",
      "t_end": "2020-04-04T10:00:00",
      "link": ""
    },
    {
      "id": 424142,
      "lat": 31.416920222,
      "lon": 34.5902385630001,
      "label": "סופר כהן אזור התעשיה - נתיבות",
      "text": "",
      "stayTimes": "16:00 - 18:00",
      "t_start": "2020-04-05T14:00:00",
      "t_end": "2020-04-05T16:00:00",
      "link": ""
    },
    {
      "id": 424143,
      "lat": 31.3945686060001,
      "lon": 34.77711365,
      "label": "נעים מרקט - רהט",
      "text": "",
      "stayTimes": "08:00 - 08:30",
      "t_start": "2020-04-04T06:00:00",
      "t_end": "2020-04-04T06:30:00",
      "link": ""
    },
    {
      "id": 424144,
      "lat": 32.0827834,
      "lon": 34.8426542,
      "label": "צרכניית אחיעזר - בני ברק",
      "text": "",
      "stayTimes": "09:30 - 12:30",
      "t_start": "2020-04-03T07:30:00",
      "t_end": "2020-04-03T10:30:00",
      "link": ""
    },
    {
      "id": 424145,
      "lat": 32.6750960000001,
      "lon": 35.2498850000001,
      "label": "בית מרקחת קופ\"ח נוף העמק - מגדל העמק",
      "text": "",
      "stayTimes": "10:00 - 11:00",
      "t_start": "2020-04-04T08:00:00",
      "t_end": "2020-04-04T09:00:00",
      "link": ""
    },
    {
      "id": 424146,
      "lat": 32.6821624,
      "lon": 35.2773957000001,
      "label": "בית מרקחת  של קופ\"ח כללית - יפיע",
      "text": "",
      "stayTimes": "10:00 - 10:30",
      "t_start": "2020-04-05T08:00:00",
      "t_end": "2020-04-05T08:30:00",
      "link": ""
    },
    {
      "id": 424147,
      "lat": 32.1823231000001,
      "lon": 34.8954868000001,
      "label": "מאיר - כפר סבא",
      "text": "",
      "stayTimes": "07:00 - 22:00",
      "t_start": "2020-04-06T05:00:00",
      "t_end": "2020-04-06T20:00:00",
      "link": ""
    },
    {
      "id": 424148,
      "lat": 32.1823231000001,
      "lon": 34.8954868000001,
      "label": "מאיר - כפר סבא",
      "text": "",
      "stayTimes": "07:00 - 16:30",
      "t_start": "2020-04-07T05:00:00",
      "t_end": "2020-04-07T14:30:00",
      "link": ""
    },
    {
      "id": 424149,
      "lat": 32.7791922000001,
      "lon": 35.5029054,
      "label": "סופר מרקט יוחננוף - טבריה",
      "text": "",
      "stayTimes": "00:00 - 06:00",
      "t_start": "2020-04-02T22:00:00",
      "t_end": "2020-04-03T04:00:00",
      "link": ""
    },
    {
      "id": 424150,
      "lat": 32.451313,
      "lon": 34.8957780000001,
      "label": "רנטגן הלל יפה - חדרה",
      "text": "",
      "stayTimes": "14:30 - 22:30",
      "t_start": "2020-04-08T12:30:00",
      "t_end": "2020-04-08T20:30:00",
      "link": ""
    },
    {
      "id": 424151,
      "lat": 31.7553799,
      "lon": 35.2236139,
      "label": "טרם תלפיות - ירושלים",
      "text": "",
      "stayTimes": "19:00 - 20:00",
      "t_start": "2020-04-04T17:00:00",
      "t_end": "2020-04-04T18:00:00",
      "link": ""
    },
    {
      "id": 424152,
      "lat": 32.4623320160001,
      "lon": 35.046626772,
      "label": "שופרסל אקספרס - חריש",
      "text": "",
      "stayTimes": "19:30 - 20:00",
      "t_start": "2020-04-07T17:30:00",
      "t_end": "2020-04-07T18:00:00",
      "link": ""
    },
    {
      "id": 424153,
      "lat": 31.6109624000001,
      "lon": 34.7546495,
      "label": "ברכת אלעזר - קרית גת",
      "text": "",
      "stayTimes": "12:30 - 14:30",
      "t_start": "2020-04-03T10:30:00",
      "t_end": "2020-04-03T12:30:00",
      "link": ""
    },
    {
      "id": 424154,
      "lat": 31.814233394,
      "lon": 34.776429153,
      "label": "מעון מוריה - גדרה",
      "text": "",
      "stayTimes": "05:30 - 14:30",
      "t_start": "2020-04-06T03:30:00",
      "t_end": "2020-04-06T12:30:00",
      "link": ""
    },
    {
      "id": 424155,
      "lat": 31.814216984,
      "lon": 34.7764141330001,
      "label": "מעון מוריה - גדרה",
      "text": "",
      "stayTimes": "05:30 - 14:30",
      "t_start": "2020-04-07T03:30:00",
      "t_end": "2020-04-07T12:30:00",
      "link": ""
    },
    {
      "id": 424156,
      "lat": 31.8142128550001,
      "lon": 34.7764177930001,
      "label": "מעון מוריה - גדרה",
      "text": "",
      "stayTimes": "05:30 - 14:30",
      "t_start": "2020-04-08T03:30:00",
      "t_end": "2020-04-08T12:30:00",
      "link": ""
    },
    {
      "id": 424157,
      "lat": 31.2567036,
      "lon": 35.2087649000001,
      "label": "חנות \"אדלר דגים\" - ערד",
      "text": "",
      "stayTimes": "12:00 - 12:10",
      "t_start": "2020-04-03T10:00:00",
      "t_end": "2020-04-03T10:10:00",
      "link": ""
    },
    {
      "id": 424158,
      "lat": 31.2563912970001,
      "lon": 35.20824499,
      "label": "חנות ירקות\" ברכת הדה\" - ערד",
      "text": "",
      "stayTimes": "12:10 - 12:40",
      "t_start": "2020-04-03T10:10:00",
      "t_end": "2020-04-03T10:40:00",
      "link": ""
    },
    {
      "id": 424159,
      "lat": 32.0862991000001,
      "lon": 34.8348894000001,
      "label": "רשת נתיב החסד - בני ברק",
      "text": "",
      "stayTimes": "07:00 - 09:00",
      "t_start": "2020-04-07T05:00:00",
      "t_end": "2020-04-07T07:00:00",
      "link": ""
    },
    {
      "id": 424160,
      "lat": 32.0891573540001,
      "lon": 34.8440267920001,
      "label": "רשת נתיב החסד - בני ברק",
      "text": "",
      "stayTimes": "12:30 - 13:00",
      "t_start": "2020-04-07T10:30:00",
      "t_end": "2020-04-07T11:00:00",
      "link": ""
    },
    {
      "id": 424161,
      "lat": 32.0796249000001,
      "lon": 34.8411712000001,
      "label": "ברכול - בני ברק",
      "text": "",
      "stayTimes": "11:00 - 12:00",
      "t_start": "2020-04-07T09:00:00",
      "t_end": "2020-04-07T10:00:00",
      "link": ""
    },
    {
      "id": 424162,
      "lat": 32.086883636,
      "lon": 34.826847243,
      "label": "רשת נתיב החסד - בני ברק",
      "text": "",
      "stayTimes": "09:30 - 10:30",
      "t_start": "2020-04-07T07:30:00",
      "t_end": "2020-04-07T08:30:00",
      "link": ""
    },
    {
      "id": 424163,
      "lat": 32.0692707000001,
      "lon": 34.8386134,
      "label": "ברכול - רמת גן",
      "text": "",
      "stayTimes": "09:00 - 12:30",
      "t_start": "2020-04-06T07:00:00",
      "t_end": "2020-04-06T10:30:00",
      "link": ""
    },
    {
      "id": 424164,
      "lat": 32.090804238,
      "lon": 34.8389328600001,
      "label": "יש חסד - בני ברק",
      "text": "",
      "stayTimes": "11:30 - 12:00",
      "t_start": "2020-04-03T09:30:00",
      "t_end": "2020-04-03T10:00:00",
      "link": ""
    },
    {
      "id": 424165,
      "lat": 32.0905592940001,
      "lon": 34.8345385960001,
      "label": "מעיין 2000 - בני ברק",
      "text": "",
      "stayTimes": "08:30 - 11:00",
      "t_start": "2020-04-03T06:30:00",
      "t_end": "2020-04-03T09:00:00",
      "link": ""
    },
    {
      "id": 424166,
      "lat": 32.0751126710001,
      "lon": 34.838131892,
      "label": "נתיב החסד - בני ברק",
      "text": "",
      "stayTimes": "09:00 - 10:00",
      "t_start": "2020-04-05T07:00:00",
      "t_end": "2020-04-05T08:00:00",
      "link": ""
    },
    {
      "id": 424167,
      "lat": 32.1028236000001,
      "lon": 34.8361701000001,
      "label": "שופרסל דיל - בני ברק",
      "text": "",
      "stayTimes": "21:00 - 22:00",
      "t_start": "2020-04-04T19:00:00",
      "t_end": "2020-04-04T20:00:00",
      "link": ""
    },
    {
      "id": 424168,
      "lat": 32.1018083000001,
      "lon": 34.8298623000001,
      "label": "רמי לוי - בני ברק",
      "text": "",
      "stayTimes": "18:00 - 19:00",
      "t_start": "2020-04-06T16:00:00",
      "t_end": "2020-04-06T17:00:00",
      "link": ""
    },
    {
      "id": 424169,
      "lat": 32.098441286,
      "lon": 34.8242140410001,
      "label": "ויקטורי בקניון איילון - רמת גן",
      "text": "",
      "stayTimes": "19:00 - 20:00",
      "t_start": "2020-04-06T17:00:00",
      "t_end": "2020-04-06T18:00:00",
      "link": ""
    },
    {
      "id": 424170,
      "lat": 32.0905605450001,
      "lon": 34.8670575350001,
      "label": "בית חולים בלינסון - פתח תקווה",
      "text": "",
      "stayTimes": "07:45 - 12:15",
      "t_start": "2020-04-06T05:45:00",
      "t_end": "2020-04-06T10:15:00",
      "link": ""
    },
    {
      "id": 424171,
      "lat": 32.0885839650001,
      "lon": 34.889469504,
      "label": "קופת חולים לאומית - פתח תקווה",
      "text": "",
      "stayTimes": "08:00 - 08:20",
      "t_start": "2020-04-05T06:00:00",
      "t_end": "2020-04-05T06:20:00",
      "link": ""
    },
    {
      "id": 424172,
      "lat": 32.0801900000001,
      "lon": 34.8754429000001,
      "label": "טרם מוקד רפואה דחופה - פתח תקווה",
      "text": "",
      "stayTimes": "22:20 - 00:00",
      "t_start": "2020-04-03T20:20:00",
      "t_end": "2020-04-02T22:00:00",
      "link": ""
    },
    {
      "id": 424173,
      "lat": 31.8142224540001,
      "lon": 34.7764119880001,
      "label": "מעון מוריה - גדרה",
      "text": "",
      "stayTimes": "05:30 - 14:30",
      "t_start": "2020-04-12T03:30:00",
      "t_end": "2020-04-12T12:30:00",
      "link": ""
    },
    {
      "id": 424174,
      "lat": 32.0967519980001,
      "lon": 34.840960135,
      "label": "נתיב החסד - בני ברק",
      "text": "",
      "stayTimes": "12:00 - 14:30",
      "t_start": "2020-04-05T10:00:00",
      "t_end": "2020-04-05T12:30:00",
      "link": ""
    },
    {
      "id": 424175,
      "lat": 32.0986354120001,
      "lon": 34.839776977,
      "label": "נתיב החסד - בני ברק",
      "text": "",
      "stayTimes": "14:30 - 16:30",
      "t_start": "2020-04-05T12:30:00",
      "t_end": "2020-04-05T14:30:00",
      "link": ""
    },
    {
      "id": 424176,
      "lat": 32.0974892090001,
      "lon": 34.836421236,
      "label": "נתיב החסד - בני ברק",
      "text": "",
      "stayTimes": "08:00 - 09:00",
      "t_start": "2020-04-05T06:00:00",
      "t_end": "2020-04-05T07:00:00",
      "link": ""
    },
    {
      "id": 424177,
      "lat": 32.1018083000001,
      "lon": 34.8298623000001,
      "label": "רמי לוי - בני ברק",
      "text": "",
      "stayTimes": "22:00 - 23:30",
      "t_start": "2020-04-04T20:00:00",
      "t_end": "2020-04-04T21:30:00",
      "link": ""
    },
    {
      "id": 424178,
      "lat": 31.8030403000001,
      "lon": 35.2161090000001,
      "label": "בית אבות שומרי חומות - ירושלים",
      "text": "",
      "stayTimes": "08:00 - 08:30",
      "t_start": "2020-04-03T06:00:00",
      "t_end": "2020-04-03T06:30:00",
      "link": ""
    },
    {
      "id": 424179,
      "lat": 32.1655278000001,
      "lon": 34.8419696,
      "label": "קופת חולים מאוחדת - הרצליה",
      "text": "",
      "stayTimes": "13:30 - 14:00",
      "t_start": "2020-04-05T11:30:00",
      "t_end": "2020-04-05T12:00:00",
      "link": ""
    },
    {
      "id": 424180,
      "lat": 32.0827834,
      "lon": 34.8426542,
      "label": "צרכניה אחיעזר - בני ברק",
      "text": "",
      "stayTimes": "19:00 - 20:00",
      "t_start": "2020-04-05T17:00:00",
      "t_end": "2020-04-05T18:00:00",
      "link": ""
    },
    {
      "id": 424181,
      "lat": 31.9839168010001,
      "lon": 34.7689122560001,
      "label": "סופר רמי לוי מתחם G סינמה סיטי - ראשון לציון",
      "text": "",
      "stayTimes": "12:30 - 13:06",
      "t_start": "2020-04-06T10:30:00",
      "t_end": "2020-04-06T11:06:00",
      "link": ""
    },
    {
      "id": 424182,
      "lat": 32.0833881,
      "lon": 34.8405592,
      "label": "קופ\"ח מכבי בני ברק רח\" קהנמן 64 - בני ברק",
      "text": "",
      "stayTimes": "17:40 - 18:10",
      "t_start": "2020-04-06T15:40:00",
      "t_end": "2020-04-06T16:10:00",
      "link": ""
    },
    {
      "id": 424183,
      "lat": 31.764983806,
      "lon": 35.1494208570001,
      "label": "מח' תינוקות בי\"ח הדסה - ירושלים",
      "text": "",
      "stayTimes": "07:00 - 14:00",
      "t_start": "2020-04-06T05:00:00",
      "t_end": "2020-04-06T12:00:00",
      "link": ""
    },
    {
      "id": 424184,
      "lat": 31.7868018410001,
      "lon": 35.2099549070001,
      "label": "מוקד ערב של קופת חולים מאוחדת - ירושלים",
      "text": "",
      "stayTimes": "21:00 - 23:00",
      "t_start": "2020-04-05T19:00:00",
      "t_end": "2020-04-05T21:00:00",
      "link": ""
    },
    {
      "id": 424185,
      "lat": 31.7867898440001,
      "lon": 35.2099478700001,
      "label": "קופת חולים מאוחדת - ירושלים",
      "text": "",
      "stayTimes": "12:00 - 12:45",
      "t_start": "2020-04-06T10:00:00",
      "t_end": "2020-04-06T10:45:00",
      "link": ""
    },
    {
      "id": 424186,
      "lat": 31.7928283000001,
      "lon": 34.6535121000001,
      "label": "מרקט בראש צעיר - אשדוד",
      "text": "",
      "stayTimes": "12:00 - 12:30",
      "t_start": "2020-04-03T10:00:00",
      "t_end": "2020-04-03T10:30:00",
      "link": ""
    },
    {
      "id": 424187,
      "lat": 31.7892705800001,
      "lon": 35.2181986470001,
      "label": "קופת חולים מאוחדת פסגת זאב - ירושלים",
      "text": "",
      "stayTimes": "16:45 - 17:00",
      "t_start": "2020-04-05T14:45:00",
      "t_end": "2020-04-05T15:00:00",
      "link": ""
    },
    {
      "id": 424188,
      "lat": 32.0862991000001,
      "lon": 34.8348894000001,
      "label": "נתיב החסד - בני ברק",
      "text": "",
      "stayTimes": "11:00 - 11:30",
      "t_start": "2020-04-03T09:00:00",
      "t_end": "2020-04-03T09:30:00",
      "link": ""
    },
    {
      "id": 424189,
      "lat": 32.1557439000001,
      "lon": 34.8911459,
      "label": "\"שקדיה\" - הוד השרון",
      "text": "",
      "stayTimes": "08:00 - 08:30",
      "t_start": "2020-04-08T06:00:00",
      "t_end": "2020-04-08T06:30:00",
      "link": ""
    },
    {
      "id": 424190,
      "lat": 32.1558361,
      "lon": 34.8911464,
      "label": "בית מרקחת של מכבי - הוד השרון",
      "text": "",
      "stayTimes": "08:00 - 08:30",
      "t_start": "2020-04-08T06:00:00",
      "t_end": "2020-04-08T06:30:00",
      "link": ""
    },
    {
      "id": 424191,
      "lat": 32.1558146,
      "lon": 34.8910203,
      "label": "מעדניה - הוד השרון",
      "text": "",
      "stayTimes": "08:00 - 08:30",
      "t_start": "2020-04-08T06:00:00",
      "t_end": "2020-04-08T06:30:00",
      "link": ""
    },
    {
      "id": 424192,
      "lat": 32.1591120000001,
      "lon": 34.8883456,
      "label": "מגה בעיר - הוד השרון",
      "text": "",
      "stayTimes": "08:00 - 08:30",
      "t_start": "2020-04-08T06:00:00",
      "t_end": "2020-04-08T06:30:00",
      "link": ""
    },
    {
      "id": 424193,
      "lat": 32.1690857,
      "lon": 34.8775149000001,
      "label": "חנות משק - גבעת ח\"ן",
      "text": "",
      "stayTimes": "08:00 - 08:30",
      "t_start": "2020-04-08T06:00:00",
      "t_end": "2020-04-08T06:30:00",
      "link": ""
    },
    {
      "id": 424194,
      "lat": 32.1432281,
      "lon": 34.891664,
      "label": "סופר בקניון עזריאל - הוד השרון",
      "text": "",
      "stayTimes": "08:00 - 08:30",
      "t_start": "2020-04-08T06:00:00",
      "t_end": "2020-04-08T06:30:00",
      "link": ""
    },
    {
      "id": 424195,
      "lat": 32.0710518220001,
      "lon": 34.8022676530001,
      "label": "בית הקברות רמב\"מ - גבעתיים",
      "text": "",
      "stayTimes": "08:00 - 21:00",
      "t_start": "2020-04-08T06:00:00",
      "t_end": "2020-04-08T19:00:00",
      "link": ""
    },
    {
      "id": 424196,
      "lat": 32.779623171,
      "lon": 35.5114331830001,
      "label": "הנשיא ויצמן 1017, טבריה",
      "text": "",
      "stayTimes": "12:00 - 13:30",
      "t_start": "2020-04-07T10:00:00",
      "t_end": "2020-04-07T11:30:00",
      "link": ""
    },
    {
      "id": 424197,
      "lat": 32.7792120440001,
      "lon": 35.50291163,
      "label": "החרושת 10, טבריה",
      "text": "",
      "stayTimes": "13:45 - 14:15",
      "t_start": "2020-04-07T11:45:00",
      "t_end": "2020-04-07T12:15:00",
      "link": ""
    },
    {
      "id": 424198,
      "lat": 32.0967416670001,
      "lon": 34.8858377930001,
      "label": "\"צמיגי המושבה\" - פתח תקווה",
      "text": "",
      "stayTimes": "07:00 - 14:00",
      "t_start": "2020-04-03T05:00:00",
      "t_end": "2020-04-03T12:00:00",
      "link": ""
    },
    {
      "id": 424199,
      "lat": 32.096705764,
      "lon": 34.8856532980001,
      "label": "סופר \"יינות ביתן\" - פתח תקווה",
      "text": "",
      "stayTimes": "12:00 - 13:00",
      "t_start": "2020-04-03T10:00:00",
      "t_end": "2020-04-03T11:00:00",
      "link": ""
    },
    {
      "id": 424200,
      "lat": 32.7791922000001,
      "lon": 35.5029054,
      "label": "סופר מרקט יוחננוף - טבריה",
      "text": "",
      "stayTimes": "07:30 - 07:45",
      "t_start": "2020-04-05T05:30:00",
      "t_end": "2020-04-05T05:45:00",
      "link": ""
    },
    {
      "id": 424201,
      "lat": 32.0556009000001,
      "lon": 34.8631348000001,
      "label": "סופר \"מגה\" - קרית אונו",
      "text": "",
      "stayTimes": "07:00 - 07:30",
      "t_start": "2020-04-07T05:00:00",
      "t_end": "2020-04-07T05:30:00",
      "link": ""
    },
    {
      "id": 424202,
      "lat": 32.0880423,
      "lon": 34.8884476000001,
      "label": "סניף דואר - פתח תקווה",
      "text": "",
      "stayTimes": "12:00 - 12:30",
      "t_start": "2020-04-07T10:00:00",
      "t_end": "2020-04-07T10:30:00",
      "link": ""
    },
    {
      "id": 424203,
      "lat": 32.4587389500001,
      "lon": 35.0443252960001,
      "label": "שופרסל אקספרס - חריש",
      "text": "",
      "stayTimes": "08:00 - 08:30",
      "t_start": "2020-04-06T06:00:00",
      "t_end": "2020-04-06T06:30:00",
      "link": ""
    },
    {
      "id": 424204,
      "lat": 32.0796249000001,
      "lon": 34.8411712000001,
      "label": "בר כל - בני ברק",
      "text": "",
      "stayTimes": "12:30 - 14:00",
      "t_start": "2020-04-07T10:30:00",
      "t_end": "2020-04-07T12:00:00",
      "link": ""
    },
    {
      "id": 424205,
      "lat": 32.795186373,
      "lon": 35.5246994020001,
      "label": "קופת חולים רקתי - טבריה",
      "text": "",
      "stayTimes": "08:30 - 09:00",
      "t_start": "2020-04-03T06:30:00",
      "t_end": "2020-04-03T07:00:00",
      "link": ""
    },
    {
      "id": 424206,
      "lat": 33.0873216310001,
      "lon": 35.174017404,
      "label": "מרכולית קיבוץ חניתה - חניתה",
      "text": "",
      "stayTimes": "09:00 - 09:30",
      "t_start": "2020-04-03T07:00:00",
      "t_end": "2020-04-03T07:30:00",
      "link": ""
    },
    {
      "id": 424207,
      "lat": 31.7553923200001,
      "lon": 35.223620322,
      "label": "טרם - ירושלים",
      "text": "",
      "stayTimes": "09:30 - 10:30",
      "t_start": "2020-04-06T07:30:00",
      "t_end": "2020-04-06T08:30:00",
      "link": ""
    },
    {
      "id": 424208,
      "lat": 32.05697,
      "lon": 34.8662897,
      "label": "נתח קצבים - קרית אונו",
      "text": "",
      "stayTimes": "11:00 - 12:00",
      "t_start": "2020-04-03T09:00:00",
      "t_end": "2020-04-03T10:00:00",
      "link": ""
    },
    {
      "id": 424209,
      "lat": 32.052559,
      "lon": 34.9512194000001,
      "label": "סופרמרקט יש חסד - אלעד",
      "text": "",
      "stayTimes": "05:00 - 23:30",
      "t_start": "2020-04-03T03:00:00",
      "t_end": "2020-04-03T21:30:00",
      "link": ""
    },
    {
      "id": 424210,
      "lat": 31.8652568000001,
      "lon": 35.1681530000001,
      "label": "סופר מחסני השוק - גבעת זאב",
      "text": "",
      "stayTimes": "21:30 - 22:30",
      "t_start": "2020-04-07T19:30:00",
      "t_end": "2020-04-07T20:30:00",
      "link": ""
    },
    {
      "id": 424211,
      "lat": 31.8652905930001,
      "lon": 35.1678811200001,
      "label": "מרקטו 2000 - גבעת זאב",
      "text": "",
      "stayTimes": "11:00 - 11:30",
      "t_start": "2020-04-08T09:00:00",
      "t_end": "2020-04-08T09:30:00",
      "link": ""
    },
    {
      "id": 424212,
      "lat": 32.182369911,
      "lon": 34.8955200460001,
      "label": "בית חולים מאיר - כפר סבא",
      "text": "",
      "stayTimes": "19:00 - 19:30",
      "t_start": "2020-04-08T17:00:00",
      "t_end": "2020-04-08T17:30:00",
      "link": ""
    },
    {
      "id": 424213,
      "lat": 31.7926447730001,
      "lon": 35.2241985920001,
      "label": "סופר - ירושלים",
      "text": "",
      "stayTimes": "09:00 - 09:30",
      "t_start": "2020-04-05T07:00:00",
      "t_end": "2020-04-05T07:30:00",
      "link": ""
    },
    {
      "id": 424214,
      "lat": 31.937298766,
      "lon": 35.043176385,
      "label": "ברכת הרשבי - מודיעין עילית",
      "text": "",
      "stayTimes": "13:00 - 13:15",
      "t_start": "2020-04-05T11:00:00",
      "t_end": "2020-04-05T11:15:00",
      "link": ""
    },
    {
      "id": 424215,
      "lat": 32.4659574090001,
      "lon": 34.9787887540001,
      "label": "הדקלים 20, פרדס חנה-כרכור",
      "text": "",
      "stayTimes": "08:00 - 08:30",
      "t_start": "2020-04-04T06:00:00",
      "t_end": "2020-04-04T06:30:00",
      "link": ""
    },
    {
      "id": 424216,
      "lat": 31.0649096000001,
      "lon": 35.0183159000001,
      "label": "קייטרינג השף והסועד - דימונה",
      "text": "",
      "stayTimes": "10:00 - 11:00",
      "t_start": "2020-04-03T08:00:00",
      "t_end": "2020-04-03T09:00:00",
      "link": ""
    },
    {
      "id": 424217,
      "lat": 31.7904638750001,
      "lon": 35.208752379,
      "label": "כללית סניף מקור ברוך - ירושלים",
      "text": "",
      "stayTimes": "08:00 - 17:00",
      "t_start": "2020-04-03T06:00:00",
      "t_end": "2020-04-03T15:00:00",
      "link": ""
    },
    {
      "id": 424218,
      "lat": 31.764963902,
      "lon": 35.1494119290001,
      "label": "מיון קורונה עין כרם - ירושלים",
      "text": "",
      "stayTimes": "10:00 - 16:00",
      "t_start": "2020-04-03T08:00:00",
      "t_end": "2020-04-03T14:00:00",
      "link": ""
    },
    {
      "id": 424219,
      "lat": 31.7631179000001,
      "lon": 35.2293939,
      "label": "כללית אבו טור - ירושלים",
      "text": "",
      "stayTimes": "15:48 - 16:18",
      "t_start": "2020-04-04T13:48:00",
      "t_end": "2020-04-04T14:18:00",
      "link": ""
    },
    {
      "id": 424220,
      "lat": 32.4351603000001,
      "lon": 34.9089263000001,
      "label": "שופרסל דיל שערי חדרה - חדרה",
      "text": "",
      "stayTimes": "11:00 - 12:00",
      "t_start": "2020-04-05T09:00:00",
      "t_end": "2020-04-05T10:00:00",
      "link": ""
    },
    {
      "id": 424221,
      "lat": 32.4362153000001,
      "lon": 34.9211945000001,
      "label": "בנק הפועלים - חדרה",
      "text": "",
      "stayTimes": "09:00 - 10:00",
      "t_start": "2020-04-05T07:00:00",
      "t_end": "2020-04-05T08:00:00",
      "link": ""
    },
    {
      "id": 424222,
      "lat": 32.4357942,
      "lon": 34.9163935,
      "label": "קופרת חולים כללית קורן - חדרה",
      "text": "",
      "stayTimes": "08:00 - 08:30",
      "t_start": "2020-04-05T06:00:00",
      "t_end": "2020-04-05T06:30:00",
      "link": ""
    },
    {
      "id": 424223,
      "lat": 32.779217556,
      "lon": 35.502913419,
      "label": "החרושת 10, טבריה",
      "text": "",
      "stayTimes": "08:00 - 16:00",
      "t_start": "2020-04-03T06:00:00",
      "t_end": "2020-04-03T14:00:00",
      "link": ""
    },
    {
      "id": 424224,
      "lat": 32.4054100320001,
      "lon": 35.048642769,
      "label": "אטליז אחמד זוהדי עת'אמנה - באקה אל-גרביה",
      "text": "",
      "stayTimes": "10:00 - 10:45",
      "t_start": "2020-04-03T08:00:00",
      "t_end": "2020-04-03T08:45:00",
      "link": ""
    },
    {
      "id": 424225,
      "lat": 31.9648014000001,
      "lon": 34.7920651000001,
      "label": "פיצריה ירושלמית - ראשון לציון",
      "text": "",
      "stayTimes": "11:00 - 16:30",
      "t_start": "2020-04-03T09:00:00",
      "t_end": "2020-04-03T14:30:00",
      "link": ""
    },
    {
      "id": 424226,
      "lat": 31.9648014000001,
      "lon": 34.7920651000001,
      "label": "פיצריה ירושלמית - ראשון לציון",
      "text": "",
      "stayTimes": "15:00 - 22:00",
      "t_start": "2020-04-04T13:00:00",
      "t_end": "2020-04-04T20:00:00",
      "link": ""
    },
    {
      "id": 424227,
      "lat": 31.9648014000001,
      "lon": 34.7920651000001,
      "label": "פיצריה ירושלמית - ראשון לציון",
      "text": "",
      "stayTimes": "13:00 - 22:00",
      "t_start": "2020-04-05T11:00:00",
      "t_end": "2020-04-05T20:00:00",
      "link": ""
    },
    {
      "id": 424228,
      "lat": 31.9648014000001,
      "lon": 34.7920651000001,
      "label": "פיצריה ירושלמית - ראשון לציון",
      "text": "",
      "stayTimes": "15:00 - 22:00",
      "t_start": "2020-04-06T13:00:00",
      "t_end": "2020-04-06T20:00:00",
      "link": ""
    },
    {
      "id": 424229,
      "lat": 31.7656617000001,
      "lon": 35.1491024000001,
      "label": "בית חולים הדסה עין כרם, מיון קורונה - ירושלים",
      "text": "",
      "stayTimes": "13:00 - 22:00",
      "t_start": "2020-04-03T11:00:00",
      "t_end": "2020-04-03T20:00:00",
      "link": ""
    },
    {
      "id": 424230,
      "lat": 31.8030403000001,
      "lon": 35.2161090000001,
      "label": "מעון הורים שומרי החומות - ירושלים",
      "text": "",
      "stayTimes": "08:00 - 08:30",
      "t_start": "2020-04-06T06:00:00",
      "t_end": "2020-04-06T06:30:00",
      "link": ""
    },
    {
      "id": 424231,
      "lat": 31.7852588000001,
      "lon": 35.1830189,
      "label": "אושר עד גבעת שאול - ירושלים",
      "text": "",
      "stayTimes": "17:00 - 19:00",
      "t_start": "2020-04-05T15:00:00",
      "t_end": "2020-04-05T17:00:00",
      "link": ""
    },
    {
      "id": 424232,
      "lat": 31.771007561,
      "lon": 35.183845385,
      "label": "שפע ברכת השם - בית וגן - ירושלים",
      "text": "",
      "stayTimes": "12:00 - 13:00",
      "t_start": "2020-04-07T10:00:00",
      "t_end": "2020-04-07T11:00:00",
      "link": ""
    },
    {
      "id": 424233,
      "lat": 32.3283018290001,
      "lon": 34.8567293560001,
      "label": "חנות חשמל של רובי - נתניה",
      "text": "",
      "stayTimes": "10:30 - 16:30",
      "t_start": "2020-04-05T08:30:00",
      "t_end": "2020-04-05T14:30:00",
      "link": ""
    },
    {
      "id": 424234,
      "lat": 32.7890532000001,
      "lon": 35.5335639,
      "label": "יהודה הלוי 113, טבריה",
      "text": "",
      "stayTimes": "12:30 - 18:00",
      "t_start": "2020-04-06T10:30:00",
      "t_end": "2020-04-06T16:00:00",
      "link": ""
    },
    {
      "id": 424235,
      "lat": 32.7789031,
      "lon": 35.5167485000001,
      "label": "אור חיים 11, טבריה",
      "text": "",
      "stayTimes": "11:00 - 11:45",
      "t_start": "2020-04-05T09:00:00",
      "t_end": "2020-04-05T09:45:00",
      "link": ""
    },
    {
      "id": 424236,
      "lat": 31.791939063,
      "lon": 35.2045534440001,
      "label": "סופרמרקט שערי רווחה - ירושלים",
      "text": "",
      "stayTimes": "22:00 - 23:30",
      "t_start": "2020-04-04T20:00:00",
      "t_end": "2020-04-04T21:30:00",
      "link": ""
    },
    {
      "id": 424237,
      "lat": 32.0773136,
      "lon": 34.8423142,
      "label": "שוק העיר - בני ברק",
      "text": "",
      "stayTimes": "09:00 - 10:30",
      "t_start": "2020-04-08T07:00:00",
      "t_end": "2020-04-08T08:30:00",
      "link": ""
    },
    {
      "id": 424238,
      "lat": 31.79952067,
      "lon": 34.6643245280001,
      "label": "צרכניית אחיעזר אשדוד ג' - אשדוד",
      "text": "",
      "stayTimes": "21:00 - 21:30",
      "t_start": "2020-04-04T19:00:00",
      "t_end": "2020-04-04T19:30:00",
      "link": ""
    },
    {
      "id": 424239,
      "lat": 32.4587369380001,
      "lon": 35.044326749,
      "label": "שופר סל אקספרס - חריש",
      "text": "",
      "stayTimes": "08:00 - 08:30",
      "t_start": "2020-04-08T06:00:00",
      "t_end": "2020-04-08T06:30:00",
      "link": ""
    },
    {
      "id": 424240,
      "lat": 31.943012986,
      "lon": 35.2221031450001,
      "label": "\"יינות ביתן\" - בית אל",
      "text": "",
      "stayTimes": "12:45 - 13:00",
      "t_start": "2020-04-03T10:45:00",
      "t_end": "2020-04-03T11:00:00",
      "link": ""
    },
    {
      "id": 424241,
      "lat": 31.7932316000001,
      "lon": 35.3288288000001,
      "label": "מפעל \"הר שפי\" - מעלה אדומים",
      "text": "",
      "stayTimes": "08:00 - 17:00",
      "t_start": "2020-04-05T06:00:00",
      "t_end": "2020-04-05T15:00:00",
      "link": ""
    },
    {
      "id": 424242,
      "lat": 32.098936624,
      "lon": 34.829752802,
      "label": "סופר אושר עד - בני ברק",
      "text": "",
      "stayTimes": "07:00 - 18:00",
      "t_start": "2020-04-03T05:00:00",
      "t_end": "2020-04-03T16:00:00",
      "link": ""
    },
    {
      "id": 424243,
      "lat": 32.0989093530001,
      "lon": 34.829728135,
      "label": "סופר אושר עד - בני ברק",
      "text": "",
      "stayTimes": "07:00 - 23:00",
      "t_start": "2020-04-05T05:00:00",
      "t_end": "2020-04-05T21:00:00",
      "link": ""
    },
    {
      "id": 424244,
      "lat": 32.098967524,
      "lon": 34.829788212,
      "label": "סופר אושר עד - בני ברק",
      "text": "",
      "stayTimes": "07:00 - 23:00",
      "t_start": "2020-04-06T05:00:00",
      "t_end": "2020-04-06T21:00:00",
      "link": ""
    },
    {
      "id": 424245,
      "lat": 32.0988889000001,
      "lon": 34.8297222,
      "label": "סופר עושר עד - בני ברק",
      "text": "",
      "stayTimes": "07:00 - 23:00",
      "t_start": "2020-04-07T05:00:00",
      "t_end": "2020-04-07T21:00:00",
      "link": ""
    },
    {
      "id": 424246,
      "lat": 31.7948177000001,
      "lon": 34.6407751,
      "label": "סופר פאפא - אשדוד",
      "text": "",
      "stayTimes": "14:00 - 14:30",
      "t_start": "2020-04-07T12:00:00",
      "t_end": "2020-04-07T12:30:00",
      "link": ""
    },
    {
      "id": 424247,
      "lat": 32.7890532000001,
      "lon": 35.5335639,
      "label": "יהודה הלוי 113, טבריה",
      "text": "",
      "stayTimes": "12:30 - 18:00",
      "t_start": "2020-04-06T10:30:00",
      "t_end": "2020-04-06T16:00:00",
      "link": ""
    },
    {
      "id": 424248,
      "lat": 32.779251238,
      "lon": 35.516785172,
      "label": "דואר ישראל - טבריה",
      "text": "",
      "stayTimes": "11:00 - 11:45",
      "t_start": "2020-04-05T09:00:00",
      "t_end": "2020-04-05T09:45:00",
      "link": ""
    },
    {
      "id": 424249,
      "lat": 31.7937868810001,
      "lon": 35.3337773370001,
      "label": "רמי לוי - סניף מעלה אדומים - מעלה אדומים",
      "text": "",
      "stayTimes": "10:00 - 12:00",
      "t_start": "2020-04-07T08:00:00",
      "t_end": "2020-04-07T10:00:00",
      "link": ""
    },
    {
      "id": 424250,
      "lat": 32.079536365,
      "lon": 34.835004128,
      "label": "מכולת נחמיה - בני ברק",
      "text": "",
      "stayTimes": "10:00 - 10:30",
      "t_start": "2020-04-06T08:00:00",
      "t_end": "2020-04-06T08:30:00",
      "link": ""
    },
    {
      "id": 424251,
      "lat": 32.0860317030001,
      "lon": 34.830396831,
      "label": "בית מרקחת קופ\"ח מכבי - בני ברק",
      "text": "",
      "stayTimes": "11:30 - 12:00",
      "t_start": "2020-04-03T09:30:00",
      "t_end": "2020-04-03T10:00:00",
      "link": ""
    },
    {
      "id": 424252,
      "lat": 31.795607363,
      "lon": 35.2144395610001,
      "label": "בית כנסת באבוב - ירושלים",
      "text": "",
      "stayTimes": "16:00 - 18:00",
      "t_start": "2020-04-03T14:00:00",
      "t_end": "2020-04-03T16:00:00",
      "link": ""
    },
    {
      "id": 424253,
      "lat": 32.0796249000001,
      "lon": 34.8411712000001,
      "label": "ברכל - בני ברק",
      "text": "",
      "stayTimes": "10:00 - 11:00",
      "t_start": "2020-04-03T08:00:00",
      "t_end": "2020-04-03T09:00:00",
      "link": ""
    },
    {
      "id": 424254,
      "lat": 31.9661207720001,
      "lon": 34.8019810280001,
      "label": "חניון ניסן יעקובי - ראשון לציון",
      "text": "",
      "stayTimes": "06:30 - 15:00",
      "t_start": "2020-04-05T04:30:00",
      "t_end": "2020-04-05T13:00:00",
      "link": ""
    },
    {
      "id": 424255,
      "lat": 31.9662154370001,
      "lon": 34.8024273450001,
      "label": "חניון \"ניסן יעקובי\" - ראשון לציון",
      "text": "",
      "stayTimes": "06:30 - 15:00",
      "t_start": "2020-04-03T04:30:00",
      "t_end": "2020-04-03T13:00:00",
      "link": ""
    },
    {
      "id": 424256,
      "lat": 31.7919300120001,
      "lon": 35.2045671670001,
      "label": "סופר \"שערי רווחה\" - ירושלים",
      "text": "",
      "stayTimes": "16:30 - 16:45",
      "t_start": "2020-04-05T14:30:00",
      "t_end": "2020-04-05T14:45:00",
      "link": ""
    },
    {
      "id": 424257,
      "lat": 31.7947479000001,
      "lon": 35.2084070000001,
      "label": "בית מרקחת בקניון \"רב שפע\" - ירושלים",
      "text": "",
      "stayTimes": "21:00 - 21:20",
      "t_start": "2020-04-05T19:00:00",
      "t_end": "2020-04-05T19:20:00",
      "link": ""
    },
    {
      "id": 424258,
      "lat": 31.75548095,
      "lon": 35.2236184770001,
      "label": "טרם סניף היילת - ירושלים",
      "text": "",
      "stayTimes": "09:30 - 10:30",
      "t_start": "2020-04-06T07:30:00",
      "t_end": "2020-04-06T08:30:00",
      "link": ""
    },
    {
      "id": 424259,
      "lat": 32.3969300000001,
      "lon": 35.035914,
      "label": "סופר אל באיין-כפר גת - ג'ת",
      "text": "",
      "stayTimes": "12:00 - 13:00",
      "t_start": "2020-04-06T10:00:00",
      "t_end": "2020-04-06T11:00:00",
      "link": ""
    },
    {
      "id": 424260,
      "lat": 32.7930742,
      "lon": 35.5343003,
      "label": "גלידות פלדמן - טבריה",
      "text": "",
      "stayTimes": "13:30 - 14:30",
      "t_start": "2020-04-08T11:30:00",
      "t_end": "2020-04-08T12:30:00",
      "link": ""
    },
    {
      "id": 424261,
      "lat": 32.7931494000001,
      "lon": 35.5336308,
      "label": "חנות חד פעמי מולטי סרביס - טבריה",
      "text": "",
      "stayTimes": "20:30 - 21:30",
      "t_start": "2020-04-07T18:30:00",
      "t_end": "2020-04-07T19:30:00",
      "link": ""
    },
    {
      "id": 424262,
      "lat": 32.7892867370001,
      "lon": 35.5350182060001,
      "label": "סופרמרקט שופרסל דיל - טבריה",
      "text": "",
      "stayTimes": "12:00 - 13:30",
      "t_start": "2020-04-08T10:00:00",
      "t_end": "2020-04-08T11:30:00",
      "link": ""
    },
    {
      "id": 424263,
      "lat": 32.7892461500001,
      "lon": 35.535012841,
      "label": "סופרמרקט שופרסל דיל - טבריה",
      "text": "",
      "stayTimes": "18:00 - 20:00",
      "t_start": "2020-04-07T16:00:00",
      "t_end": "2020-04-07T18:00:00",
      "link": ""
    },
    {
      "id": 424264,
      "lat": 32.081199322,
      "lon": 34.8224394480001,
      "label": "שיווק ישיר - בני ברק",
      "text": "",
      "stayTimes": "08:00 - 09:00",
      "t_start": "2020-04-03T06:00:00",
      "t_end": "2020-04-03T07:00:00",
      "link": ""
    },
    {
      "id": 424265,
      "lat": 32.0806874,
      "lon": 34.8407821000001,
      "label": "מאפיית וישניץ - בני ברק",
      "text": "",
      "stayTimes": "08:00 - 09:00",
      "t_start": "2020-04-03T06:00:00",
      "t_end": "2020-04-03T07:00:00",
      "link": ""
    },
    {
      "id": 424266,
      "lat": 32.077318516,
      "lon": 34.8423142010001,
      "label": "שוק העיר - בני ברק",
      "text": "",
      "stayTimes": "16:00 - 17:00",
      "t_start": "2020-04-05T14:00:00",
      "t_end": "2020-04-05T15:00:00",
      "link": ""
    },
    {
      "id": 424267,
      "lat": 31.7641922,
      "lon": 35.1947682000001,
      "label": "מכולת מעיין - ירושלים",
      "text": "",
      "stayTimes": "13:30 - 14:00",
      "t_start": "2020-04-03T11:30:00",
      "t_end": "2020-04-03T12:00:00",
      "link": ""
    },
    {
      "id": 424268,
      "lat": 31.9429862000001,
      "lon": 34.8759535,
      "label": "מוטי מרקט - לוד",
      "text": "",
      "stayTimes": "10:30 - 12:30",
      "t_start": "2020-04-07T08:30:00",
      "t_end": "2020-04-07T10:30:00",
      "link": ""
    },
    {
      "id": 424269,
      "lat": 32.7791922000001,
      "lon": 35.5029054,
      "label": "סופרמרקט יוחננוף - טבריה",
      "text": "",
      "stayTimes": "14:00 - 16:00",
      "t_start": "2020-04-06T12:00:00",
      "t_end": "2020-04-06T14:00:00",
      "link": ""
    },
    {
      "id": 424270,
      "lat": 32.0908013000001,
      "lon": 34.8389312,
      "label": "חנות \"יש\" - בני ברק",
      "text": "",
      "stayTimes": "14:30 - 15:30",
      "t_start": "2020-04-06T12:30:00",
      "t_end": "2020-04-06T13:30:00",
      "link": ""
    },
    {
      "id": 424271,
      "lat": 32.0899676000001,
      "lon": 34.8385091000001,
      "label": "שיווק ישיר - בני ברק",
      "text": "",
      "stayTimes": "16:00 - 16:45",
      "t_start": "2020-04-06T14:00:00",
      "t_end": "2020-04-06T14:45:00",
      "link": ""
    },
    {
      "id": 424272,
      "lat": 32.7246002000001,
      "lon": 35.0581080000001,
      "label": "מרפאת מאוחדת סניף ראשי - עספיא",
      "text": "",
      "stayTimes": "08:20 - 08:50",
      "t_start": "2020-04-05T06:20:00",
      "t_end": "2020-04-05T06:50:00",
      "link": ""
    },
    {
      "id": 424273,
      "lat": 31.7867965,
      "lon": 34.6446318000001,
      "label": "מכולת הציונות - אשדוד",
      "text": "",
      "stayTimes": "17:30 - 18:00",
      "t_start": "2020-04-06T15:30:00",
      "t_end": "2020-04-06T16:00:00",
      "link": ""
    },
    {
      "id": 424274,
      "lat": 31.7829486000001,
      "lon": 34.6549948000001,
      "label": "חנות מניה - אשדוד",
      "text": "",
      "stayTimes": "15:00 - 16:00",
      "t_start": "2020-04-04T13:00:00",
      "t_end": "2020-04-04T14:00:00",
      "link": ""
    },
    {
      "id": 424275,
      "lat": 31.9485812,
      "lon": 34.7889725000001,
      "label": "מרכז גריאטרי מלבן - ראשון לציון",
      "text": "",
      "stayTimes": "07:00 - 15:00",
      "t_start": "2020-04-03T05:00:00",
      "t_end": "2020-04-03T13:00:00",
      "link": ""
    },
    {
      "id": 424276,
      "lat": 31.9485812,
      "lon": 34.7889725000001,
      "label": "מרכז גריאטרי מלבן - ראשון לציון",
      "text": "",
      "stayTimes": "07:00 - 15:00",
      "t_start": "2020-04-05T05:00:00",
      "t_end": "2020-04-05T13:00:00",
      "link": ""
    },
    {
      "id": 424277,
      "lat": 32.1023710000001,
      "lon": 35.207100978,
      "label": "סופרפארם גוד פארם - אריאל",
      "text": "",
      "stayTimes": "10:00 - 10:15",
      "t_start": "2020-04-08T08:00:00",
      "t_end": "2020-04-08T08:15:00",
      "link": ""
    },
    {
      "id": 424278,
      "lat": 32.6039118,
      "lon": 35.294019,
      "label": "סופר פארם קניון עפולה - עפולה",
      "text": "",
      "stayTimes": "15:00 - 15:15",
      "t_start": "2020-04-03T13:00:00",
      "t_end": "2020-04-03T13:15:00",
      "link": ""
    },
    {
      "id": 424279,
      "lat": 32.5055083030001,
      "lon": 35.054321266,
      "label": "סופר אלג'זירה סניף אלערק - כפר קרע",
      "text": "",
      "stayTimes": "15:00 - 15:30",
      "t_start": "2020-04-06T13:00:00",
      "t_end": "2020-04-06T13:30:00",
      "link": ""
    },
    {
      "id": 424280,
      "lat": 32.6210762000001,
      "lon": 35.3165964,
      "label": "מיון בית חולים עפולה - עפולה",
      "text": "",
      "stayTimes": "08:00 - 14:30",
      "t_start": "2020-04-07T06:00:00",
      "t_end": "2020-04-07T12:30:00",
      "link": ""
    },
    {
      "id": 424281,
      "lat": 32.0055320000001,
      "lon": 34.8854112000001,
      "label": "נמל תעופה בן גוריון - נמל תעופה בן-גוריון",
      "text": "",
      "stayTimes": "11:50 - 12:20",
      "t_start": "2020-04-09T09:50:00",
      "t_end": "2020-04-09T10:20:00",
      "link": ""
    },
    {
      "id": 424282,
      "lat": 31.8142139,
      "lon": 34.7764126000001,
      "label": "מעון מוריה - גדרה",
      "text": "",
      "stayTimes": "05:30 - 14:30",
      "t_start": "2020-04-13T03:30:00",
      "t_end": "2020-04-13T12:30:00",
      "link": ""
    },
    {
      "id": 424283,
      "lat": 31.8142139,
      "lon": 34.7764126000001,
      "label": "מעון מוריה - גדרה",
      "text": "",
      "stayTimes": "05:30 - 12:00",
      "t_start": "2020-04-14T03:30:00",
      "t_end": "2020-04-14T10:00:00",
      "link": ""
    },
    {
      "id": 424284,
      "lat": 32.0824614000001,
      "lon": 34.8430837000001,
      "label": "חסדי דויד המלך סופר - בני ברק",
      "text": "",
      "stayTimes": "09:00 - 10:00",
      "t_start": "2020-04-07T07:00:00",
      "t_end": "2020-04-07T08:00:00",
      "link": ""
    },
    {
      "id": 424285,
      "lat": 32.0856737070001,
      "lon": 34.843682755,
      "label": "נתיב החסד - בני ברק",
      "text": "",
      "stayTimes": "10:00 - 10:30",
      "t_start": "2020-04-08T08:00:00",
      "t_end": "2020-04-08T08:30:00",
      "link": ""
    },
    {
      "id": 424286,
      "lat": 31.6180253000001,
      "lon": 34.7537390000001,
      "label": "סופר רחמים קרית גת - קרית גת",
      "text": "",
      "stayTimes": "10:00 - 10:30",
      "t_start": "2020-04-07T08:00:00",
      "t_end": "2020-04-07T08:30:00",
      "link": ""
    },
    {
      "id": 424287,
      "lat": 31.618117496,
      "lon": 34.75365649,
      "label": "סופר רחמים - קרית גת",
      "text": "",
      "stayTimes": "10:00 - 10:30",
      "t_start": "2020-04-05T08:00:00",
      "t_end": "2020-04-05T08:30:00",
      "link": ""
    },
    {
      "id": 424288,
      "lat": 31.618059053,
      "lon": 34.753742097,
      "label": "סופר רחמים - קרית גת",
      "text": "",
      "stayTimes": "10:00 - 10:30",
      "t_start": "2020-04-03T08:00:00",
      "t_end": "2020-04-03T08:30:00",
      "link": ""
    },
    {
      "id": 424289,
      "lat": 32.0362056000001,
      "lon": 34.7620058000001,
      "label": "\"שופרסל\" הלוחמים 62 חולון - חולון",
      "text": "",
      "stayTimes": "07:30 - 07:40",
      "t_start": "2020-04-05T05:30:00",
      "t_end": "2020-04-05T05:40:00",
      "link": ""
    },
    {
      "id": 424290,
      "lat": 32.0684001000001,
      "lon": 34.8220410000001,
      "label": "\"מגה בעיר\" עוזיאל 113 רמת גן - רמת גן",
      "text": "",
      "stayTimes": "11:10 - 11:20",
      "t_start": "2020-04-05T09:10:00",
      "t_end": "2020-04-05T09:20:00",
      "link": ""
    },
    {
      "id": 424291,
      "lat": 32.0715940000001,
      "lon": 34.828264,
      "label": "\"פרש מרקט\" בקניון מרום נווה רמת גן - רמת גן",
      "text": "",
      "stayTimes": "15:00 - 15:15",
      "t_start": "2020-04-06T13:00:00",
      "t_end": "2020-04-06T13:15:00",
      "link": ""
    },
    {
      "id": 424292,
      "lat": 31.9485812,
      "lon": 34.7889725000001,
      "label": "מרכז גריאטרי מלבן - ראשון לציון",
      "text": "",
      "stayTimes": "07:00 - 15:00",
      "t_start": "2020-04-07T05:00:00",
      "t_end": "2020-04-07T13:00:00",
      "link": ""
    },
    {
      "id": 424293,
      "lat": 32.0288814,
      "lon": 34.8889760000001,
      "label": "\"סיטונאות מאיר\" רח' סעדיה חתוכה 5 יהוד - יהוד",
      "text": "",
      "stayTimes": "07:00 - 07:15",
      "t_start": "2020-04-03T05:00:00",
      "t_end": "2020-04-03T05:15:00",
      "link": ""
    },
    {
      "id": 424294,
      "lat": 32.0289219000001,
      "lon": 34.8890638,
      "label": "\"מאפיית בית הלחם\" רח' סעדיה חתוכה 11 יהוד - יהוד",
      "text": "",
      "stayTimes": "07:20 - 07:30",
      "t_start": "2020-04-03T05:20:00",
      "t_end": "2020-04-03T05:30:00",
      "link": ""
    },
    {
      "id": 424295,
      "lat": 32.0813121,
      "lon": 34.7704048000001,
      "label": "\"שופרסל\" בן יהודה 79 תל אביב - תל אביב - יפו",
      "text": "",
      "stayTimes": "08:20 - 08:50",
      "t_start": "2020-04-06T06:20:00",
      "t_end": "2020-04-06T06:50:00",
      "link": ""
    },
    {
      "id": 424296,
      "lat": 32.0539889,
      "lon": 34.7647012,
      "label": "\"סופר ברקת\" רח' שלבים 27 תל אביב - תל אביב - יפו",
      "text": "",
      "stayTimes": "07:30 - 07:45",
      "t_start": "2020-04-06T05:30:00",
      "t_end": "2020-04-06T05:45:00",
      "link": ""
    },
    {
      "id": 424297,
      "lat": 32.04893229,
      "lon": 34.7668330600001,
      "label": "\" מפעל סנפיר ים\" - תל אביב - יפו",
      "text": "",
      "stayTimes": "09:15 - 09:45",
      "t_start": "2020-04-05T07:15:00",
      "t_end": "2020-04-05T07:45:00",
      "link": ""
    },
    {
      "id": 424298,
      "lat": 32.051057429,
      "lon": 34.7538797560001,
      "label": "\"שופרסל\" ביפו אנדרמודה רח' דרור 2 תל אביב - תל אביב - יפו",
      "text": "",
      "stayTimes": "08:00 - 08:15",
      "t_start": "2020-04-06T06:00:00",
      "t_end": "2020-04-06T06:15:00",
      "link": ""
    },
    {
      "id": 424299,
      "lat": 32.0562844,
      "lon": 34.7697156,
      "label": "\"שופרסל\" פלורטין 27 תל אביב - תל אביב - יפו",
      "text": "",
      "stayTimes": "10:45 - 11:00",
      "t_start": "2020-04-05T08:45:00",
      "t_end": "2020-04-05T09:00:00",
      "link": ""
    },
    {
      "id": 424300,
      "lat": 32.047802716,
      "lon": 34.7777715920001,
      "label": "\" סופר ברקת\" קיבוץ גלויות 106 תל אביב - תל אביב - יפו",
      "text": "",
      "stayTimes": "07:00 - 07:15",
      "t_start": "2020-04-06T05:00:00",
      "t_end": "2020-04-06T05:15:00",
      "link": ""
    },
    {
      "id": 424301,
      "lat": 32.042469,
      "lon": 34.78076,
      "label": "\"גלידה אמרקאית\" ישראל גורי 34 תל אביב - תל אביב - יפו",
      "text": "",
      "stayTimes": "10:30 - 10:40",
      "t_start": "2020-04-05T08:30:00",
      "t_end": "2020-04-05T08:40:00",
      "link": ""
    },
    {
      "id": 424302,
      "lat": 32.7846748000001,
      "lon": 34.9861212000001,
      "label": "רולדין - חיפה",
      "text": "",
      "stayTimes": "13:00 - 13:10",
      "t_start": "2020-04-10T11:00:00",
      "t_end": "2020-04-10T11:10:00",
      "link": ""
    },
    {
      "id": 424303,
      "lat": 32.7733010000001,
      "lon": 35.04452,
      "label": "מנטה תחנת דלק - נשר",
      "text": "",
      "stayTimes": "18:30 - 19:00",
      "t_start": "2020-04-07T16:30:00",
      "t_end": "2020-04-07T17:00:00",
      "link": ""
    },
    {
      "id": 424304,
      "lat": 31.9110217240001,
      "lon": 34.8064108790001,
      "label": "ויקטורי - רחובות",
      "text": "",
      "stayTimes": "17:30 - 18:30",
      "t_start": "2020-04-06T15:30:00",
      "t_end": "2020-04-06T16:30:00",
      "link": ""
    },
    {
      "id": 424305,
      "lat": 31.69806163,
      "lon": 35.1008720130001,
      "label": "סופר \" שבע ברכות השם\" - ביתר עילית",
      "text": "",
      "stayTimes": "08:30 - 09:30",
      "t_start": "2020-04-06T06:30:00",
      "t_end": "2020-04-06T07:30:00",
      "link": ""
    },
    {
      "id": 424306,
      "lat": 31.7051188,
      "lon": 35.1168587000001,
      "label": "סופר \"יש חסד\" - ביתר עילית",
      "text": "",
      "stayTimes": "12:30 - 13:00",
      "t_start": "2020-04-08T10:30:00",
      "t_end": "2020-04-08T11:00:00",
      "link": ""
    },
    {
      "id": 424307,
      "lat": 32.8163604000001,
      "lon": 34.9915912000001,
      "label": "בית אבות נוף הגפן - חיפה",
      "text": "",
      "stayTimes": "07:00 - 13:30",
      "t_start": "2020-04-08T05:00:00",
      "t_end": "2020-04-08T11:30:00",
      "link": ""
    },
    {
      "id": 424308,
      "lat": 32.7245491,
      "lon": 35.1139211,
      "label": "בית אבות מול כרמל בקיבוץ שער העמקים - שער העמקים",
      "text": "",
      "stayTimes": "15:00 - 23:00",
      "t_start": "2020-04-08T13:00:00",
      "t_end": "2020-04-08T21:00:00",
      "link": ""
    },
    {
      "id": 424309,
      "lat": 32.8058206000001,
      "lon": 34.9927190000001,
      "label": "מיון ב\"ח בני ציון - חיפה",
      "text": "",
      "stayTimes": "12:00 - 18:00",
      "t_start": "2020-04-03T10:00:00",
      "t_end": "2020-04-03T16:00:00",
      "link": ""
    },
    {
      "id": 424310,
      "lat": 32.7884388000001,
      "lon": 34.9863803000001,
      "label": "דואר ישראל אחוזה (מוריה) - חיפה",
      "text": "",
      "stayTimes": "08:45 - 09:00",
      "t_start": "2020-04-07T06:45:00",
      "t_end": "2020-04-07T07:00:00",
      "link": ""
    },
    {
      "id": 424311,
      "lat": 32.7830556000001,
      "lon": 34.9594444000001,
      "label": "שופרסל פארק מתם - חיפה",
      "text": "",
      "stayTimes": "20:30 - 21:00",
      "t_start": "2020-04-07T18:30:00",
      "t_end": "2020-04-07T19:00:00",
      "link": ""
    },
    {
      "id": 424312,
      "lat": 32.8034440000001,
      "lon": 34.9857153,
      "label": "סופר פארם \"כיכר האודיטוריום\" - חיפה",
      "text": "",
      "stayTimes": "12:00 - 12:15",
      "t_start": "2020-04-10T10:00:00",
      "t_end": "2020-04-10T10:15:00",
      "link": ""
    },
    {
      "id": 424313,
      "lat": 32.8033077000001,
      "lon": 34.9859483000001,
      "label": "חנות \"היין והסיגר\" \"כיכר האודיטוריום\" - חיפה",
      "text": "",
      "stayTimes": "12:30 - 12:40",
      "t_start": "2020-04-10T10:30:00",
      "t_end": "2020-04-10T10:40:00",
      "link": ""
    },
    {
      "id": 424314,
      "lat": 32.803503791,
      "lon": 34.9860512920001,
      "label": "סופר מגה בעיר \"כיכר האודיטוריום\" - חיפה",
      "text": "",
      "stayTimes": "12:45 - 12:55",
      "t_start": "2020-04-10T10:45:00",
      "t_end": "2020-04-10T10:55:00",
      "link": ""
    },
    {
      "id": 424315,
      "lat": 32.8175226000001,
      "lon": 34.972657,
      "label": "מכולת שכונתית - חיפה",
      "text": "",
      "stayTimes": "15:00 - 15:15",
      "t_start": "2020-04-08T13:00:00",
      "t_end": "2020-04-08T13:15:00",
      "link": ""
    },
    {
      "id": 424316,
      "lat": 31.7672858,
      "lon": 35.2018044000001,
      "label": "סופר פראם ניות - ירושלים",
      "text": "",
      "stayTimes": "08:15 - 08:45",
      "t_start": "2020-04-03T06:15:00",
      "t_end": "2020-04-03T06:45:00",
      "link": ""
    },
    {
      "id": 424317,
      "lat": 31.7672181,
      "lon": 35.202147,
      "label": "שופר סל נוית שלי - ירושלים",
      "text": "",
      "stayTimes": "08:30 - 09:30",
      "t_start": "2020-04-03T06:30:00",
      "t_end": "2020-04-03T07:30:00",
      "link": ""
    },
    {
      "id": 424318,
      "lat": 32.098810889,
      "lon": 34.9453303170001,
      "label": "תחנת משטרה - ראש העין",
      "text": "",
      "stayTimes": "07:30 - 16:00",
      "t_start": "2020-04-05T05:30:00",
      "t_end": "2020-04-05T14:00:00",
      "link": ""
    },
    {
      "id": 424319,
      "lat": 32.0988002,
      "lon": 34.9453306,
      "label": "תחנת משטרה - ראש העין",
      "text": "",
      "stayTimes": "07:30 - 16:00",
      "t_start": "2020-04-06T05:30:00",
      "t_end": "2020-04-06T14:00:00",
      "link": ""
    },
    {
      "id": 424320,
      "lat": 32.0988002,
      "lon": 34.9453306,
      "label": "תחנת משטרה - ראש העין",
      "text": "",
      "stayTimes": "07:30 - 16:00",
      "t_start": "2020-04-07T05:30:00",
      "t_end": "2020-04-07T14:00:00",
      "link": ""
    },
    {
      "id": 424321,
      "lat": 32.0988002,
      "lon": 34.9453306,
      "label": "תחנת משטרה - ראש העין",
      "text": "",
      "stayTimes": "07:30 - 11:00",
      "t_start": "2020-04-08T05:30:00",
      "t_end": "2020-04-08T09:00:00",
      "link": ""
    },
    {
      "id": 424322,
      "lat": 32.089936057,
      "lon": 34.833722472,
      "label": "חנות ירקות \"חסדי יהודה\" - בני ברק",
      "text": "",
      "stayTimes": "14:00 - 14:30",
      "t_start": "2020-04-03T12:00:00",
      "t_end": "2020-04-03T12:30:00",
      "link": ""
    },
    {
      "id": 424323,
      "lat": 32.0552349000001,
      "lon": 34.9606875000001,
      "label": "סופר שפע - אלעד",
      "text": "",
      "stayTimes": "10:00 - 10:30",
      "t_start": "2020-04-05T08:00:00",
      "t_end": "2020-04-05T08:30:00",
      "link": ""
    },
    {
      "id": 424324,
      "lat": 31.7051188,
      "lon": 35.1168587000001,
      "label": "סופר יש חסד - ביתר עילית",
      "text": "",
      "stayTimes": "13:30 - 14:30",
      "t_start": "2020-04-05T11:30:00",
      "t_end": "2020-04-05T12:30:00",
      "link": ""
    },
    {
      "id": 424325,
      "lat": 31.699512,
      "lon": 35.107946,
      "label": "רמי לוי - ביתר עילית",
      "text": "",
      "stayTimes": "12:00 - 13:00",
      "t_start": "2020-04-03T10:00:00",
      "t_end": "2020-04-03T11:00:00",
      "link": ""
    },
    {
      "id": 424326,
      "lat": 31.9899838050001,
      "lon": 34.763943124,
      "label": "טיב טעם - ראשון לציון",
      "text": "",
      "stayTimes": "15:00 - 15:30",
      "t_start": "2020-04-07T13:00:00",
      "t_end": "2020-04-07T13:30:00",
      "link": ""
    },
    {
      "id": 424327,
      "lat": 31.7137227000001,
      "lon": 34.9984664,
      "label": "בנק הדואר רמת בית שמש - בית שמש",
      "text": "",
      "stayTimes": "12:30 - 13:30",
      "t_start": "2020-04-06T10:30:00",
      "t_end": "2020-04-06T11:30:00",
      "link": ""
    },
    {
      "id": 424328,
      "lat": 31.7142751000001,
      "lon": 34.9879125000001,
      "label": "בית מרקחת רפואה פארם רמה א - בית שמש",
      "text": "",
      "stayTimes": "13:30 - 14:00",
      "t_start": "2020-04-06T11:30:00",
      "t_end": "2020-04-06T12:00:00",
      "link": ""
    },
    {
      "id": 424329,
      "lat": 31.6932602360001,
      "lon": 35.11354685,
      "label": "כוילל סטור - ביתר עילית",
      "text": "",
      "stayTimes": "10:00 - 11:30",
      "t_start": "2020-04-05T08:00:00",
      "t_end": "2020-04-05T09:30:00",
      "link": ""
    },
    {
      "id": 424330,
      "lat": 31.9648014000001,
      "lon": 34.7920651000001,
      "label": "פיצריה ירושלמית - ראשון לציון",
      "text": "",
      "stayTimes": "13:00 - 22:00",
      "t_start": "2020-04-07T11:00:00",
      "t_end": "2020-04-07T20:00:00",
      "link": ""
    },
    {
      "id": 424331,
      "lat": 31.4231960000001,
      "lon": 34.5952540000001,
      "label": "נתיבות",
      "text": "",
      "stayTimes": "12:30 - 13:00",
      "t_start": "2020-04-06T10:30:00",
      "t_end": "2020-04-06T11:00:00",
      "link": ""
    },
    {
      "id": 424332,
      "lat": 31.4125684590001,
      "lon": 34.586342335,
      "label": "סופר הגדול ח כהן נתיבות - נתיבות",
      "text": "",
      "stayTimes": "07:00 - 09:30",
      "t_start": "2020-04-03T05:00:00",
      "t_end": "2020-04-03T07:30:00",
      "link": ""
    },
    {
      "id": 424333,
      "lat": 32.713545771,
      "lon": 35.335914743,
      "label": "מרכז המזון - נוף הגליל",
      "text": "",
      "stayTimes": "13:00 - 14:00",
      "t_start": "2020-04-04T11:00:00",
      "t_end": "2020-04-04T12:00:00",
      "link": ""
    },
    {
      "id": 424334,
      "lat": 31.7547715000001,
      "lon": 34.992852,
      "label": "חנות נוחות סונול - בית שמש",
      "text": "",
      "stayTimes": "11:30 - 12:00",
      "t_start": "2020-04-07T09:30:00",
      "t_end": "2020-04-07T10:00:00",
      "link": ""
    },
    {
      "id": 424335,
      "lat": 31.7545424910001,
      "lon": 34.9927935600001,
      "label": "קלית יבגי - בית שמש",
      "text": "",
      "stayTimes": "12:00 - 12:15",
      "t_start": "2020-04-07T10:00:00",
      "t_end": "2020-04-07T10:15:00",
      "link": ""
    },
    {
      "id": 424336,
      "lat": 31.7892954000001,
      "lon": 35.2064971,
      "label": "\"טרם\" - ירושלים",
      "text": "",
      "stayTimes": "13:00 - 13:30",
      "t_start": "2020-04-05T11:00:00",
      "t_end": "2020-04-05T11:30:00",
      "link": ""
    },
    {
      "id": 424337,
      "lat": 31.7627267,
      "lon": 35.1978911,
      "label": "סופר \"אחים יעקובי\" - ירושלים",
      "text": "",
      "stayTimes": "20:00 - 23:00",
      "t_start": "2020-04-04T18:00:00",
      "t_end": "2020-04-04T21:00:00",
      "link": ""
    },
    {
      "id": 424338,
      "lat": 31.7892954000001,
      "lon": 35.2064971,
      "label": "\"טרם\" - ירושלים",
      "text": "",
      "stayTimes": "13:00 - 13:30",
      "t_start": "2020-04-05T11:00:00",
      "t_end": "2020-04-05T11:30:00",
      "link": ""
    },
    {
      "id": 424339,
      "lat": 32.4704617,
      "lon": 35.0387773,
      "label": "שופר סל חריש - חריש",
      "text": "",
      "stayTimes": "18:30 - 18:45",
      "t_start": "2020-04-04T16:30:00",
      "t_end": "2020-04-04T16:45:00",
      "link": ""
    },
    {
      "id": 424340,
      "lat": 32.50602381,
      "lon": 35.0584389740001,
      "label": "ג'יג'י פארם כפר קרע - כפר קרע",
      "text": "",
      "stayTimes": "14:45 - 15:15",
      "t_start": "2020-04-06T12:45:00",
      "t_end": "2020-04-06T13:15:00",
      "link": ""
    },
    {
      "id": 424341,
      "lat": 32.4582558000001,
      "lon": 35.0517596,
      "label": "מתחם בנייה ומגורים בצוותא חריש - חריש",
      "text": "",
      "stayTimes": "12:00 - 14:00",
      "t_start": "2020-04-08T10:00:00",
      "t_end": "2020-04-08T12:00:00",
      "link": ""
    },
    {
      "id": 424342,
      "lat": 32.4582558000001,
      "lon": 35.0517596,
      "label": "מתחם בניה ומגורים בצוותא חריש - חריש",
      "text": "",
      "stayTimes": "12:00 - 14:00",
      "t_start": "2020-04-07T10:00:00",
      "t_end": "2020-04-07T12:00:00",
      "link": ""
    },
    {
      "id": 424343,
      "lat": 31.2432213000001,
      "lon": 34.7989584000001,
      "label": "מכבי פארם סניף רכבת באר שבע - באר שבע",
      "text": "",
      "stayTimes": "12:00 - 15:00",
      "t_start": "2020-04-05T10:00:00",
      "t_end": "2020-04-05T13:00:00",
      "link": ""
    },
    {
      "id": 424344,
      "lat": 31.7360973,
      "lon": 34.9926081,
      "label": "קניון לב הרמה סופר יש חסד - בית שמש",
      "text": "",
      "stayTimes": "17:00 - 18:00",
      "t_start": "2020-04-05T15:00:00",
      "t_end": "2020-04-05T16:00:00",
      "link": ""
    },
    {
      "id": 424345,
      "lat": 31.71286739,
      "lon": 34.9876848660001,
      "label": "קופת חולים לאומית רמה א' - בית שמש",
      "text": "",
      "stayTimes": "10:00 - 10:30",
      "t_start": "2020-04-06T08:00:00",
      "t_end": "2020-04-06T08:30:00",
      "link": ""
    },
    {
      "id": 424346,
      "lat": 32.0779937,
      "lon": 34.8285547,
      "label": "בני תורה - בני ברק",
      "text": "",
      "stayTimes": "12:00 - 13:00",
      "t_start": "2020-04-06T10:00:00",
      "t_end": "2020-04-06T11:00:00",
      "link": ""
    },
    {
      "id": 424347,
      "lat": 32.0862216,
      "lon": 34.8530480000001,
      "label": "סופר ברקת - גבעת שמואל",
      "text": "",
      "stayTimes": "07:30 - 08:00",
      "t_start": "2020-04-08T05:30:00",
      "t_end": "2020-04-08T06:00:00",
      "link": ""
    },
    {
      "id": 424348,
      "lat": 31.2505170000001,
      "lon": 34.7840818,
      "label": "ספי דוג מרבד הקסמים ב\"ש - באר שבע",
      "text": "",
      "stayTimes": "12:00 - 15:00",
      "t_start": "2020-04-06T10:00:00",
      "t_end": "2020-04-06T13:00:00",
      "link": ""
    },
    {
      "id": 424349,
      "lat": 33.018233803,
      "lon": 35.269657126,
      "label": "דבאח סנטר - מעלות-תרשיחא",
      "text": "",
      "stayTimes": "19:15 - 19:45",
      "t_start": "2020-04-04T17:15:00",
      "t_end": "2020-04-04T17:45:00",
      "link": ""
    },
    {
      "id": 424350,
      "lat": 31.7967271750001,
      "lon": 35.242129306,
      "label": "בית חולים הדסה עין כרם - ירושלים",
      "text": "",
      "stayTimes": "06:00 - 14:00",
      "t_start": "2020-04-05T04:00:00",
      "t_end": "2020-04-05T12:00:00",
      "link": ""
    },
    {
      "id": 424351,
      "lat": 31.764661303,
      "lon": 35.148473337,
      "label": "בית חולים הדסה עין כרם - ירושלים",
      "text": "",
      "stayTimes": "06:00 - 14:00",
      "t_start": "2020-04-06T04:00:00",
      "t_end": "2020-04-06T12:00:00",
      "link": ""
    },
    {
      "id": 424352,
      "lat": 31.9005931990001,
      "lon": 34.814680293,
      "label": "בית חולים הדסה עין כרם - ירושלים",
      "text": "",
      "stayTimes": "06:00 - 14:00",
      "t_start": "2020-04-07T04:00:00",
      "t_end": "2020-04-07T12:00:00",
      "link": ""
    },
    {
      "id": 424353,
      "lat": 31.7646485650001,
      "lon": 35.149663376,
      "label": "בית חולים הדסה עין כרם - ירושלים",
      "text": "",
      "stayTimes": "06:00 - 14:00",
      "t_start": "2020-04-08T04:00:00",
      "t_end": "2020-04-08T12:00:00",
      "link": ""
    },
    {
      "id": 424354,
      "lat": 32.0891032000001,
      "lon": 34.8380488,
      "label": "שפע ברכת השם - בני ברק",
      "text": "",
      "stayTimes": "22:00 - 22:30",
      "t_start": "2020-04-07T20:00:00",
      "t_end": "2020-04-07T20:30:00",
      "link": ""
    },
    {
      "id": 424355,
      "lat": 32.3220808740001,
      "lon": 34.8715314300001,
      "label": "רמי לוי - נתניה",
      "text": "",
      "stayTimes": "17:30 - 18:30",
      "t_start": "2020-04-13T15:30:00",
      "t_end": "2020-04-13T16:30:00",
      "link": ""
    },
    {
      "id": 424356,
      "lat": 32.084959,
      "lon": 34.8440880000001,
      "label": "מעייני הישועה - בני ברק",
      "text": "",
      "stayTimes": "07:00 - 19:00",
      "t_start": "2020-04-03T05:00:00",
      "t_end": "2020-04-03T17:00:00",
      "link": ""
    },
    {
      "id": 424357,
      "lat": 32.4612212000001,
      "lon": 34.9718115000001,
      "label": "מעון לאנשים עם צרכים מיוחדים - פרדס חנה-כרכור",
      "text": "",
      "stayTimes": "08:00 - 20:00",
      "t_start": "2020-04-03T06:00:00",
      "t_end": "2020-04-03T18:00:00",
      "link": ""
    },
    {
      "id": 424358,
      "lat": 32.4612614330001,
      "lon": 34.9720260770001,
      "label": "מעון לאנשים עם צרכים מיוחדים - פרדס חנה-כרכור",
      "text": "",
      "stayTimes": "09:00 - 18:00",
      "t_start": "2020-04-05T07:00:00",
      "t_end": "2020-04-05T16:00:00",
      "link": ""
    },
    {
      "id": 424359,
      "lat": 31.958583,
      "lon": 34.792875,
      "label": "בית אבות הבולגרי - ראשון לציון",
      "text": "",
      "stayTimes": "07:00 - 15:00",
      "t_start": "2020-04-10T05:00:00",
      "t_end": "2020-04-10T13:00:00",
      "link": ""
    },
    {
      "id": 424360,
      "lat": 32.7940463,
      "lon": 34.9895710000001,
      "label": "עיריית חיפה - חיפה",
      "text": "",
      "stayTimes": "08:00 - 13:30",
      "t_start": "2020-04-07T06:00:00",
      "t_end": "2020-04-07T11:30:00",
      "link": ""
    },
    {
      "id": 424361,
      "lat": 32.8204286000001,
      "lon": 34.9589282000001,
      "label": "יש - חיפה",
      "text": "",
      "stayTimes": "16:00 - 16:10",
      "t_start": "2020-04-05T14:00:00",
      "t_end": "2020-04-05T14:10:00",
      "link": ""
    },
    {
      "id": 424362,
      "lat": 32.8204286000001,
      "lon": 34.9589282000001,
      "label": "יש - חיפה",
      "text": "",
      "stayTimes": "16:00 - 16:10",
      "t_start": "2020-04-05T14:00:00",
      "t_end": "2020-04-05T14:10:00",
      "link": ""
    },
    {
      "id": 424363,
      "lat": 32.084959,
      "lon": 34.8440880000001,
      "label": "מעייני הישועה - בני ברק",
      "text": "",
      "stayTimes": "07:00 - 19:00",
      "t_start": "2020-04-05T05:00:00",
      "t_end": "2020-04-05T17:00:00",
      "link": ""
    },
    {
      "id": 424364,
      "lat": 32.084959,
      "lon": 34.8440880000001,
      "label": "מעייני הישועה - בני ברק",
      "text": "",
      "stayTimes": "07:00 - 19:00",
      "t_start": "2020-04-06T05:00:00",
      "t_end": "2020-04-06T17:00:00",
      "link": ""
    },
    {
      "id": 424365,
      "lat": 32.084959,
      "lon": 34.8440880000001,
      "label": "מעייני הישועה - בני ברק",
      "text": "",
      "stayTimes": "07:00 - 19:00",
      "t_start": "2020-04-07T05:00:00",
      "t_end": "2020-04-07T17:00:00",
      "link": ""
    },
    {
      "id": 424366,
      "lat": 32.0770430000001,
      "lon": 34.841146,
      "label": "מאפיית מסורת - בני ברק",
      "text": "",
      "stayTimes": "08:00 - 15:30",
      "t_start": "2020-04-08T06:00:00",
      "t_end": "2020-04-08T13:30:00",
      "link": ""
    },
    {
      "id": 424367,
      "lat": 32.0908013000001,
      "lon": 34.8389312,
      "label": "יש - בני ברק - בני ברק",
      "text": "",
      "stayTimes": "12:00 - 14:00",
      "t_start": "2020-04-10T10:00:00",
      "t_end": "2020-04-10T12:00:00",
      "link": ""
    },
    {
      "id": 424368,
      "lat": 31.7744048500001,
      "lon": 35.185934205,
      "label": "בי\"ח שערי צדק+- מיון ביולוגי - ירושלים",
      "text": "",
      "stayTimes": "08:00 - 16:00",
      "t_start": "2020-04-06T06:00:00",
      "t_end": "2020-04-06T14:00:00",
      "link": ""
    },
    {
      "id": 424369,
      "lat": 31.7511262,
      "lon": 35.2154249000001,
      "label": "סופר רמי לוי - ירושלים",
      "text": "",
      "stayTimes": "08:00 - 09:00",
      "t_start": "2020-04-07T06:00:00",
      "t_end": "2020-04-07T07:00:00",
      "link": ""
    },
    {
      "id": 424370,
      "lat": 31.79218568,
      "lon": 35.2099435710001,
      "label": "שערי רווחה סופר - ירושלים",
      "text": "",
      "stayTimes": "22:30 - 23:00",
      "t_start": "2020-04-07T20:30:00",
      "t_end": "2020-04-07T21:00:00",
      "link": ""
    },
    {
      "id": 424371,
      "lat": 31.7866726,
      "lon": 35.2248145,
      "label": "שומרי חומות - ירושלים",
      "text": "",
      "stayTimes": "07:00 - 23:00",
      "t_start": "2020-04-03T05:00:00",
      "t_end": "2020-04-03T21:00:00",
      "link": ""
    },
    {
      "id": 424372,
      "lat": 31.7866726,
      "lon": 35.2248145,
      "label": "שומרי חומות - ירושלים",
      "text": "",
      "stayTimes": "14:30 - 23:00",
      "t_start": "2020-04-04T12:30:00",
      "t_end": "2020-04-04T21:00:00",
      "link": ""
    },
    {
      "id": 424373,
      "lat": 31.7866726,
      "lon": 35.2248145,
      "label": "שומרי חומות - ירושלים",
      "text": "",
      "stayTimes": "07:00 - 23:00",
      "t_start": "2020-04-08T05:00:00",
      "t_end": "2020-04-08T21:00:00",
      "link": ""
    },
    {
      "id": 424374,
      "lat": 31.8031149380001,
      "lon": 35.2161618120001,
      "label": "שומרי חומות - ירושלים",
      "text": "",
      "stayTimes": "07:00 - 23:30",
      "t_start": "2020-04-09T05:00:00",
      "t_end": "2020-04-09T21:30:00",
      "link": ""
    },
    {
      "id": 424375,
      "lat": 31.9375099000001,
      "lon": 34.8864369,
      "label": "יוחננוף - רמלה",
      "text": "",
      "stayTimes": "14:45 - 15:45",
      "t_start": "2020-04-05T12:45:00",
      "t_end": "2020-04-05T13:45:00",
      "link": ""
    },
    {
      "id": 424376,
      "lat": 31.9266720000001,
      "lon": 34.8777440000001,
      "label": "סופר פארם - רמלה",
      "text": "",
      "stayTimes": "13:20 - 13:30",
      "t_start": "2020-04-10T11:20:00",
      "t_end": "2020-04-10T11:30:00",
      "link": ""
    },
    {
      "id": 424377,
      "lat": 31.8117019000001,
      "lon": 34.6571174000001,
      "label": "קנקון- חנות בשרים - אשדוד",
      "text": "",
      "stayTimes": "13:00 - 13:30",
      "t_start": "2020-04-06T11:00:00",
      "t_end": "2020-04-06T11:30:00",
      "link": ""
    },
    {
      "id": 424378,
      "lat": 32.0879306000001,
      "lon": 34.8567575000001,
      "label": "חנות רמי לוי - פתח תקווה",
      "text": "",
      "stayTimes": "08:00 - 10:00",
      "t_start": "2020-04-03T06:00:00",
      "t_end": "2020-04-03T08:00:00",
      "link": ""
    },
    {
      "id": 424379,
      "lat": 31.7649503000001,
      "lon": 35.1494106000001,
      "label": "הדסה עין כרם - ירושלים",
      "text": "",
      "stayTimes": "08:00 - 23:30",
      "t_start": "2020-04-06T06:00:00",
      "t_end": "2020-04-06T21:30:00",
      "link": ""
    },
    {
      "id": 424380,
      "lat": 32.0543710000001,
      "lon": 34.872843,
      "label": "הגבעה 27, סביון",
      "text": "",
      "stayTimes": "07:00 - 15:30",
      "t_start": "2020-04-06T05:00:00",
      "t_end": "2020-04-06T13:30:00",
      "link": ""
    },
    {
      "id": 424381,
      "lat": 31.7919167000001,
      "lon": 35.2045525,
      "label": "שערי רווחה - ירושלים",
      "text": "",
      "stayTimes": "09:00 - 14:00",
      "t_start": "2020-04-03T07:00:00",
      "t_end": "2020-04-03T12:00:00",
      "link": ""
    },
    {
      "id": 424382,
      "lat": 31.7919167000001,
      "lon": 35.2045525,
      "label": "שערי רווחה - ירושלים",
      "text": "",
      "stayTimes": "18:00 - 23:30",
      "t_start": "2020-04-05T16:00:00",
      "t_end": "2020-04-05T21:30:00",
      "link": ""
    },
    {
      "id": 424383,
      "lat": 31.7919167000001,
      "lon": 35.2045525,
      "label": "שערי רווחה - ירושלים",
      "text": "",
      "stayTimes": "09:00 - 11:00",
      "t_start": "2020-04-06T07:00:00",
      "t_end": "2020-04-06T09:00:00",
      "link": ""
    },
    {
      "id": 424384,
      "lat": 31.6928594720001,
      "lon": 35.109663832,
      "label": "מכולת חסד לאלפים - ביתר עילית",
      "text": "",
      "stayTimes": "06:30 - 15:00",
      "t_start": "2020-04-06T04:30:00",
      "t_end": "2020-04-06T13:00:00",
      "link": ""
    },
    {
      "id": 424385,
      "lat": 31.8701646380001,
      "lon": 34.821669722,
      "label": "יוחננוף צומת בילו - קרית עקרון",
      "text": "",
      "stayTimes": "15:30 - 17:30",
      "t_start": "2020-04-06T13:30:00",
      "t_end": "2020-04-06T15:30:00",
      "link": ""
    },
    {
      "id": 424386,
      "lat": 32.0747840000001,
      "lon": 34.8372921000001,
      "label": "בית אבות ויזניץ - בני ברק",
      "text": "",
      "stayTimes": "08:00 - 16:30",
      "t_start": "2020-04-07T06:00:00",
      "t_end": "2020-04-07T14:30:00",
      "link": ""
    },
    {
      "id": 424387,
      "lat": 32.0747840000001,
      "lon": 34.8372921000001,
      "label": "בית אבות ויזניץ - בני ברק",
      "text": "",
      "stayTimes": "08:00 - 22:30",
      "t_start": "2020-04-08T06:00:00",
      "t_end": "2020-04-08T20:30:00",
      "link": ""
    },
    {
      "id": 424388,
      "lat": 32.0747840000001,
      "lon": 34.8372921000001,
      "label": "בית אבות ויזניץ - בני ברק",
      "text": "",
      "stayTimes": "08:00 - 22:30",
      "t_start": "2020-04-09T06:00:00",
      "t_end": "2020-04-09T20:30:00",
      "link": ""
    },
    {
      "id": 424389,
      "lat": 32.0747840000001,
      "lon": 34.8372921000001,
      "label": "בית אבות ויזניץ - בני ברק",
      "text": "",
      "stayTimes": "08:00 - 16:00",
      "t_start": "2020-04-06T06:00:00",
      "t_end": "2020-04-06T14:00:00",
      "link": ""
    },
    {
      "id": 424390,
      "lat": 31.7889897630001,
      "lon": 35.2018585010001,
      "label": "בנק הדאר - ירושלים",
      "text": "",
      "stayTimes": "07:30 - 13:00",
      "t_start": "2020-04-10T05:30:00",
      "t_end": "2020-04-10T11:00:00",
      "link": ""
    },
    {
      "id": 424391,
      "lat": 31.817288836,
      "lon": 35.194603839,
      "label": "סופר דיל קניון רמות - ירושלים",
      "text": "",
      "stayTimes": "10:30 - 11:30",
      "t_start": "2020-04-03T08:30:00",
      "t_end": "2020-04-03T09:30:00",
      "link": ""
    },
    {
      "id": 424392,
      "lat": 31.8170118670001,
      "lon": 35.1948838530001,
      "label": "שוק העיר, קניון רמות - ירושלים",
      "text": "",
      "stayTimes": "13:15 - 13:45",
      "t_start": "2020-04-10T11:15:00",
      "t_end": "2020-04-10T11:45:00",
      "link": ""
    },
    {
      "id": 424393,
      "lat": 32.974255038,
      "lon": 35.2230471990001,
      "label": "תחנת דלק בג'ת סאן - ג'ת",
      "text": "",
      "stayTimes": "11:00 - 11:30",
      "t_start": "2020-04-07T09:00:00",
      "t_end": "2020-04-07T09:30:00",
      "link": ""
    },
    {
      "id": 424394,
      "lat": 31.7885096310001,
      "lon": 34.644733264,
      "label": "מאניה - אשדוד",
      "text": "",
      "stayTimes": "13:30 - 14:00",
      "t_start": "2020-04-06T11:30:00",
      "t_end": "2020-04-06T12:00:00",
      "link": ""
    },
    {
      "id": 424395,
      "lat": 31.8142139,
      "lon": 34.7764126000001,
      "label": "מעון מוריה - גדרה",
      "text": "",
      "stayTimes": "08:00 - 08:30",
      "t_start": "2020-04-08T06:00:00",
      "t_end": "2020-04-08T06:30:00",
      "link": ""
    },
    {
      "id": 424396,
      "lat": 31.8646763080001,
      "lon": 35.1676638320001,
      "label": "קופת חולים כללית - גבעת זאב",
      "text": "",
      "stayTimes": "19:00 - 22:00",
      "t_start": "2020-04-03T17:00:00",
      "t_end": "2020-04-03T20:00:00",
      "link": ""
    },
    {
      "id": 424397,
      "lat": 31.7675203000001,
      "lon": 35.2953086000001,
      "label": "טרם - מעלה אדומים",
      "text": "",
      "stayTimes": "15:00 - 23:30",
      "t_start": "2020-04-06T13:00:00",
      "t_end": "2020-04-06T21:30:00",
      "link": ""
    },
    {
      "id": 424398,
      "lat": 31.6948502000001,
      "lon": 35.1181495000001,
      "label": "טרם - ביתר עילית",
      "text": "",
      "stayTimes": "19:00 - 23:30",
      "t_start": "2020-04-07T17:00:00",
      "t_end": "2020-04-07T21:30:00",
      "link": ""
    },
    {
      "id": 424399,
      "lat": 31.7566910000001,
      "lon": 34.98792,
      "label": "טרם ומוקד - בית שמש",
      "text": "",
      "stayTimes": "08:00 - 22:00",
      "t_start": "2020-04-08T06:00:00",
      "t_end": "2020-04-08T20:00:00",
      "link": ""
    },
    {
      "id": 424400,
      "lat": 31.714425582,
      "lon": 34.987793627,
      "label": "מאפיית נחמה - בית שמש",
      "text": "",
      "stayTimes": "23:00 - 23:30",
      "t_start": "2020-04-06T21:00:00",
      "t_end": "2020-04-06T21:30:00",
      "link": ""
    },
    {
      "id": 424401,
      "lat": 32.328939006,
      "lon": 34.8621654130001,
      "label": "מוקד אחיות. קופת חולים כללית - נתניה",
      "text": "",
      "stayTimes": "15:00 - 19:00",
      "t_start": "2020-04-04T13:00:00",
      "t_end": "2020-04-04T17:00:00",
      "link": ""
    },
    {
      "id": 424402,
      "lat": 32.3290347000001,
      "lon": 34.862107,
      "label": "מוקד אחיות. קופת חולים כללית - נתניה",
      "text": "",
      "stayTimes": "15:00 - 19:00",
      "t_start": "2020-04-03T13:00:00",
      "t_end": "2020-04-03T17:00:00",
      "link": ""
    },
    {
      "id": 424403,
      "lat": 31.7841582470001,
      "lon": 35.208512388,
      "label": "YELLOW - ירושלים",
      "text": "",
      "stayTimes": "09:00 - 11:00",
      "t_start": "2020-04-07T07:00:00",
      "t_end": "2020-04-07T09:00:00",
      "link": ""
    },
    {
      "id": 424404,
      "lat": 31.7845158000001,
      "lon": 35.2103903,
      "label": "סופר צ'יפ - ירושלים",
      "text": "",
      "stayTimes": "20:00 - 21:00",
      "t_start": "2020-04-07T18:00:00",
      "t_end": "2020-04-07T19:00:00",
      "link": ""
    },
    {
      "id": 424405,
      "lat": 32.088034077,
      "lon": 34.8599886710001,
      "label": "יכין סנטר שופרסל פ\"ת - פתח תקווה",
      "text": "",
      "stayTimes": "22:00 - 23:00",
      "t_start": "2020-04-09T20:00:00",
      "t_end": "2020-04-09T21:00:00",
      "link": ""
    },
    {
      "id": 424406,
      "lat": 32.0834682,
      "lon": 34.8157170000001,
      "label": "ויקטורי קניון איילון - רמת גן",
      "text": "",
      "stayTimes": "15:00 - 16:00",
      "t_start": "2020-04-10T13:00:00",
      "t_end": "2020-04-10T14:00:00",
      "link": ""
    },
    {
      "id": 424407,
      "lat": 32.357862606,
      "lon": 35.0271061890001,
      "label": "סופר לארג' זמר - זמר",
      "text": "",
      "stayTimes": "09:00 - 11:00",
      "t_start": "2020-04-09T07:00:00",
      "t_end": "2020-04-09T09:00:00",
      "link": ""
    },
    {
      "id": 424408,
      "lat": 32.3580237240001,
      "lon": 35.027010821,
      "label": "סופר לארג' זמר - זמר",
      "text": "",
      "stayTimes": "09:00 - 14:00",
      "t_start": "2020-04-03T07:00:00",
      "t_end": "2020-04-03T12:00:00",
      "link": ""
    },
    {
      "id": 424409,
      "lat": 32.3582654000001,
      "lon": 35.0264863,
      "label": "סופר לארג' זמר - זמר",
      "text": "",
      "stayTimes": "11:00 - 17:00",
      "t_start": "2020-04-06T09:00:00",
      "t_end": "2020-04-06T15:00:00",
      "link": ""
    },
    {
      "id": 424410,
      "lat": 32.358104283,
      "lon": 35.0272015570001,
      "label": "סופר לארג' זמר - זמר",
      "text": "",
      "stayTimes": "11:00 - 17:00",
      "t_start": "2020-04-07T09:00:00",
      "t_end": "2020-04-07T15:00:00",
      "link": ""
    },
    {
      "id": 424411,
      "lat": 32.0899676000001,
      "lon": 34.8385091000001,
      "label": "שיווק ישיר - בני ברק",
      "text": "",
      "stayTimes": "23:30 - 00:00",
      "t_start": "2020-04-07T21:30:00",
      "t_end": "2020-04-07T22:00:00",
      "link": ""
    },
    {
      "id": 424412,
      "lat": 32.0830876000001,
      "lon": 34.8289867,
      "label": "שלומי פירות וירקות - בני ברק",
      "text": "",
      "stayTimes": "20:00 - 20:30",
      "t_start": "2020-04-07T18:00:00",
      "t_end": "2020-04-07T18:30:00",
      "link": ""
    },
    {
      "id": 424413,
      "lat": 32.0922033000001,
      "lon": 34.8335467000001,
      "label": "השקדייה - בני ברק",
      "text": "",
      "stayTimes": "23:00 - 23:30",
      "t_start": "2020-04-07T21:00:00",
      "t_end": "2020-04-07T21:30:00",
      "link": ""
    },
    {
      "id": 424414,
      "lat": 31.7915926000001,
      "lon": 35.2207645,
      "label": "שוק בוכרים - ירושלים",
      "text": "",
      "stayTimes": "11:00 - 13:30",
      "t_start": "2020-04-03T09:00:00",
      "t_end": "2020-04-03T11:30:00",
      "link": ""
    },
    {
      "id": 424415,
      "lat": 32.5331253000001,
      "lon": 35.1485816000001,
      "label": "בית מרקחת בשכונת אלשאגור ליד תחנת הדלק - אום אל-פחם",
      "text": "",
      "stayTimes": "11:00 - 12:00",
      "t_start": "2020-04-07T09:00:00",
      "t_end": "2020-04-07T10:00:00",
      "link": ""
    },
    {
      "id": 424416,
      "lat": 31.789191074,
      "lon": 35.215509539,
      "label": "קופת חולים לאומית, רחוב עמוס פינת מלכי ישראל. בבית מרקחת - ירושלים",
      "text": "",
      "stayTimes": "11:00 - 13:00",
      "t_start": "2020-04-07T09:00:00",
      "t_end": "2020-04-07T11:00:00",
      "link": ""
    },
    {
      "id": 424417,
      "lat": 31.7732018,
      "lon": 35.1853644,
      "label": "שער צדק - ירושלים",
      "text": "",
      "stayTimes": "10:30 - 13:30",
      "t_start": "2020-04-04T08:30:00",
      "t_end": "2020-04-04T11:30:00",
      "link": ""
    },
    {
      "id": 424418,
      "lat": 31.811206812,
      "lon": 35.219663333,
      "label": "קופת חולים כללית - ירושלים",
      "text": "",
      "stayTimes": "10:30 - 11:00",
      "t_start": "2020-04-07T08:30:00",
      "t_end": "2020-04-07T09:00:00",
      "link": ""
    },
    {
      "id": 424419,
      "lat": 31.7992033400001,
      "lon": 35.206211759,
      "label": "ברכול - ירושלים",
      "text": "",
      "stayTimes": "13:00 - 13:30",
      "t_start": "2020-04-07T11:00:00",
      "t_end": "2020-04-07T11:30:00",
      "link": ""
    },
    {
      "id": 424420,
      "lat": 31.8112446000001,
      "lon": 34.6540808,
      "label": "יוחננוף - אשדוד",
      "text": "",
      "stayTimes": "12:00 - 15:00",
      "t_start": "2020-04-07T10:00:00",
      "t_end": "2020-04-07T13:00:00",
      "link": ""
    },
    {
      "id": 424421,
      "lat": 31.8408456000001,
      "lon": 35.2481814000001,
      "label": "שוק מהדרין יינות ביתן נווה יעקב - ירושלים",
      "text": "",
      "stayTimes": "11:00 - 12:30",
      "t_start": "2020-04-08T09:00:00",
      "t_end": "2020-04-08T10:30:00",
      "link": ""
    },
    {
      "id": 424422,
      "lat": 31.8407370740001,
      "lon": 35.250050645,
      "label": "צרכניית אביר יעקב - ירושלים",
      "text": "",
      "stayTimes": "10:00 - 11:00",
      "t_start": "2020-04-08T08:00:00",
      "t_end": "2020-04-08T09:00:00",
      "link": ""
    },
    {
      "id": 424423,
      "lat": 31.7808453000001,
      "lon": 35.2238573000001,
      "label": "מוקד עיריית ירושלים - ירושלים",
      "text": "",
      "stayTimes": "08:00 - 14:30",
      "t_start": "2020-04-08T06:00:00",
      "t_end": "2020-04-08T12:30:00",
      "link": ""
    },
    {
      "id": 424424,
      "lat": 31.7534878000001,
      "lon": 35.2130043000001,
      "label": "אושר עד - ירושלים",
      "text": "",
      "stayTimes": "08:00 - 09:00",
      "t_start": "2020-04-05T06:00:00",
      "t_end": "2020-04-05T07:00:00",
      "link": ""
    },
    {
      "id": 424425,
      "lat": 31.7651568000001,
      "lon": 35.1829921,
      "label": "סופר שערי תורה - ירושלים",
      "text": "",
      "stayTimes": "09:30 - 10:00",
      "t_start": "2020-04-05T07:30:00",
      "t_end": "2020-04-05T08:00:00",
      "link": ""
    },
    {
      "id": 424426,
      "lat": 31.266476857,
      "lon": 34.800399498,
      "label": "מכולת שכונתית - באר שבע",
      "text": "",
      "stayTimes": "14:00 - 14:30",
      "t_start": "2020-04-06T12:00:00",
      "t_end": "2020-04-06T12:30:00",
      "link": ""
    },
    {
      "id": 424427,
      "lat": 31.2399585000001,
      "lon": 34.7938263,
      "label": "מחסני השוק בית אשל - באר שבע",
      "text": "",
      "stayTimes": "12:00 - 14:00",
      "t_start": "2020-04-06T10:00:00",
      "t_end": "2020-04-06T12:00:00",
      "link": ""
    },
    {
      "id": 424428,
      "lat": 31.7892954000001,
      "lon": 35.2064971,
      "label": "בטרם שערי ישראל - ירושלים",
      "text": "",
      "stayTimes": "08:00 - 08:30",
      "t_start": "2020-04-03T06:00:00",
      "t_end": "2020-04-03T06:30:00",
      "link": ""
    },
    {
      "id": 424429,
      "lat": 31.7672563,
      "lon": 35.3014487,
      "label": "יינות ביתן -סופר - מעלה אדומים",
      "text": "",
      "stayTimes": "09:00 - 14:00",
      "t_start": "2020-04-03T07:00:00",
      "t_end": "2020-04-03T12:00:00",
      "link": ""
    },
    {
      "id": 424430,
      "lat": 31.7672563,
      "lon": 35.3014487,
      "label": "יינות ביתן -סופר - מעלה אדומים",
      "text": "",
      "stayTimes": "09:00 - 10:00",
      "t_start": "2020-04-05T07:00:00",
      "t_end": "2020-04-05T08:00:00",
      "link": ""
    },
    {
      "id": 424431,
      "lat": 32.1052778000001,
      "lon": 34.8944444000001,
      "label": "סופר יוחננוף - פתח תקווה",
      "text": "",
      "stayTimes": "08:00 - 16:30",
      "t_start": "2020-04-05T06:00:00",
      "t_end": "2020-04-05T14:30:00",
      "link": ""
    },
    {
      "id": 424432,
      "lat": 32.1052778000001,
      "lon": 34.8944444000001,
      "label": "סופר יוחננוף - פתח תקווה",
      "text": "",
      "stayTimes": "08:20 - 20:15",
      "t_start": "2020-04-06T06:20:00",
      "t_end": "2020-04-06T18:15:00",
      "link": ""
    },
    {
      "id": 424433,
      "lat": 31.773199,
      "lon": 35.185261,
      "label": "מח' גריאטרית שע\"צ - ירושלים",
      "text": "",
      "stayTimes": "08:00 - 08:30",
      "t_start": "2020-04-08T06:00:00",
      "t_end": "2020-04-08T06:30:00",
      "link": ""
    },
    {
      "id": 424434,
      "lat": 32.0530444560001,
      "lon": 34.9613862370001,
      "label": "יינות ביתן - אלעד",
      "text": "",
      "stayTimes": "07:00 - 13:00",
      "t_start": "2020-04-08T05:00:00",
      "t_end": "2020-04-08T11:00:00",
      "link": ""
    },
    {
      "id": 424435,
      "lat": 31.798347,
      "lon": 35.2146930000001,
      "label": "עזרת תורה 2, ירושלים",
      "text": "",
      "stayTimes": "08:00 - 08:30",
      "t_start": "2020-04-10T06:00:00",
      "t_end": "2020-04-10T06:30:00",
      "link": ""
    },
    {
      "id": 424436,
      "lat": 32.1058370000001,
      "lon": 34.8923941,
      "label": "סופר אושר עד - פתח תקווה",
      "text": "",
      "stayTimes": "08:00 - 12:00",
      "t_start": "2020-04-03T06:00:00",
      "t_end": "2020-04-03T10:00:00",
      "link": ""
    },
    {
      "id": 424437,
      "lat": 32.1058370000001,
      "lon": 34.8923941,
      "label": "סופר אושר עד - פתח תקווה",
      "text": "",
      "stayTimes": "07:30 - 13:00",
      "t_start": "2020-04-05T05:30:00",
      "t_end": "2020-04-05T11:00:00",
      "link": ""
    },
    {
      "id": 424438,
      "lat": 32.9236277000001,
      "lon": 35.3080387000001,
      "label": "רמי לוי - כרמיאל",
      "text": "",
      "stayTimes": "23:00 - 23:30",
      "t_start": "2020-04-07T21:00:00",
      "t_end": "2020-04-07T21:30:00",
      "link": ""
    },
    {
      "id": 424439,
      "lat": 32.8618235000001,
      "lon": 35.0982910000001,
      "label": "אושר עד - קרית ביאליק",
      "text": "",
      "stayTimes": "13:00 - 13:30",
      "t_start": "2020-04-06T11:00:00",
      "t_end": "2020-04-06T11:30:00",
      "link": ""
    },
    {
      "id": 424440,
      "lat": 31.2576606000001,
      "lon": 34.7678661,
      "label": "שופרסל דיל קניון שאול המלך - באר שבע",
      "text": "",
      "stayTimes": "09:00 - 10:00",
      "t_start": "2020-04-10T07:00:00",
      "t_end": "2020-04-10T08:00:00",
      "link": ""
    },