{
  "points": [
    {
      "id": 105793,
      "lat": 32.8040049050001,
      "lon": 35.0002236830001,
      "label": "בית כנסת מורשה - רח' השילוח 6 חיפה",
      "text": "",
      "stayTimes": "05:45-06:30",
      "t_start": "2020-03-20T03:45:00",
      "t_end": "2020-03-20T04:30:00",
      "link": ""
    },
    {
      "id": 105794,
      "lat": 32.8040049050001,
      "lon": 35.0002236830001,
      "label": "בית כנסת מורשה -רח' השילוח 6 חיפה",
      "text": "",
      "stayTimes": "12:30-13:00",
      "t_start": "2020-03-20T10:30:00",
      "t_end": "2020-03-20T11:00:00",
      "link": ""
    },
    {
      "id": 105795,
      "lat": 32.7694308550001,
      "lon": 35.4759519740001,
      "label": "מאפית אליס - טבריה",
      "text": "",
      "stayTimes": "10:30 - 11:00",
      "t_start": "2020-03-20T08:30:00",
      "t_end": "2020-03-20T09:00:00",
      "link": ""
    },
    {
      "id": 105796,
      "lat": 29.5542451860001,
      "lon": 34.940702039,
      "label": "מלר\"ד קורונה/מחלות זיהומיות יוספטל",
      "text": "",
      "stayTimes": "16:00-18:30",
      "t_start": "2020-03-20T14:00:00",
      "t_end": "2020-03-20T16:30:00",
      "link": ""
    },
    {
      "id": 105797,
      "lat": 32.8040049050001,
      "lon": 35.0002236830001,
      "label": "בית כנסת מורשה -רח' השילוח 6 חיפה",
      "text": "",
      "stayTimes": "17:00-19:00",
      "t_start": "2020-03-20T15:00:00",
      "t_end": "2020-03-20T17:00:00",
      "link": ""
    },
    {
      "id": 105798,
      "lat": 32.8040049050001,
      "lon": 35.0002236830001,
      "label": "בית כנסת מורשה - רח' השילוח 6 חיפה",
      "text": "",
      "stayTimes": "05:45-06:30",
      "t_start": "2020-03-21T03:45:00",
      "t_end": "2020-03-21T04:30:00",
      "link": ""
    },
    {
      "id": 105799,
      "lat": 32.086465339,
      "lon": 34.832410714,
      "label": "מקוה צאנז - בני ברק",
      "text": "",
      "stayTimes": "04:00 - 04:10",
      "t_start": "2020-03-21T02:00:00",
      "t_end": "2020-03-21T02:10:00",
      "link": ""
    },
    {
      "id": 105800,
      "lat": 32.8040049050001,
      "lon": 35.0002236830001,
      "label": "בית כנסת מורשה -רח' השילוח 6 חיפה",
      "text": "",
      "stayTimes": "12:30-13:00",
      "t_start": "2020-03-21T10:30:00",
      "t_end": "2020-03-21T11:00:00",
      "link": ""
    },
    {
      "id": 105801,
      "lat": 32.8040049050001,
      "lon": 35.0002236830001,
      "label": "בית כנסת מורשה -רח' השילוח 6 חיפה",
      "text": "",
      "stayTimes": "17:00-19:00",
      "t_start": "2020-03-21T15:00:00",
      "t_end": "2020-03-21T17:00:00",
      "link": ""
    },
    {
      "id": 105802,
      "lat": 32.0998254680001,
      "lon": 34.820579175,
      "label": "אושר עד - בני ברק",
      "text": "",
      "stayTimes": "19:50 - 20:30",
      "t_start": "2020-03-21T17:50:00",
      "t_end": "2020-03-21T18:30:00",
      "link": ""
    },
    {
      "id": 105803,
      "lat": 32.0998254680001,
      "lon": 34.820579175,
      "label": "עזר מציון - בני ברק",
      "text": "",
      "stayTimes": "21:00 - 22:00",
      "t_start": "2020-03-21T19:00:00",
      "t_end": "2020-03-21T20:00:00",
      "link": ""
    },
    {
      "id": 105804,
      "lat": 32.8040049050001,
      "lon": 35.0002236830001,
      "label": "בית כנסת מורשה - רח' השילוח 6 חיפה",
      "text": "",
      "stayTimes": "05:45-06:30",
      "t_start": "2020-03-22T03:45:00",
      "t_end": "2020-03-22T04:30:00",
      "link": ""
    },
    {
      "id": 105805,
      "lat": 32.4747429,
      "lon": 34.9978065,
      "label": "סופר סל שלי כרכור - פרדס חנה-כרכור",
      "text": "",
      "stayTimes": "08:30 - 12:30",
      "t_start": "2020-03-22T06:30:00",
      "t_end": "2020-03-22T10:30:00",
      "link": ""
    },
    {
      "id": 105806,
      "lat": 32.8040049050001,
      "lon": 35.0002236830001,
      "label": "בית כנסת מורשה -רח' השילוח 6 חיפה",
      "text": "",
      "stayTimes": "12:30-13:00",
      "t_start": "2020-03-22T10:30:00",
      "t_end": "2020-03-22T11:00:00",
      "link": ""
    },
    {
      "id": 105807,
      "lat": 32.8040049050001,
      "lon": 35.0002236830001,
      "label": "בית כנסת מורשה -רח' השילוח 6 חיפה",
      "text": "",
      "stayTimes": "17:00-19:00",
      "t_start": "2020-03-22T15:00:00",
      "t_end": "2020-03-22T17:00:00",
      "link": ""
    },
    {
      "id": 105808,
      "lat": 31.6732514890001,
      "lon": 34.568105486,
      "label": "סופר פארם - אשקלון",
      "text": "",
      "stayTimes": "13:30 - 14:30",
      "t_start": "2020-03-20T11:30:00",
      "t_end": "2020-03-20T12:30:00",
      "link": ""
    },
    {
      "id": 105809,
      "lat": 31.862712,
      "lon": 35.1749548000001,
      "label": "סופר \"שוק העיר\" - גבעת זאב",
      "text": "",
      "stayTimes": "08:30 - 10:30",
      "t_start": "2020-03-24T06:30:00",
      "t_end": "2020-03-24T08:30:00",
      "link": ""
    },
    {
      "id": 105810,
      "lat": 31.862562788,
      "lon": 35.1748595820001,
      "label": "סופר \"שוק העיר\" - גבעת זאב",
      "text": "",
      "stayTimes": "08:00 - 09:15",
      "t_start": "2020-03-20T06:00:00",
      "t_end": "2020-03-20T07:15:00",
      "link": ""
    },
    {
      "id": 105811,
      "lat": 31.7656617000001,
      "lon": 35.1491024000001,
      "label": "מיון ביוליוגי בי\"ח הדסה ע\"כ - ירושלים",
      "text": "",
      "stayTimes": "16:00 - 20:00",
      "t_start": "2020-03-22T14:00:00",
      "t_end": "2020-03-22T18:00:00",
      "link": ""
    },
    {
      "id": 105812,
      "lat": 32.6213325640001,
      "lon": 35.3160931080001,
      "label": "ביח' העמק - עפולה",
      "text": "",
      "stayTimes": "19:00 - 20:00",
      "t_start": "2020-03-23T17:00:00",
      "t_end": "2020-03-23T18:00:00",
      "link": ""
    },
    {
      "id": 105813,
      "lat": 32.0836468000001,
      "lon": 34.8544321000001,
      "label": "מרפאה של דר' ברקוביץ - גבעת שמואל",
      "text": "",
      "stayTimes": "09:00 - 10:00",
      "t_start": "2020-03-22T07:00:00",
      "t_end": "2020-03-22T08:00:00",
      "link": ""
    },
    {
      "id": 105814,
      "lat": 32.0862991000001,
      "lon": 34.8348894000001,
      "label": "סופר מרקט נתיב החסד - בני ברק",
      "text": "",
      "stayTimes": "09:00 - 09:15",
      "t_start": "2020-03-20T07:00:00",
      "t_end": "2020-03-20T07:15:00",
      "link": ""
    },
    {
      "id": 105815,
      "lat": 32.6424195000001,
      "lon": 35.0924242,
      "label": "שופרסל דיל בביג - יקנעם (מושבה)",
      "text": "",
      "stayTimes": "12:00 - 13:00",
      "t_start": "2020-03-20T10:00:00",
      "t_end": "2020-03-20T11:00:00",
      "link": ""
    },
    {
      "id": 105816,
      "lat": 31.6619693000001,
      "lon": 34.55967,
      "label": "מיון ברזילי - אשקלון",
      "text": "",
      "stayTimes": "18:30 - 21:30",
      "t_start": "2020-03-23T16:30:00",
      "t_end": "2020-03-23T19:30:00",
      "link": ""
    },
    {
      "id": 105817,
      "lat": 32.801459703,
      "lon": 35.6886500730001,
      "label": "בית מרקחת קניון נוף גולן - בני יהודה",
      "text": "",
      "stayTimes": "11:30 - 12:00",
      "t_start": "2020-03-22T09:30:00",
      "t_end": "2020-03-22T10:00:00",
      "link": ""
    },
    {
      "id": 105818,
      "lat": 32.7994380000001,
      "lon": 35.6832441,
      "label": "חנות ביג מוצרי בנין - גבעת יואב",
      "text": "",
      "stayTimes": "12:00 - 12:30",
      "t_start": "2020-03-22T10:00:00",
      "t_end": "2020-03-22T10:30:00",
      "link": ""
    },
    {
      "id": 105819,
      "lat": 32.5685534670001,
      "lon": 34.9548873620001,
      "label": "שופרסל בקניון פסגת זכרון - זכרון יעקב",
      "text": "",
      "stayTimes": "21:30 - 23:00",
      "t_start": "2020-03-21T19:30:00",
      "t_end": "2020-03-21T21:00:00",
      "link": ""
    },
    {
      "id": 105820,
      "lat": 31.8686612000001,
      "lon": 34.7460415,
      "label": "סופרפארם - יבנה",
      "text": "",
      "stayTimes": "20:30 - 21:00",
      "t_start": "2020-03-23T18:30:00",
      "t_end": "2020-03-23T19:00:00",
      "link": ""
    },
    {
      "id": 105821,
      "lat": 32.4520147000001,
      "lon": 34.8963615000001,
      "label": "מיון הלל יפה - חדרה",
      "text": "",
      "stayTimes": "22:00 - 00:45",
      "t_start": "2020-03-22T20:00:00",
      "t_end": "2020-03-22T22:45:00",
      "link": ""
    },
    {
      "id": 105822,
      "lat": 32.4382128230001,
      "lon": 34.927502492,
      "label": "בטרם - חדרה - חדרה",
      "text": "",
      "stayTimes": "21:30 - 22:00",
      "t_start": "2020-03-22T19:30:00",
      "t_end": "2020-03-22T20:00:00",
      "link": ""
    },
    {
      "id": 105823,
      "lat": 32.0937292,
      "lon": 34.8895771000001,
      "label": "מגא בעיר - פתח תקווה",
      "text": "",
      "stayTimes": "14:00 - 14:30",
      "t_start": "2020-03-20T12:00:00",
      "t_end": "2020-03-20T12:30:00",
      "link": ""
    },
    {
      "id": 105824,
      "lat": 32.087752874,
      "lon": 34.8323685350001,
      "label": "ביה\"כ צורטקוב - בני ברק",
      "text": "",
      "stayTimes": "18:30 - 19:00",
      "t_start": "2020-03-21T16:30:00",
      "t_end": "2020-03-21T17:00:00",
      "link": ""
    },
    {
      "id": 105825,
      "lat": 32.0908013000001,
      "lon": 34.8389312,
      "label": "סופרמרקט יש חסד - בני ברק",
      "text": "",
      "stayTimes": "20:00 - 21:30",
      "t_start": "2020-03-21T18:00:00",
      "t_end": "2020-03-21T19:30:00",
      "link": ""
    },
    {
      "id": 105826,
      "lat": 32.9328932820001,
      "lon": 35.0913713530001,
      "label": "קופת חולים כללית, עמידר עכו - עכו",
      "text": "",
      "stayTimes": "09:30 - 10:30",
      "t_start": "2020-03-20T07:30:00",
      "t_end": "2020-03-20T08:30:00",
      "link": ""
    },
    {
      "id": 105827,
      "lat": 32.935867466,
      "lon": 35.0890832640001,
      "label": "בית כנסת- אורייתא, סמוך לרחוב נפתלי - עכו",
      "text": "",
      "stayTimes": "08:30 - 09:30",
      "t_start": "2020-03-20T06:30:00",
      "t_end": "2020-03-20T07:30:00",
      "link": ""
    },
    {
      "id": 105828,
      "lat": 31.9476142,
      "lon": 34.8914086,
      "label": "מוקד טרם - לוד",
      "text": "",
      "stayTimes": "13:30 - 15:00",
      "t_start": "2020-03-20T11:30:00",
      "t_end": "2020-03-20T13:00:00",
      "link": ""
    },
    {
      "id": 105829,
      "lat": 32.0812255390001,
      "lon": 34.840566849,
      "label": "בית כנסת קדושי קראקא - בני ברק",
      "text": "",
      "stayTimes": "08:00 - 11:00",
      "t_start": "2020-03-21T06:00:00",
      "t_end": "2020-03-21T09:00:00",
      "link": ""
    },
    {
      "id": 105830,
      "lat": 32.0852217,
      "lon": 34.8304099000001,
      "label": "בית כנסת חסידי בלז - בני ברק",
      "text": "",
      "stayTimes": "09:00 - 22:00",
      "t_start": "2020-03-20T07:00:00",
      "t_end": "2020-03-20T20:00:00",
      "link": ""
    },
    {
      "id": 105831,
      "lat": 32.0924884,
      "lon": 34.8379598000001,
      "label": "מרפאת טר\"מ בני ברק - בני ברק",
      "text": "",
      "stayTimes": "13:00 - 16:00",
      "t_start": "2020-03-20T11:00:00",
      "t_end": "2020-03-20T14:00:00",
      "link": ""
    },
    {
      "id": 105832,
      "lat": 32.0833752,
      "lon": 34.8296135000001,
      "label": "בית כנסת תפארת ציון - בני ברק",
      "text": "",
      "stayTimes": "18:30 - 19:00",
      "t_start": "2020-03-21T16:30:00",
      "t_end": "2020-03-21T17:00:00",
      "link": ""
    },
    {
      "id": 105833,
      "lat": 32.085051891,
      "lon": 34.8778206050001,
      "label": "בית כנסת \"אבי עזרי\" - בני ברק",
      "text": "",
      "stayTimes": "18:20 - 19:00",
      "t_start": "2020-03-20T16:20:00",
      "t_end": "2020-03-20T17:00:00",
      "link": ""
    },
    {
      "id": 105834,
      "lat": 32.0997094000001,
      "lon": 34.8287219000001,
      "label": "מחסני חשמל - בני ברק",
      "text": "",
      "stayTimes": "13:15 - 14:00",
      "t_start": "2020-03-25T11:15:00",
      "t_end": "2020-03-25T12:00:00",
      "link": ""
    },
    {
      "id": 105835,
      "lat": 32.0773965000001,
      "lon": 34.7966304,
      "label": "סופרמרקט \" פלגמרקט - תל אביב - יפו",
      "text": "",
      "stayTimes": "11:00 - 11:30",
      "t_start": "2020-03-20T09:00:00",
      "t_end": "2020-03-20T09:30:00",
      "link": ""
    },
    {
      "id": 105836,
      "lat": 32.0141083090001,
      "lon": 34.7449400100001,
      "label": "מרפאת כללית - השקמה בת ים - בת ים",
      "text": "",
      "stayTimes": "08:00 - 10:00",
      "t_start": "2020-03-22T06:00:00",
      "t_end": "2020-03-22T08:00:00",
      "link": ""
    },
    {
      "id": 105837,
      "lat": 32.0141083090001,
      "lon": 34.7449400100001,
      "label": "מרפאת כללית - השקמה בת ים - בת ים",
      "text": "",
      "stayTimes": "08:00 - 10:00",
      "t_start": "2020-03-25T06:00:00",
      "t_end": "2020-03-25T08:00:00",
      "link": ""
    },
    {
      "id": 105838,
      "lat": 32.008471,
      "lon": 34.8001090000001,
      "label": "ליברה חברה לביטוח - חולון",
      "text": "",
      "stayTimes": "08:00 - 13:00",
      "t_start": "2020-03-20T06:00:00",
      "t_end": "2020-03-20T11:00:00",
      "link": ""
    },
    {
      "id": 105839,
      "lat": 31.7916038000001,
      "lon": 35.1996482000001,
      "label": "מד\"א - ירושלים",
      "text": "",
      "stayTimes": "09:50 - 11:50",
      "t_start": "2020-03-23T07:50:00",
      "t_end": "2020-03-23T09:50:00",
      "link": ""
    },
    {
      "id": 105840,
      "lat": 32.0152498,
      "lon": 34.7567722000001,
      "label": "סופרדוש בת ים - בת ים",
      "text": "",
      "stayTimes": "16:30 - 17:30",
      "t_start": "2020-03-23T14:30:00",
      "t_end": "2020-03-23T15:30:00",
      "link": ""
    },
    {
      "id": 105841,
      "lat": 31.7650299690001,
      "lon": 35.1486071190001,
      "label": "משמרת טיפול נמרץ הדסה - ירושלים",
      "text": "",
      "stayTimes": "08:00 - 16:00",
      "t_start": "2020-03-23T06:00:00",
      "t_end": "2020-03-23T14:00:00",
      "link": ""
    },
    {
      "id": 105842,
      "lat": 31.7914709,
      "lon": 34.6604398000001,
      "label": "בית הכנסת קהל חסידים - אשדוד",
      "text": "",
      "stayTimes": "17:00 - 18:00",
      "t_start": "2020-03-21T15:00:00",
      "t_end": "2020-03-21T16:00:00",
      "link": ""
    },
    {
      "id": 105843,
      "lat": 31.7914709,
      "lon": 34.6604398000001,
      "label": "בית כנסת קהל חסידים - אשדוד",
      "text": "",
      "stayTimes": "19:00 - 19:30",
      "t_start": "2020-03-21T17:00:00",
      "t_end": "2020-03-21T17:30:00",
      "link": ""
    },
    {
      "id": 105844,
      "lat": 31.7914709,
      "lon": 34.6604398000001,
      "label": "בית כנסת קהל חסידים - אשדוד",
      "text": "",
      "stayTimes": "09:00 - 10:00",
      "t_start": "2020-03-20T07:00:00",
      "t_end": "2020-03-20T08:00:00",
      "link": ""
    },
    {
      "id": 105845,
      "lat": 31.7708458000001,
      "lon": 34.6328370000001,
      "label": "תפילה בחצר הבניין של בית הכנסת - אשדוד",
      "text": "",
      "stayTimes": "17:00 - 19:00",
      "t_start": "2020-03-20T15:00:00",
      "t_end": "2020-03-20T17:00:00",
      "link": ""
    },
    {
      "id": 105846,
      "lat": 31.789693132,
      "lon": 34.6614227310001,
      "label": "בית כנסת אימרי חיים ויז'ניץ - אשדוד",
      "text": "",
      "stayTimes": "08:45 - 11:30",
      "t_start": "2020-03-21T06:45:00",
      "t_end": "2020-03-21T09:30:00",
      "link": ""
    },
    {
      "id": 105847,
      "lat": 32.037273,
      "lon": 34.8655430000001,
      "label": "מסוף קרית אונו - קרית אונו",
      "text": "",
      "stayTimes": "13:30 - 14:30",
      "t_start": "2020-03-22T11:30:00",
      "t_end": "2020-03-22T12:30:00",
      "link": ""
    },
    {
      "id": 105848,
      "lat": 32.087523064,
      "lon": 34.8339075660001,
      "label": "בית הכנסת בית אברהם - בני ברק",
      "text": "",
      "stayTimes": "08:30 - 10:30",
      "t_start": "2020-03-21T06:30:00",
      "t_end": "2020-03-21T08:30:00",
      "link": ""
    },
    {
      "id": 105849,
      "lat": 32.3364657000001,
      "lon": 34.8648199,
      "label": "בית כנסת יעקב מאיר - נתניה",
      "text": "",
      "stayTimes": "17:30 - 18:30",
      "t_start": "2020-03-20T15:30:00",
      "t_end": "2020-03-20T16:30:00",
      "link": ""
    },
    {
      "id": 105850,
      "lat": 32.3226049620001,
      "lon": 34.8632334260001,
      "label": "בית כנסת יעקב מאיר - נתניה",
      "text": "",
      "stayTimes": "08:00 - 10:00",
      "t_start": "2020-03-21T06:00:00",
      "t_end": "2020-03-21T08:00:00",
      "link": ""
    },
    {
      "id": 105851,
      "lat": 32.3364657000001,
      "lon": 34.8648199,
      "label": "בית כנסת יעקב מאיר - נתניה",
      "text": "",
      "stayTimes": "17:00 - 17:30",
      "t_start": "2020-03-21T15:00:00",
      "t_end": "2020-03-21T15:30:00",
      "link": ""
    },
    {
      "id": 105852,
      "lat": 32.3364657000001,
      "lon": 34.8648199,
      "label": "בית כנסת יעקב מאיר - נתניה",
      "text": "",
      "stayTimes": "18:30 - 19:00",
      "t_start": "2020-03-21T16:30:00",
      "t_end": "2020-03-21T17:00:00",
      "link": ""
    },
    {
      "id": 105853,
      "lat": 32.318382984,
      "lon": 34.885954138,
      "label": "מרפאה כללית - נתניה",
      "text": "",
      "stayTimes": "08:00 - 09:30",
      "t_start": "2020-03-22T06:00:00",
      "t_end": "2020-03-22T07:30:00",
      "link": ""
    },
    {
      "id": 105854,
      "lat": 32.3231348,
      "lon": 34.8713024,
      "label": "שופרסל דיל - נתניה",
      "text": "",
      "stayTimes": "12:30 - 13:00",
      "t_start": "2020-03-22T10:30:00",
      "t_end": "2020-03-22T11:00:00",
      "link": ""
    },
    {
      "id": 105855,
      "lat": 31.697788105,
      "lon": 34.575005391,
      "label": "סופר ויקטורי - אשקלון",
      "text": "",
      "stayTimes": "08:30 - 10:00",
      "t_start": "2020-03-23T06:30:00",
      "t_end": "2020-03-23T08:00:00",
      "link": ""
    },
    {
      "id": 105856,
      "lat": 31.697706963,
      "lon": 34.575005391,
      "label": "ויקטורי - אשקלון",
      "text": "",
      "stayTimes": "09:00 - 10:10",
      "t_start": "2020-03-26T07:00:00",
      "t_end": "2020-03-26T08:10:00",
      "link": ""
    },
    {
      "id": 105857,
      "lat": 32.0952951,
      "lon": 34.7839011,
      "label": "אל וסינו - תל אביב - יפו",
      "text": "",
      "stayTimes": "22:30 - 00:00",
      "t_start": "2020-03-22T20:30:00",
      "t_end": "2020-03-22T22:00:00",
      "link": ""
    },
    {
      "id": 105858,
      "lat": 32.2868611000001,
      "lon": 34.8664061000001,
      "label": "סופר יוחננוף - נתניה",
      "text": "",
      "stayTimes": "13:00 - 14:00",
      "t_start": "2020-03-25T11:00:00",
      "t_end": "2020-03-25T12:00:00",
      "link": ""
    },
    {
      "id": 105859,
      "lat": 32.0230769,
      "lon": 34.8617718,
      "label": "מכולת שוק אבולבן - אור יהודה",
      "text": "",
      "stayTimes": "11:00 - 12:00",
      "t_start": "2020-03-20T09:00:00",
      "t_end": "2020-03-20T10:00:00",
      "link": ""
    },
    {
      "id": 105860,
      "lat": 32.3086936060001,
      "lon": 34.8732704820001,
      "label": "בית כנסת חב\"ד - נתניה",
      "text": "",
      "stayTimes": "07:00 - 11:00",
      "t_start": "2020-03-21T05:00:00",
      "t_end": "2020-03-21T09:00:00",
      "link": ""
    },
    {
      "id": 105861,
      "lat": 32.306917807,
      "lon": 34.8690509680001,
      "label": "סופר מרקט מגה - נתניה",
      "text": "",
      "stayTimes": "11:00 - 11:30",
      "t_start": "2020-03-20T09:00:00",
      "t_end": "2020-03-20T09:30:00",
      "link": ""
    },
    {
      "id": 105862,
      "lat": 32.3068328000001,
      "lon": 34.8694745,
      "label": "קופ\"ח כללית - נתניה",
      "text": "",
      "stayTimes": "18:00 - 19:00",
      "t_start": "2020-03-25T16:00:00",
      "t_end": "2020-03-25T17:00:00",
      "link": ""
    },
    {
      "id": 105863,
      "lat": 32.0603861880001,
      "lon": 34.7771782930001,
      "label": "חנות יאנוביץ - תל אביב - יפו",
      "text": "",
      "stayTimes": "10:30 - 12:00",
      "t_start": "2020-03-20T08:30:00",
      "t_end": "2020-03-20T10:00:00",
      "link": ""
    },
    {
      "id": 105864,
      "lat": 32.4888435880001,
      "lon": 34.970554421,
      "label": "\"רמי לוי\" מתחם ביג - פרדס חנה-כרכור",
      "text": "",
      "stayTimes": "19:00 - 19:20",
      "t_start": "2020-03-23T17:00:00",
      "t_end": "2020-03-23T17:20:00",
      "link": ""
    },
    {
      "id": 105865,
      "lat": 32.0348409160001,
      "lon": 34.848170958,
      "label": "יוחננוף הגדול - סופר - אור יהודה",
      "text": "",
      "stayTimes": "16:30 - 17:00",
      "t_start": "2020-03-25T14:30:00",
      "t_end": "2020-03-25T15:00:00",
      "link": ""
    },
    {
      "id": 105866,
      "lat": 31.6035606,
      "lon": 34.7589160000001,
      "label": "קופת חולים כללית סניף ג' - קרית גת",
      "text": "",
      "stayTimes": "18:15 - 19:00",
      "t_start": "2020-03-23T16:15:00",
      "t_end": "2020-03-23T17:00:00",
      "link": ""
    },
    {
      "id": 105867,
      "lat": 31.662374293,
      "lon": 34.5592837890001,
      "label": "ביקור במיון - אשקלון",
      "text": "",
      "stayTimes": "19:30 - 21:00",
      "t_start": "2020-03-22T17:30:00",
      "t_end": "2020-03-22T19:00:00",
      "link": ""
    },
    {
      "id": 105868,
      "lat": 32.0347833110001,
      "lon": 34.848167629,
      "label": "סופרמקט יוחננוף - אור יהודה",
      "text": "",
      "stayTimes": "07:00 - 15:00",
      "t_start": "2020-03-20T05:00:00",
      "t_end": "2020-03-20T13:00:00",
      "link": ""
    },
    {
      "id": 105869,
      "lat": 32.034739674,
      "lon": 34.848171919,
      "label": "סופרמרקט יוחננוף - אור יהודה",
      "text": "",
      "stayTimes": "07:00 - 15:00",
      "t_start": "2020-03-22T05:00:00",
      "t_end": "2020-03-22T13:00:00",
      "link": ""
    },
    {
      "id": 105870,
      "lat": 31.6805084000001,
      "lon": 34.5570960000001,
      "label": "ניו פארם אפרידר {BE] - אשקלון",
      "text": "",
      "stayTimes": "11:00 - 11:30",
      "t_start": "2020-03-20T09:00:00",
      "t_end": "2020-03-20T09:30:00",
      "link": ""
    },
    {
      "id": 105871,
      "lat": 31.773365368,
      "lon": 35.185650546,
      "label": "בית חולים שערי צדק - ירושלים",
      "text": "",
      "stayTimes": "08:00 - 21:30",
      "t_start": "2020-03-23T06:00:00",
      "t_end": "2020-03-23T19:30:00",
      "link": ""
    },
    {
      "id": 105872,
      "lat": 32.0142516000001,
      "lon": 34.7670197,
      "label": "מוקד מכבי הופיין - חולון",
      "text": "",
      "stayTimes": "20:45 - 22:20",
      "t_start": "2020-03-23T18:45:00",
      "t_end": "2020-03-23T20:20:00",
      "link": ""
    },
    {
      "id": 105873,
      "lat": 32.0142516000001,
      "lon": 34.7670197,
      "label": "מוקד מכבי הופיין - חולון",
      "text": "",
      "stayTimes": "19:40 - 22:30",
      "t_start": "2020-03-24T17:40:00",
      "t_end": "2020-03-24T20:30:00",
      "link": ""
    },
    {
      "id": 105874,
      "lat": 32.0142516000001,
      "lon": 34.7670197,
      "label": "מוקד מכבי הופיים - חולון",
      "text": "",
      "stayTimes": "19:05 - 20:05",
      "t_start": "2020-03-25T17:05:00",
      "t_end": "2020-03-25T18:05:00",
      "link": ""
    },
    {
      "id": 105875,
      "lat": 31.6622786990001,
      "lon": 34.5592685010001,
      "label": "ביח ברזילי - אשקלון",
      "text": "",
      "stayTimes": "09:00 - 10:00",
      "t_start": "2020-03-25T07:00:00",
      "t_end": "2020-03-25T08:00:00",
      "link": ""
    },
    {
      "id": 105876,
      "lat": 31.6561888000001,
      "lon": 34.5878943000001,
      "label": "סיטונאות רחמים - אשקלון",
      "text": "",
      "stayTimes": "07:00 - 08:00",
      "t_start": "2020-03-20T05:00:00",
      "t_end": "2020-03-20T06:00:00",
      "link": ""
    },
    {
      "id": 105877,
      "lat": 31.6744616290001,
      "lon": 34.5583050380001,
      "label": "מכולת שכונתית-רח הטייסים - אשקלון",
      "text": "",
      "stayTimes": "07:30 - 08:00",
      "t_start": "2020-03-25T05:30:00",
      "t_end": "2020-03-25T06:00:00",
      "link": ""
    },
    {
      "id": 105878,
      "lat": 31.6633589680001,
      "lon": 34.5858703590001,
      "label": "מוקד \"טרם\" - אשקלון",
      "text": "",
      "stayTimes": "11:30 - 12:30",
      "t_start": "2020-03-20T09:30:00",
      "t_end": "2020-03-20T10:30:00",
      "link": ""
    },
    {
      "id": 105879,
      "lat": 32.086082301,
      "lon": 34.8304487670001,
      "label": "בית מרקחת - בני ברק",
      "text": "",
      "stayTimes": "12:00 - 13:00",
      "t_start": "2020-03-23T10:00:00",
      "t_end": "2020-03-23T11:00:00",
      "link": ""
    },
    {
      "id": 105880,
      "lat": 31.747611239,
      "lon": 34.9933915010001,
      "label": "סופר-פארם, קניון נעמי - בית שמש",
      "text": "",
      "stayTimes": "17:00 - 17:30",
      "t_start": "2020-03-23T15:00:00",
      "t_end": "2020-03-23T15:30:00",
      "link": ""
    },
    {
      "id": 105881,
      "lat": 32.0905584000001,
      "lon": 34.8328416000001,
      "label": "בית כנסת תפארת נחמן - בני ברק",
      "text": "",
      "stayTimes": "17:00 - 12:00",
      "t_start": "2020-03-20T15:00:00",
      "t_end": "2020-03-21T10:00:00",
      "link": ""
    },
    {
      "id": 105882,
      "lat": 32.082238449,
      "lon": 34.8403200290001,
      "label": "בית כנסת נחלת משה - בני ברק",
      "text": "",
      "stayTimes": "11:00 - 13:00",
      "t_start": "2020-03-20T09:00:00",
      "t_end": "2020-03-20T11:00:00",
      "link": ""
    },
    {
      "id": 105883,
      "lat": 32.057107,
      "lon": 34.8691424,
      "label": "סופר פארם - גני תקווה",
      "text": "",
      "stayTimes": "09:30 - 09:45",
      "t_start": "2020-03-27T07:30:00",
      "t_end": "2020-03-27T07:45:00",
      "link": ""
    },
    {
      "id": 105884,
      "lat": 32.0900940000001,
      "lon": 34.8282610000001,
      "label": "ישיבת סלבוטקה - בני ברק",
      "text": "",
      "stayTimes": "13:00 - 15:30",
      "t_start": "2020-03-20T11:00:00",
      "t_end": "2020-03-20T13:30:00",
      "link": ""
    },
    {
      "id": 105885,
      "lat": 32.0763242,
      "lon": 34.8398895,
      "label": "בית כנסת משכנות יעקב - בני ברק",
      "text": "",
      "stayTimes": "17:00 - 17:30",
      "t_start": "2020-03-21T15:00:00",
      "t_end": "2020-03-21T15:30:00",
      "link": ""
    },
    {
      "id": 105886,
      "lat": 32.0859852,
      "lon": 34.8355715000001,
      "label": "בית כנסת איצקוביץ - בני ברק",
      "text": "",
      "stayTimes": "12:30 - 13:00",
      "t_start": "2020-03-20T10:30:00",
      "t_end": "2020-03-20T11:00:00",
      "link": ""
    },
    {
      "id": 105887,
      "lat": 32.0984322410001,
      "lon": 34.833049869,
      "label": "בית כנסת אור הצפון - בני ברק",
      "text": "",
      "stayTimes": "17:00 - 12:00",
      "t_start": "2020-03-20T15:00:00",
      "t_end": "2020-03-21T10:00:00",
      "link": ""
    },
    {
      "id": 105888,
      "lat": 32.0905584000001,
      "lon": 34.8328416000001,
      "label": "בית כנסת תפארת נחמן - בני ברק",
      "text": "",
      "stayTimes": "17:00 - 12:00",
      "t_start": "2020-03-20T15:00:00",
      "t_end": "2020-03-21T10:00:00",
      "link": ""
    },
    {
      "id": 105889,
      "lat": 32.4341140000001,
      "lon": 34.9091965000001,
      "label": "ארכה חנות חומרי חשמל חדרה - חדרה",
      "text": "",
      "stayTimes": "07:00 - 17:00",
      "t_start": "2020-03-22T05:00:00",
      "t_end": "2020-03-22T15:00:00",
      "link": ""
    },
    {
      "id": 105890,
      "lat": 31.9359125,
      "lon": 34.8258773000001,
      "label": "מאפיה דרך הלחם, ספר אקספרס, קצביה, מענדניה - באר יעקב",
      "text": "",
      "stayTimes": "11:00 - 12:30",
      "t_start": "2020-03-23T09:00:00",
      "t_end": "2020-03-23T10:30:00",
      "link": ""
    },
    {
      "id": 105891,
      "lat": 31.941866443,
      "lon": 34.833751224,
      "label": "שופרסל, בקניון - באר יעקב",
      "text": "",
      "stayTimes": "10:30 - 10:45",
      "t_start": "2020-03-24T08:30:00",
      "t_end": "2020-03-24T08:45:00",
      "link": ""
    },
    {
      "id": 105892,
      "lat": 32.1046489170001,
      "lon": 34.8118631410001,
      "label": "תחנת בדיקה לקורונה,ברוקח - תל אביב - יפו",
      "text": "",
      "stayTimes": "20:30 - 21:00",
      "t_start": "2020-03-25T18:30:00",
      "t_end": "2020-03-25T19:00:00",
      "link": ""
    },
    {
      "id": 105893,
      "lat": 31.6355262000001,
      "lon": 34.5528603000001,
      "label": "רמי לוי - אשקלון",
      "text": "",
      "stayTimes": "19:00 - 21:00",
      "t_start": "2020-03-22T17:00:00",
      "t_end": "2020-03-22T19:00:00",
      "link": ""
    },
    {
      "id": 105894,
      "lat": 31.8865552,
      "lon": 35.0182949000001,
      "label": "סופר ברעות- סופר שלי, מרכז מסחרי רעות - מודיעין-מכבים-רעות",
      "text": "",
      "stayTimes": "17:00 - 17:20",
      "t_start": "2020-03-23T15:00:00",
      "t_end": "2020-03-23T15:20:00",
      "link": ""
    },
    {
      "id": 105895,
      "lat": 31.8865552,
      "lon": 35.0182949000001,
      "label": "סופרמרקט שופרסל שלי- מרכז מסחרי לב רעות - מודיעין-מכבים-רעות",
      "text": "",
      "stayTimes": "10:00 - 10:15",
      "t_start": "2020-03-20T08:00:00",
      "t_end": "2020-03-20T08:15:00",
      "link": ""
    },
    {
      "id": 105896,
      "lat": 32.103972238,
      "lon": 34.810706204,
      "label": "בדיקה בתל אביב במתחם של מד\"א - תל אביב - יפו",
      "text": "",
      "stayTimes": "22:45 - 22:55",
      "t_start": "2020-03-25T20:45:00",
      "t_end": "2020-03-25T20:55:00",
      "link": ""
    },
    {
      "id": 105897,
      "lat": 32.0908013000001,
      "lon": 34.8389312,
      "label": "סופר יש חסד - בני ברק",
      "text": "",
      "stayTimes": "22:45 - 23:30",
      "t_start": "2020-03-22T20:45:00",
      "t_end": "2020-03-22T21:30:00",
      "link": ""
    },
    {
      "id": 105898,
      "lat": 32.087135102,
      "lon": 34.828786721,
      "label": "כולל יוצאי חברון - בני ברק",
      "text": "",
      "stayTimes": "11:00 - 12:30",
      "t_start": "2020-03-24T09:00:00",
      "t_end": "2020-03-24T10:30:00",
      "link": ""
    },
    {
      "id": 105899,
      "lat": 32.0880753010001,
      "lon": 34.839479827,
      "label": "בית כנסת חנכי ישיבית - בני ברק",
      "text": "",
      "stayTimes": "08:00 - 08:00",
      "t_start": "2020-03-21T06:00:00",
      "t_end": "2020-03-21T06:00:00",
      "link": ""
    },
    {
      "id": 105900,
      "lat": 31.79243675,
      "lon": 34.65534726,
      "label": "בית מרקחת קופ\"ח כללית - אשדוד",
      "text": "",
      "stayTimes": "10:00 - 11:00",
      "t_start": "2020-03-23T08:00:00",
      "t_end": "2020-03-23T09:00:00",
      "link": ""
    },
    {
      "id": 105901,
      "lat": 32.098909357,
      "lon": 34.829762456,
      "label": "אושר עד - בני ברק",
      "text": "",
      "stayTimes": "18:45 - 20:00",
      "t_start": "2020-03-23T16:45:00",
      "t_end": "2020-03-23T18:00:00",
      "link": ""
    },
    {
      "id": 105902,
      "lat": 32.0888296300001,
      "lon": 34.8390491580001,
      "label": "בית כנסת חניכי ישיבות סמינר אלקיים - בני ברק",
      "text": "",
      "stayTimes": "07:00 - 09:30",
      "t_start": "2020-03-21T05:00:00",
      "t_end": "2020-03-21T07:30:00",
      "link": ""
    },
    {
      "id": 105903,
      "lat": 32.0605863850001,
      "lon": 34.776487135,
      "label": "מפעל לליטוש יהלומים - תל אביב - יפו",
      "text": "",
      "stayTimes": "09:30 - 11:30",
      "t_start": "2020-03-24T07:30:00",
      "t_end": "2020-03-24T09:30:00",
      "link": ""
    },
    {
      "id": 105904,
      "lat": 32.0994975,
      "lon": 34.8755340000001,
      "label": "חצי חינם - פתח תקווה",
      "text": "",
      "stayTimes": "12:00 - 12:30",
      "t_start": "2020-03-23T10:00:00",
      "t_end": "2020-03-23T10:30:00",
      "link": ""
    },
    {
      "id": 105905,
      "lat": 32.085804954,
      "lon": 34.827918448,
      "label": "בית כנסת גור - בני ברק",
      "text": "",
      "stayTimes": "16:30 - 18:00",
      "t_start": "2020-03-21T14:30:00",
      "t_end": "2020-03-21T16:00:00",
      "link": ""
    },
    {
      "id": 105906,
      "lat": 32.0940110660001,
      "lon": 34.842704842,
      "label": "בית הכנסת שירת ישראל - בני ברק",
      "text": "",
      "stayTimes": "07:45 - 10:30",
      "t_start": "2020-03-21T05:45:00",
      "t_end": "2020-03-21T08:30:00",
      "link": ""
    },
    {
      "id": 105907,
      "lat": 32.0972669000001,
      "lon": 34.8379174,
      "label": "בית הכנסת זיו יהודה - בני ברק",
      "text": "",
      "stayTimes": "07:00 - 08:00",
      "t_start": "2020-03-22T05:00:00",
      "t_end": "2020-03-22T06:00:00",
      "link": ""
    },
    {
      "id": 105908,
      "lat": 31.8997105,
      "lon": 35.0136182000001,
      "label": "חנות ירקות \"אפונה וגזר\" - מודיעין-מכבים-רעות",
      "text": "",
      "stayTimes": "08:30 - 09:00",
      "t_start": "2020-03-20T06:30:00",
      "t_end": "2020-03-20T07:00:00",
      "link": ""
    },
    {
      "id": 105909,
      "lat": 31.8996547,
      "lon": 35.0138978000001,
      "label": "מכולת \"גולד מרקט\" - מודיעין-מכבים-רעות",
      "text": "",
      "stayTimes": "09:00 - 09:30",
      "t_start": "2020-03-20T07:00:00",
      "t_end": "2020-03-20T07:30:00",
      "link": ""
    },
    {
      "id": 105910,
      "lat": 32.0917393,
      "lon": 34.8223515,
      "label": "סטוק סנטר - רמת גן",
      "text": "",
      "stayTimes": "17:50 - 18:00",
      "t_start": "2020-03-22T15:50:00",
      "t_end": "2020-03-22T16:00:00",
      "link": ""
    },
    {
      "id": 105911,
      "lat": 32.0837975000001,
      "lon": 34.8141098,
      "label": "גוד פארם - רמת גן",
      "text": "",
      "stayTimes": "13:00 - 13:15",
      "t_start": "2020-03-20T11:00:00",
      "t_end": "2020-03-20T11:15:00",
      "link": ""
    },
    {
      "id": 105912,
      "lat": 32.0841454440001,
      "lon": 34.8193542230001,
      "label": "סופר סיטי - רמת גן",
      "text": "",
      "stayTimes": "18:00 - 18:10",
      "t_start": "2020-03-22T16:00:00",
      "t_end": "2020-03-22T16:10:00",
      "link": ""
    },
    {
      "id": 105913,
      "lat": 31.7789552,
      "lon": 34.6570806,
      "label": "בי\"ח אסותא- חדר ניתוח - אשדוד",
      "text": "",
      "stayTimes": "19:00 - 07:00",
      "t_start": "2020-03-25T17:00:00",
      "t_end": "2020-03-26T05:00:00",
      "link": ""
    },
    {
      "id": 105914,
      "lat": 32.0794196000001,
      "lon": 34.8364418,
      "label": "בית כנסת חסידי סאטמר - בני ברק",
      "text": "",
      "stayTimes": "08:00 - 09:30",
      "t_start": "2020-03-23T06:00:00",
      "t_end": "2020-03-23T07:30:00",
      "link": ""
    },
    {
      "id": 105915,
      "lat": 31.7675203000001,
      "lon": 35.2953086000001,
      "label": "מרפאת \"טרם\" - מעלה אדומים",
      "text": "",
      "stayTimes": "11:00 - 12:00",
      "t_start": "2020-03-22T09:00:00",
      "t_end": "2020-03-22T10:00:00",
      "link": ""
    },
    {
      "id": 105916,
      "lat": 31.7675203000001,
      "lon": 35.2953086000001,
      "label": "מרפאת \"טרם\" - מעלה אדומים",
      "text": "",
      "stayTimes": "15:00 - 16:00",
      "t_start": "2020-03-22T13:00:00",
      "t_end": "2020-03-22T14:00:00",
      "link": ""
    },
    {
      "id": 105917,
      "lat": 31.7649503000001,
      "lon": 35.1494106000001,
      "label": "מיון פנימי בי\"ח הדסה עין כרם - ירושלים",
      "text": "",
      "stayTimes": "23:00 - 01:00",
      "t_start": "2020-03-22T21:00:00",
      "t_end": "2020-03-22T23:00:00",
      "link": ""
    },
    {
      "id": 105918,
      "lat": 32.0854144,
      "lon": 34.8253573000001,
      "label": "בית כנסת ישראל הצעיר - בני ברק",
      "text": "",
      "stayTimes": "07:00 - 08:30",
      "t_start": "2020-03-21T05:00:00",
      "t_end": "2020-03-21T06:30:00",
      "link": ""
    },
    {
      "id": 105919,
      "lat": 32.0828243,
      "lon": 34.8262474000001,
      "label": "סופר \"יש בשכונה\" - בני ברק",
      "text": "",
      "stayTimes": "13:00 - 13:30",
      "t_start": "2020-03-20T11:00:00",
      "t_end": "2020-03-20T11:30:00",
      "link": ""
    },
    {
      "id": 105920,
      "lat": 32.0258672000001,
      "lon": 34.8593382,
      "label": "סופר יש חסד - אור יהודה",
      "text": "",
      "stayTimes": "17:00 - 17:30",
      "t_start": "2020-03-25T15:00:00",
      "t_end": "2020-03-25T15:30:00",
      "link": ""
    },
    {
      "id": 105921,
      "lat": 31.8070985000001,
      "lon": 34.7848264,
      "label": "בית כנסת קהילתי תיכון רמון - גדרה",
      "text": "",
      "stayTimes": "08:00 - 10:00",
      "t_start": "2020-03-21T06:00:00",
      "t_end": "2020-03-21T08:00:00",
      "link": ""
    },
    {
      "id": 105922,
      "lat": 32.090239926,
      "lon": 34.825733954,
      "label": "ישיבת תפארת בחורים שיקומית - בני ברק",
      "text": "",
      "stayTimes": "08:00 - 12:00",
      "t_start": "2020-03-23T06:00:00",
      "t_end": "2020-03-23T10:00:00",
      "link": ""
    },
    {
      "id": 105923,
      "lat": 31.9478329,
      "lon": 34.9011619,
      "label": "קליניקה פרטית מכבי - לוד",
      "text": "",
      "stayTimes": "16:00 - 20:00",
      "t_start": "2020-03-22T14:00:00",
      "t_end": "2020-03-22T18:00:00",
      "link": ""
    },
    {
      "id": 105924,
      "lat": 31.9220189000001,
      "lon": 34.8587808,
      "label": "מרכז בריאות הילד כללית - רמלה",
      "text": "",
      "stayTimes": "08:00 - 14:00",
      "t_start": "2020-03-22T06:00:00",
      "t_end": "2020-03-22T12:00:00",
      "link": ""
    },
    {
      "id": 105925,
      "lat": 31.9478329,
      "lon": 34.9011619,
      "label": "קליניקה פרטית מכבי - לוד",
      "text": "",
      "stayTimes": "08:30 - 11:30",
      "t_start": "2020-03-24T06:30:00",
      "t_end": "2020-03-24T09:30:00",
      "link": ""
    },
    {
      "id": 105926,
      "lat": 31.9220189000001,
      "lon": 34.8587808,
      "label": "מרכז בריאות הילד כללית - רמלה",
      "text": "",
      "stayTimes": "08:00 - 14:30",
      "t_start": "2020-03-23T06:00:00",
      "t_end": "2020-03-23T12:30:00",
      "link": ""
    },
    {
      "id": 105927,
      "lat": 31.9220189000001,
      "lon": 34.8587808,
      "label": "מרכז בריאות הילד - רמלה",
      "text": "",
      "stayTimes": "08:15 - 11:00",
      "t_start": "2020-03-25T06:15:00",
      "t_end": "2020-03-25T09:00:00",
      "link": ""
    },
    {
      "id": 105928,
      "lat": 32.0142516000001,
      "lon": 34.7670197,
      "label": "מוקד מכבי - חולון",
      "text": "",
      "stayTimes": "19:00 - 23:00",
      "t_start": "2020-03-24T17:00:00",
      "t_end": "2020-03-24T21:00:00",
      "link": ""
    },
    {
      "id": 105929,
      "lat": 31.9211343160001,
      "lon": 34.876920543,
      "label": "פיקוד העורף-מוקד קורונה - רמלה",
      "text": "",
      "stayTimes": "07:00 - 16:00",
      "t_start": "2020-03-20T05:00:00",
      "t_end": "2020-03-20T14:00:00",
      "link": ""
    },
    {
      "id": 105930,
      "lat": 31.921163456,
      "lon": 34.8769892070001,
      "label": "פיקוד העורף-מוקד קורונה - רמלה",
      "text": "",
      "stayTimes": "07:00 - 09:00",
      "t_start": "2020-03-22T05:00:00",
      "t_end": "2020-03-22T07:00:00",
      "link": ""
    },
    {
      "id": 105931,
      "lat": 31.9211343160001,
      "lon": 34.8769892070001,
      "label": "מרפאת פיקוד העורף - רמלה",
      "text": "",
      "stayTimes": "09:00 - 10:00",
      "t_start": "2020-03-22T07:00:00",
      "t_end": "2020-03-22T08:00:00",
      "link": ""
    },
    {
      "id": 105932,
      "lat": 32.2727963510001,
      "lon": 34.9129163470001,
      "label": "בית כנסת \"שבזי\" קדימה - קדימה-צורן",
      "text": "",
      "stayTimes": "07:30 - 09:30",
      "t_start": "2020-03-21T05:30:00",
      "t_end": "2020-03-21T07:30:00",
      "link": ""
    },
    {
      "id": 105933,
      "lat": 32.2727382950001,
      "lon": 34.9129506840001,
      "label": "בית כנסת \"שבזי\" קדימה - קדימה-צורן",
      "text": "",
      "stayTimes": "12:30 - 21:30",
      "t_start": "2020-03-21T10:30:00",
      "t_end": "2020-03-21T19:30:00",
      "link": ""
    },
    {
      "id": 105934,
      "lat": 32.2728253830001,
      "lon": 34.9129163630001,
      "label": "בית כנסת \"שבזי\" קדימה - קדימה-צורן",
      "text": "",
      "stayTimes": "18:25 - 19:00",
      "t_start": "2020-03-21T16:25:00",
      "t_end": "2020-03-21T17:00:00",
      "link": ""
    },
    {
      "id": 105935,
      "lat": 32.27151816,
      "lon": 34.9170467980001,
      "label": "בית כנסת \"המרוקאי\" קדימה - קדימה-צורן",
      "text": "",
      "stayTimes": "05:00 - 06:00",
      "t_start": "2020-03-22T03:00:00",
      "t_end": "2020-03-22T04:00:00",
      "link": ""
    },
    {
      "id": 105936,
      "lat": 32.271548142,
      "lon": 34.9171340660001,
      "label": "בית כנסת \"מרוקאי\" קדימה - קדימה-צורן",
      "text": "",
      "stayTimes": "05:00 - 06:00",
      "t_start": "2020-03-20T03:00:00",
      "t_end": "2020-03-20T04:00:00",
      "link": ""
    },
    {
      "id": 105937,
      "lat": 32.2762888,
      "lon": 34.9204034000001,
      "label": "סופרמרקט \"רמי לוי\" קדימה - קדימה-צורן",
      "text": "",
      "stayTimes": "19:45 - 21:00",
      "t_start": "2020-03-21T17:45:00",
      "t_end": "2020-03-21T19:00:00",
      "link": ""
    },
    {
      "id": 105938,
      "lat": 32.066315,
      "lon": 34.8109544000001,
      "label": "סופר Mega - גבעתיים",
      "text": "",
      "stayTimes": "21:45 - 22:30",
      "t_start": "2020-03-22T19:45:00",
      "t_end": "2020-03-22T20:30:00",
      "link": ""
    },
    {
      "id": 105939,
      "lat": 31.9370367110001,
      "lon": 35.038946331,
      "label": "חנות כלבו \"עזרא ואחווה\" מרכז עסקים - מודיעין עילית",
      "text": "",
      "stayTimes": "18:00 - 19:00",
      "t_start": "2020-03-22T16:00:00",
      "t_end": "2020-03-22T17:00:00",
      "link": ""
    },
    {
      "id": 105940,
      "lat": 31.9326186370001,
      "lon": 35.0453525200001,
      "label": "חנות מוצרי סית \"סנטר ליין\" - מודיעין עילית",
      "text": "",
      "stayTimes": "16:30 - 16:50",
      "t_start": "2020-03-24T14:30:00",
      "t_end": "2020-03-24T14:50:00",
      "link": ""
    },
    {
      "id": 105941,
      "lat": 31.9454999000001,
      "lon": 34.8920591,
      "label": "רמי לוי - לוד",
      "text": "",
      "stayTimes": "12:00 - 13:00",
      "t_start": "2020-03-22T10:00:00",
      "t_end": "2020-03-22T11:00:00",
      "link": ""
    },
    {
      "id": 105942,
      "lat": 31.931367058,
      "lon": 34.889472229,
      "label": "חנות BOOOM - לוד",
      "text": "",
      "stayTimes": "15:20 - 16:00",
      "t_start": "2020-03-23T13:20:00",
      "t_end": "2020-03-23T14:00:00",
      "link": ""
    },
    {
      "id": 105943,
      "lat": 31.9540566250001,
      "lon": 34.890366369,
      "label": "אושר עד - לוד",
      "text": "",
      "stayTimes": "17:00 - 18:00",
      "t_start": "2020-03-23T15:00:00",
      "t_end": "2020-03-23T16:00:00",
      "link": ""
    },
    {
      "id": 105944,
      "lat": 31.946440017,
      "lon": 34.8978359610001,
      "label": "בית מרקחת מכבי - לוד",
      "text": "",
      "stayTimes": "14:00 - 15:00",
      "t_start": "2020-03-23T12:00:00",
      "t_end": "2020-03-23T13:00:00",
      "link": ""
    },
    {
      "id": 105945,
      "lat": 31.9393470000001,
      "lon": 34.86089,
      "label": "בית כנסת רשבם - רמלה",
      "text": "",
      "stayTimes": "14:30 - 17:00",
      "t_start": "2020-03-21T12:30:00",
      "t_end": "2020-03-21T15:00:00",
      "link": ""
    },
    {
      "id": 105946,
      "lat": 32.0468261550001,
      "lon": 34.908611948,
      "label": "סופרמרקט יש - בארות יצחק",
      "text": "",
      "stayTimes": "13:45 - 14:30",
      "t_start": "2020-03-23T11:45:00",
      "t_end": "2020-03-23T12:30:00",
      "link": ""
    },
    {
      "id": 105947,
      "lat": 31.9324770000001,
      "lon": 35.042265,
      "label": "מרכל - מודיעין עילית",
      "text": "",
      "stayTimes": "08:30 - 09:10",
      "t_start": "2020-03-22T06:30:00",
      "t_end": "2020-03-22T07:10:00",
      "link": ""
    },
    {
      "id": 105948,
      "lat": 31.926964394,
      "lon": 35.041944619,
      "label": "מרכול  רחוב נתיבות המשפט פינת מסילת יוסף - מודיעין עילית",
      "text": "",
      "stayTimes": "18:50 - 19:10",
      "t_start": "2020-03-26T16:50:00",
      "t_end": "2020-03-26T17:10:00",
      "link": ""
    },
    {
      "id": 105949,
      "lat": 31.9247418,
      "lon": 35.0410441000001,
      "label": "קריאת תורה בבית הכנסת שירה חדשה - מודיעין עילית",
      "text": "",
      "stayTimes": "10:30 - 11:00",
      "t_start": "2020-03-21T08:30:00",
      "t_end": "2020-03-21T09:00:00",
      "link": ""
    },
    {
      "id": 105950,
      "lat": 32.5735138760001,
      "lon": 34.954023825,
      "label": "משרד שרותי רב קו - זכרון יעקב",
      "text": "",
      "stayTimes": "09:00 - 15:30",
      "t_start": "2020-03-22T07:00:00",
      "t_end": "2020-03-22T13:30:00",
      "link": ""
    },
    {
      "id": 105951,
      "lat": 32.7891667000001,
      "lon": 35.535,
      "label": "שופרסל דיל - טבריה",
      "text": "",
      "stayTimes": "21:00 - 21:10",
      "t_start": "2020-03-23T19:00:00",
      "t_end": "2020-03-23T19:10:00",
      "link": ""
    },
    {
      "id": 105952,
      "lat": 31.8142447650001,
      "lon": 34.7764170770001,
      "label": "מעון מוריה - גדרה",
      "text": "",
      "stayTimes": "06:00 - 14:00",
      "t_start": "2020-03-20T04:00:00",
      "t_end": "2020-03-20T12:00:00",
      "link": ""
    },
    {
      "id": 105953,
      "lat": 31.8142139,
      "lon": 34.7764126000001,
      "label": "מעון מוריה - גדרה",
      "text": "",
      "stayTimes": "06:00 - 20:00",
      "t_start": "2020-03-21T04:00:00",
      "t_end": "2020-03-21T18:00:00",
      "link": ""
    },
    {
      "id": 105954,
      "lat": 31.6629795000001,
      "lon": 34.5766783,
      "label": "קופ\"ח כללית נאות אשקלון - אשקלון",
      "text": "",
      "stayTimes": "07:30 - 13:30",
      "t_start": "2020-03-25T05:30:00",
      "t_end": "2020-03-25T11:30:00",
      "link": ""
    },
    {
      "id": 105955,
      "lat": 31.813560991,
      "lon": 34.6601808670001,
      "label": "רמי לוי - אשדוד",
      "text": "",
      "stayTimes": "10:30 - 12:00",
      "t_start": "2020-03-24T08:30:00",
      "t_end": "2020-03-24T10:00:00",
      "link": ""
    },
    {
      "id": 105956,
      "lat": 31.8079432420001,
      "lon": 34.6573172600001,
      "label": "מחסני בשר - אשדוד",
      "text": "",
      "stayTimes": "10:00 - 10:30",
      "t_start": "2020-03-24T08:00:00",
      "t_end": "2020-03-24T08:30:00",
      "link": ""
    },
    {
      "id": 105957,
      "lat": 32.015268334,
      "lon": 34.756772578,
      "label": "סופר דוש בקניון בת ים - בת ים",
      "text": "",
      "stayTimes": "16:00 - 17:30",
      "t_start": "2020-03-24T14:00:00",
      "t_end": "2020-03-24T15:30:00",
      "link": ""
    },
    {
      "id": 105958,
      "lat": 32.6782892800001,
      "lon": 35.2433936890001,
      "label": "שופר סל מתחם פרץ סנטר - מגדל העמק",
      "text": "",
      "stayTimes": "17:30 - 18:45",
      "t_start": "2020-03-22T15:30:00",
      "t_end": "2020-03-22T16:45:00",
      "link": ""
    },
    {
      "id": 105959,
      "lat": 31.374236604,
      "lon": 35.006553292,
      "label": "סופר מחסני השוק- מיתרים - שמעה",
      "text": "",
      "stayTimes": "12:30 - 13:30",
      "t_start": "2020-03-25T10:30:00",
      "t_end": "2020-03-25T11:30:00",
      "link": ""
    },
    {
      "id": 105960,
      "lat": 31.2433310000001,
      "lon": 34.8125470000001,
      "label": "סופר פארם ביג - באר שבע",
      "text": "",
      "stayTimes": "09:30 - 10:00",
      "t_start": "2020-03-25T07:30:00",
      "t_end": "2020-03-25T08:00:00",
      "link": ""
    },
    {
      "id": 105961,
      "lat": 31.2413889000001,
      "lon": 34.8105556,
      "label": "ACE ביג - באר שבע",
      "text": "",
      "stayTimes": "10:00 - 10:30",
      "t_start": "2020-03-25T08:00:00",
      "t_end": "2020-03-25T08:30:00",
      "link": ""
    },
    {
      "id": 105962,
      "lat": 31.2428483750001,
      "lon": 34.8121199610001,
      "label": "חנות נעמן BIG - באר שבע",
      "text": "",
      "stayTimes": "10:00 - 10:30",
      "t_start": "2020-03-25T08:00:00",
      "t_end": "2020-03-25T08:30:00",
      "link": ""
    },
    {
      "id": 105963,
      "lat": 31.7789552,
      "lon": 34.6570806,
      "label": "מיון ביה\"ח אסותא - אשדוד",
      "text": "",
      "stayTimes": "17:00 - 17:30",
      "t_start": "2020-03-26T15:00:00",
      "t_end": "2020-03-26T15:30:00",
      "link": ""
    },
    {
      "id": 105964,
      "lat": 31.984200215,
      "lon": 34.8059405130001,
      "label": "בית כנסת ישורון - ראשון לציון",
      "text": "",
      "stayTimes": "18:00 - 18:30",
      "t_start": "2020-03-21T16:00:00",
      "t_end": "2020-03-21T16:30:00",
      "link": ""
    },
    {
      "id": 105965,
      "lat": 31.9909974,
      "lon": 34.7607583000001,
      "label": "מאפיית קראמבל - ראשון לציון",
      "text": "",
      "stayTimes": "23:00 - 23:30",
      "t_start": "2020-03-26T21:00:00",
      "t_end": "2020-03-26T21:30:00",
      "link": ""
    },
    {
      "id": 105966,
      "lat": 32.6038847,
      "lon": 35.2930428000001,
      "label": "רמי לוי - עפולה",
      "text": "",
      "stayTimes": "20:30 - 21:30",
      "t_start": "2020-03-21T18:30:00",
      "t_end": "2020-03-21T19:30:00",
      "link": ""
    },
    {
      "id": 105967,
      "lat": 32.6109777990001,
      "lon": 35.2879909660001,
      "label": "חנות שבו - כלי כתיבה - עפולה",
      "text": "",
      "stayTimes": "18:30 - 18:45",
      "t_start": "2020-03-22T16:30:00",
      "t_end": "2020-03-22T16:45:00",
      "link": ""
    },
    {
      "id": 105968,
      "lat": 32.6122728,
      "lon": 35.2882818000001,
      "label": "מאפייה קציר - עפולה",
      "text": "",
      "stayTimes": "08:00 - 09:00",
      "t_start": "2020-03-24T06:00:00",
      "t_end": "2020-03-24T07:00:00",
      "link": ""
    },
    {
      "id": 105969,
      "lat": 32.0763242,
      "lon": 34.8398895,
      "label": "בית כנסת משכנות יעקב באולם  הישיבה דעת תבונות למעלה - בני ברק",
      "text": "",
      "stayTimes": "08:00 - 10:00",
      "t_start": "2020-03-21T06:00:00",
      "t_end": "2020-03-21T08:00:00",
      "link": ""
    },
    {
      "id": 105970,
      "lat": 32.0862964340001,
      "lon": 34.8348863210001,
      "label": "נתיב החסד - בני ברק",
      "text": "",
      "stayTimes": "11:00 - 12:30",
      "t_start": "2020-03-24T09:00:00",
      "t_end": "2020-03-24T10:30:00",
      "link": ""
    },
    {
      "id": 105971,
      "lat": 32.090743767,
      "lon": 34.832575702,
      "label": "מכירה שכונתית בגינת אבן שפרוט - בני ברק",
      "text": "",
      "stayTimes": "12:00 - 08:00",
      "t_start": "2020-03-25T10:00:00",
      "t_end": "2020-03-22T06:00:00",
      "link": ""
    },
    {
      "id": 105972,
      "lat": 32.0794501020001,
      "lon": 34.815074942,
      "label": "סופר פארם - רמת גן",
      "text": "",
      "stayTimes": "10:30 - 11:00",
      "t_start": "2020-03-25T08:30:00",
      "t_end": "2020-03-25T09:00:00",
      "link": ""
    },
    {
      "id": 105973,
      "lat": 31.66687574,
      "lon": 34.5847790080001,
      "label": "סעדה הדגים ליד ג'וליה - אזור תעשיה - אשקלון",
      "text": "",
      "stayTimes": "09:30 - 10:00",
      "t_start": "2020-03-20T07:30:00",
      "t_end": "2020-03-20T08:00:00",
      "link": ""
    },
    {
      "id": 105974,
      "lat": 32.076331177,
      "lon": 34.839895675,
      "label": "בית כנסת משכנות יעקב באולם - בני ברק",
      "text": "",
      "stayTimes": "07:45 - 09:00",
      "t_start": "2020-03-22T05:45:00",
      "t_end": "2020-03-22T07:00:00",
      "link": ""
    },
    {
      "id": 105975,
      "lat": 32.076332155,
      "lon": 34.8398897370001,
      "label": "בית כנסת משכנות יעקב - בני ברק",
      "text": "",
      "stayTimes": "23:00 - 23:30",
      "t_start": "2020-03-23T21:00:00",
      "t_end": "2020-03-23T21:30:00",
      "link": ""
    },
    {
      "id": 105976,
      "lat": 32.0786915,
      "lon": 34.8367749000001,
      "label": "בית כנסת לדרמן - בני ברק",
      "text": "",
      "stayTimes": "16:15 - 17:00",
      "t_start": "2020-03-21T14:15:00",
      "t_end": "2020-03-21T15:00:00",
      "link": ""
    },
    {
      "id": 105977,
      "lat": 32.0786915,
      "lon": 34.8367749000001,
      "label": "בית כנסת לדרמן - בני ברק",
      "text": "",
      "stayTimes": "19:00 - 20:00",
      "t_start": "2020-03-21T17:00:00",
      "t_end": "2020-03-21T18:00:00",
      "link": ""
    },
    {
      "id": 105978,
      "lat": 32.0786915,
      "lon": 34.8367749000001,
      "label": "בית כנסת לדרמן למטה - בני ברק",
      "text": "",
      "stayTimes": "15:40 - 16:15",
      "t_start": "2020-03-22T13:40:00",
      "t_end": "2020-03-22T14:15:00",
      "link": ""
    },
    {
      "id": 105979,
      "lat": 32.0788157000001,
      "lon": 34.8400310000001,
      "label": "עזרא ואחווה - בני ברק",
      "text": "",
      "stayTimes": "16:30 - 17:30",
      "t_start": "2020-03-24T14:30:00",
      "t_end": "2020-03-24T15:30:00",
      "link": ""
    },
    {
      "id": 105980,
      "lat": 33.0327904000001,
      "lon": 35.1034588000001,
      "label": "סופרמרקט רמי לוי - נהריה",
      "text": "",
      "stayTimes": "21:00 - 20:00",
      "t_start": "2020-03-23T19:00:00",
      "t_end": "2020-03-23T18:00:00",
      "link": ""
    },
    {
      "id": 105981,
      "lat": 33.0735393000001,
      "lon": 35.138159,
      "label": "מרפאה כללית בצת - בצת",
      "text": "",
      "stayTimes": "08:00 - 16:00",
      "t_start": "2020-03-23T06:00:00",
      "t_end": "2020-03-23T14:00:00",
      "link": ""
    },
    {
      "id": 105982,
      "lat": 33.0728,
      "lon": 35.1430135000001,
      "label": "מרפאה כללית - שלומי",
      "text": "",
      "stayTimes": "10:00 - 10:30",
      "t_start": "2020-03-24T08:00:00",
      "t_end": "2020-03-24T08:30:00",
      "link": ""
    },
    {
      "id": 105983,
      "lat": 33.0741361190001,
      "lon": 35.142915181,
      "label": "קייטנת ילדים במתנס - שלומי",
      "text": "",
      "stayTimes": "08:00 - 08:30",
      "t_start": "2020-03-25T06:00:00",
      "t_end": "2020-03-25T06:30:00",
      "link": ""
    },
    {
      "id": 105984,
      "lat": 31.976393785,
      "lon": 34.8880033460001,
      "label": "מכולת המושב - זיתן",
      "text": "",
      "stayTimes": "08:00 - 08:30",
      "t_start": "2020-03-23T06:00:00",
      "t_end": "2020-03-23T06:30:00",
      "link": ""
    },
    {
      "id": 105985,
      "lat": 32.7885191,
      "lon": 35.528919,
      "label": "קבר רבי עקיבא - טבריה",
      "text": "",
      "stayTimes": "17:00 - 18:30",
      "t_start": "2020-03-23T15:00:00",
      "t_end": "2020-03-23T16:30:00",
      "link": ""
    },
    {
      "id": 105986,
      "lat": 32.0873548000001,
      "lon": 34.8289585000001,
      "label": "בית הכנסת הגדול - בני ברק",
      "text": "",
      "stayTimes": "09:00 - 10:00",
      "t_start": "2020-03-20T07:00:00",
      "t_end": "2020-03-20T08:00:00",
      "link": ""
    },
    {
      "id": 105987,
      "lat": 32.0873548000001,
      "lon": 34.8289585000001,
      "label": "בית הכנסת הגדול - בני ברק",
      "text": "",
      "stayTimes": "09:00 - 10:00",
      "t_start": "2020-03-22T07:00:00",
      "t_end": "2020-03-22T08:00:00",
      "link": ""
    },
    {
      "id": 105988,
      "lat": 32.0873548000001,
      "lon": 34.8289585000001,
      "label": "בית הכנסת הגדול - בני ברק",
      "text": "",
      "stayTimes": "13:00 - 14:00",
      "t_start": "2020-03-22T11:00:00",
      "t_end": "2020-03-22T12:00:00",
      "link": ""
    },
    {
      "id": 105989,
      "lat": 32.0876928000001,
      "lon": 34.8299212000001,
      "label": "בית הכנסת ברסלב - בני ברק",
      "text": "",
      "stayTimes": "07:00 - 10:00",
      "t_start": "2020-03-21T05:00:00",
      "t_end": "2020-03-21T08:00:00",
      "link": ""
    },
    {
      "id": 105990,
      "lat": 32.07547558,
      "lon": 34.829339743,
      "label": "לובי בבניין בו גר החולה - רמת גן",
      "text": "",
      "stayTimes": "17:30 - 18:30",
      "t_start": "2020-03-20T15:30:00",
      "t_end": "2020-03-20T16:30:00",
      "link": ""
    },
    {
      "id": 105991,
      "lat": 32.0812328430001,
      "lon": 34.834273807,
      "label": "בית כנסת ברסלב - בני ברק",
      "text": "",
      "stayTimes": "07:00 - 10:00",
      "t_start": "2020-03-21T05:00:00",
      "t_end": "2020-03-21T08:00:00",
      "link": ""
    },
    {
      "id": 105992,
      "lat": 32.086001298,
      "lon": 34.8315190370001,
      "label": "מעיין 2000 - בני ברק",
      "text": "",
      "stayTimes": "14:00 - 14:30",
      "t_start": "2020-03-21T12:00:00",
      "t_end": "2020-03-21T12:30:00",
      "link": ""
    },
    {
      "id": 105993,
      "lat": 32.0877748940001,
      "lon": 34.8274596640001,
      "label": "בית הכנסת מתיבתא - בני ברק",
      "text": "",
      "stayTimes": "08:30 - 09:30",
      "t_start": "2020-03-22T06:30:00",
      "t_end": "2020-03-22T07:30:00",
      "link": ""
    },
    {
      "id": 105994,
      "lat": 32.0257730000001,
      "lon": 34.90142,
      "label": "שופרסל - יהוד",
      "text": "",
      "stayTimes": "13:15 - 14:15",
      "t_start": "2020-03-27T11:15:00",
      "t_end": "2020-03-27T12:15:00",
      "link": ""
    },
    {
      "id": 105995,
      "lat": 31.7955842970001,
      "lon": 35.2159024330001,
      "label": "בית כנסת \"סערטויניץ\" - ירושלים",
      "text": "",
      "stayTimes": "17:20 - 18:15",
      "t_start": "2020-03-20T15:20:00",
      "t_end": "2020-03-20T16:15:00",
      "link": ""
    },
    {
      "id": 105996,
      "lat": 31.7923327500001,
      "lon": 35.2163743310001,
      "label": "מקווה ויזניץ - ירושלים",
      "text": "",
      "stayTimes": "07:15 - 07:30",
      "t_start": "2020-03-20T05:15:00",
      "t_end": "2020-03-20T05:30:00",
      "link": ""
    },
    {
      "id": 105997,
      "lat": 31.7955853,
      "lon": 35.2159022000001,
      "label": "בית כנסת ויזניץ - ירושלים",
      "text": "",
      "stayTimes": "07:30 - 09:30",
      "t_start": "2020-03-20T05:30:00",
      "t_end": "2020-03-20T07:30:00",
      "link": ""
    },
    {
      "id": 105998,
      "lat": 31.777853142,
      "lon": 34.6363561410001,
      "label": "קיוסק בכיכר מגי'ק - אשדוד",
      "text": "",
      "stayTimes": "20:00 - 20:30",
      "t_start": "2020-03-24T18:00:00",
      "t_end": "2020-03-24T18:30:00",
      "link": ""
    },
    {
      "id": 105999,
      "lat": 31.7775212170001,
      "lon": 34.636722267,
      "label": "רמי לוי בשכונה - אשדוד",
      "text": "",
      "stayTimes": "20:15 - 20:40",
      "t_start": "2020-03-24T18:15:00",
      "t_end": "2020-03-24T18:40:00",
      "link": ""
    },
    {
      "id": 106000,
      "lat": 31.7234749420001,
      "lon": 35.2221406150001,
      "label": "בית כנסת ישמח משה - ירושלים",
      "text": "",
      "stayTimes": "17:40 - 18:40",
      "t_start": "2020-03-20T15:40:00",
      "t_end": "2020-03-20T16:40:00",
      "link": ""
    },
    {
      "id": 106001,
      "lat": 32.086106074,
      "lon": 34.8300113760001,
      "label": "בית הכנסת מתיבתא - בני ברק",
      "text": "",
      "stayTimes": "09:00 - 10:30",
      "t_start": "2020-03-22T07:00:00",
      "t_end": "2020-03-22T08:30:00",
      "link": ""
    },
    {
      "id": 106002,
      "lat": 32.0833752,
      "lon": 34.8296135000001,
      "label": "בית הכנסת תפארת ציון - בני ברק",
      "text": "",
      "stayTimes": "13:00 - 14:00",
      "t_start": "2020-03-22T11:00:00",
      "t_end": "2020-03-22T12:00:00",
      "link": ""
    },
    {
      "id": 106003,
      "lat": 32.0873548000001,
      "lon": 34.8289585000001,
      "label": "בית הכנסת הגדול - בני ברק",
      "text": "",
      "stayTimes": "13:00 - 14:00",
      "t_start": "2020-03-23T11:00:00",
      "t_end": "2020-03-23T12:00:00",
      "link": ""
    },
    {
      "id": 106004,
      "lat": 32.0873548000001,
      "lon": 34.8289585000001,
      "label": "בית הכנסת הגדול - בני ברק",
      "text": "",
      "stayTimes": "09:00 - 11:00",
      "t_start": "2020-03-23T07:00:00",
      "t_end": "2020-03-23T09:00:00",
      "link": ""
    },
    {
      "id": 106005,
      "lat": 32.0873548000001,
      "lon": 34.8289585000001,
      "label": "בית הכנסת הגדול - בני ברק",
      "text": "",
      "stayTimes": "21:00 - 22:00",
      "t_start": "2020-03-23T19:00:00",
      "t_end": "2020-03-23T20:00:00",
      "link": ""
    },
    {
      "id": 106006,
      "lat": 32.0818576,
      "lon": 34.8337900000001,
      "label": "בית הכנסת חיסדא - בני ברק",
      "text": "",
      "stayTimes": "12:30 - 13:00",
      "t_start": "2020-03-21T10:30:00",
      "t_end": "2020-03-21T11:00:00",
      "link": ""
    },
    {
      "id": 106007,
      "lat": 32.0818576,
      "lon": 34.8337900000001,
      "label": "בית הכנסת חיסדא - בני ברק",
      "text": "",
      "stayTimes": "20:00 - 21:00",
      "t_start": "2020-03-21T18:00:00",
      "t_end": "2020-03-21T19:00:00",
      "link": ""
    },
    {
      "id": 106008,
      "lat": 32.083106485,
      "lon": 34.8395137370001,
      "label": "בית כנסת בבית הספר באר מרים - בני ברק",
      "text": "",
      "stayTimes": "08:30 - 11:30",
      "t_start": "2020-03-21T06:30:00",
      "t_end": "2020-03-21T09:30:00",
      "link": ""
    },
    {
      "id": 106009,
      "lat": 32.0873548000001,
      "lon": 34.8289585000001,
      "label": "בית הכנסת הגדול - בני ברק",
      "text": "",
      "stayTimes": "09:00 - 10:00",
      "t_start": "2020-03-20T07:00:00",
      "t_end": "2020-03-20T08:00:00",
      "link": ""
    },
    {
      "id": 106010,
      "lat": 31.7923395890001,
      "lon": 35.2162661450001,
      "label": "מקווה \"ויגניץ\" - ירושלים",
      "text": "",
      "stayTimes": "08:20 - 08:30",
      "t_start": "2020-03-22T06:20:00",
      "t_end": "2020-03-22T06:30:00",
      "link": ""
    },
    {
      "id": 106011,
      "lat": 31.7923742890001,
      "lon": 35.2162616160001,
      "label": "בית כנסת \"ויזניץ\" - ירושלים",
      "text": "",
      "stayTimes": "07:30 - 09:30",
      "t_start": "2020-03-22T05:30:00",
      "t_end": "2020-03-22T07:30:00",
      "link": ""
    },
    {
      "id": 106012,
      "lat": 32.0876430000001,
      "lon": 34.8296700000001,
      "label": "חוג חתם סופר - בני ברק",
      "text": "",
      "stayTimes": "08:00 - 10:00",
      "t_start": "2020-03-22T06:00:00",
      "t_end": "2020-03-22T08:00:00",
      "link": ""
    },
    {
      "id": 106013,
      "lat": 32.066183181,
      "lon": 34.7924624070001,
      "label": "משרד עו\"ד שוב דוד - תל אביב - יפו",
      "text": "",
      "stayTimes": "09:00 - 17:00",
      "t_start": "2020-03-22T07:00:00",
      "t_end": "2020-03-22T15:00:00",
      "link": ""
    },
    {
      "id": 106014,
      "lat": 31.666529,
      "lon": 34.5816350000001,
      "label": "בית כנסת \"משכן אביחי\" - אשקלון",
      "text": "",
      "stayTimes": "05:30 - 06:30",
      "t_start": "2020-03-20T03:30:00",
      "t_end": "2020-03-20T04:30:00",
      "link": ""
    },
    {
      "id": 106015,
      "lat": 32.086117895,
      "lon": 34.8299881340001,
      "label": "מתיבתא - בני ברק",
      "text": "",
      "stayTimes": "09:00 - 10:00",
      "t_start": "2020-03-23T07:00:00",
      "t_end": "2020-03-23T08:00:00",
      "link": ""
    },
    {
      "id": 106016,
      "lat": 31.9645469370001,
      "lon": 34.7928522510001,
      "label": "בנק מרכנטיל - ראשון לציון",
      "text": "",
      "stayTimes": "12:00 - 13:00",
      "t_start": "2020-03-24T10:00:00",
      "t_end": "2020-03-24T11:00:00",
      "link": ""
    },
    {
      "id": 106017,
      "lat": 32.031392522,
      "lon": 34.8554434000001,
      "label": "סופר סיטי נווה סביון - אור יהודה",
      "text": "",
      "stayTimes": "19:00 - 19:30",
      "t_start": "2020-03-24T17:00:00",
      "t_end": "2020-03-24T17:30:00",
      "link": ""
    },
    {
      "id": 106018,
      "lat": 32.031362458,
      "lon": 34.855545363,
      "label": "מאפיית מן הארץ - אור יהודה",
      "text": "",
      "stayTimes": "11:00 - 11:30",
      "t_start": "2020-03-25T09:00:00",
      "t_end": "2020-03-25T09:30:00",
      "link": ""
    },
    {
      "id": 106019,
      "lat": 32.031388733,
      "lon": 34.85544191,
      "label": "סופר סיטי נווה סביון - אור יהודה",
      "text": "",
      "stayTimes": "16:00 - 16:30",
      "t_start": "2020-03-27T14:00:00",
      "t_end": "2020-03-27T14:30:00",
      "link": ""
    },
    {
      "id": 106020,
      "lat": 32.8303148000001,
      "lon": 34.9774800000001,
      "label": "תחנת דלק אלדור חיפה - חיפה",
      "text": "",
      "stayTimes": "08:00 - 08:00",
      "t_start": "2020-03-23T06:00:00",
      "t_end": "2020-03-23T06:00:00",
      "link": ""
    },
    {
      "id": 106021,
      "lat": 32.7879442,
      "lon": 35.041954882,
      "label": "תחנת דלק חרמש חיפה - חיפה",
      "text": "",
      "stayTimes": "08:00 - 08:00",
      "t_start": "2020-03-23T06:00:00",
      "t_end": "2020-03-23T06:00:00",
      "link": ""
    },
    {
      "id": 106022,
      "lat": 32.8085851390001,
      "lon": 35.0243334580001,
      "label": "תחנת דלק הקישון - חיפה",
      "text": "",
      "stayTimes": "08:00 - 08:00",
      "t_start": "2020-03-23T06:00:00",
      "t_end": "2020-03-23T06:00:00",
      "link": ""
    },
    {
      "id": 106023,
      "lat": 32.8126773440001,
      "lon": 35.071222817,
      "label": "תחנת דלק המפרץ - חיפה",
      "text": "",
      "stayTimes": "08:00 - 08:00",
      "t_start": "2020-03-22T06:00:00",
      "t_end": "2020-03-22T06:00:00",
      "link": ""
    },
    {
      "id": 106024,
      "lat": 31.682503341,
      "lon": 34.5716398060001,
      "label": "מרפאה כללית ברנע - אשקלון",
      "text": "",
      "stayTimes": "08:00 - 08:00",
      "t_start": "2020-03-22T06:00:00",
      "t_end": "2020-03-22T06:00:00",
      "link": ""
    },
    {
      "id": 106025,
      "lat": 31.691771379,
      "lon": 34.5819073280001,
      "label": "בית מגורים - אשקלון",
      "text": "",
      "stayTimes": "08:00 - 08:00",
      "t_start": "2020-03-23T06:00:00",
      "t_end": "2020-03-23T06:00:00",
      "link": ""
    },
    {
      "id": 106026,
      "lat": 32.0694707330001,
      "lon": 34.7795962880001,
      "label": "בית הכנסת חיי שלום - תל אביב - יפו",
      "text": "",
      "stayTimes": "10:00 - 11:00",
      "t_start": "2020-03-21T08:00:00",
      "t_end": "2020-03-21T09:00:00",
      "link": ""
    },
    {
      "id": 106027,
      "lat": 31.6641894000001,
      "lon": 34.5632752000001,
      "label": "סניף ויקטורי ליד בית משפט - אשקלון",
      "text": "",
      "stayTimes": "16:30 - 17:00",
      "t_start": "2020-03-23T14:30:00",
      "t_end": "2020-03-23T15:00:00",
      "link": ""
    },
    {
      "id": 106028,
      "lat": 31.6622785000001,
      "lon": 34.5592871000001,
      "label": "מחלקת משאבי אנוש בית חולים ברזילי - אשקלון",
      "text": "",
      "stayTimes": "15:00 - 17:00",
      "t_start": "2020-03-25T13:00:00",
      "t_end": "2020-03-25T15:00:00",
      "link": ""
    },
    {
      "id": 106029,
      "lat": 31.6622785000001,
      "lon": 34.5592871000001,
      "label": "מכון MRI  בית חולים ברזילי - אשקלון",
      "text": "",
      "stayTimes": "15:00 - 17:00",
      "t_start": "2020-03-25T13:00:00",
      "t_end": "2020-03-25T15:00:00",
      "link": ""
    },
    {
      "id": 106030,
      "lat": 32.0911698900001,
      "lon": 34.834619821,
      "label": "לוקווע - בני ברק",
      "text": "",
      "stayTimes": "18:40 - 19:00",
      "t_start": "2020-03-22T16:40:00",
      "t_end": "2020-03-22T17:00:00",
      "link": ""
    },
    {
      "id": 106031,
      "lat": 32.0911628000001,
      "lon": 34.834622,
      "label": "בית כנסת לוקווע - בני ברק",
      "text": "",
      "stayTimes": "06:10 - 07:10",
      "t_start": "2020-03-22T04:10:00",
      "t_end": "2020-03-22T05:10:00",
      "link": ""
    },
    {
      "id": 106032,
      "lat": 32.0856778,
      "lon": 34.8242087,
      "label": "בית כנסת אוהל אברהם צייטלין - בני ברק",
      "text": "",
      "stayTimes": "17:00 - 17:30",
      "t_start": "2020-03-22T15:00:00",
      "t_end": "2020-03-22T15:30:00",
      "link": ""
    },
    {
      "id": 106033,
      "lat": 32.0827834,
      "lon": 34.8426542,
      "label": "צרכניה אחיעזר - בני ברק",
      "text": "",
      "stayTimes": "18:40 - 20:00",
      "t_start": "2020-03-25T16:40:00",
      "t_end": "2020-03-25T18:00:00",
      "link": ""
    },
    {
      "id": 106034,
      "lat": 32.0821021,
      "lon": 34.8325449000001,
      "label": "בית כנסת  אהבת חסד - בני ברק",
      "text": "",
      "stayTimes": "14:00 - 14:30",
      "t_start": "2020-03-20T12:00:00",
      "t_end": "2020-03-20T12:30:00",
      "link": ""
    },
    {
      "id": 106035,
      "lat": 31.6561888000001,
      "lon": 34.5878943000001,
      "label": "סיטונאות רחמים - אשקלון",
      "text": "",
      "stayTimes": "08:00 - 10:00",
      "t_start": "2020-03-20T06:00:00",
      "t_end": "2020-03-20T08:00:00",
      "link": ""
    },
    {
      "id": 106036,
      "lat": 31.6640608000001,
      "lon": 34.6002740000001,
      "label": "מעדני גוליה - אשקלון",
      "text": "",
      "stayTimes": "10:00 - 11:00",
      "t_start": "2020-03-20T08:00:00",
      "t_end": "2020-03-20T09:00:00",
      "link": ""
    },
    {
      "id": 106037,
      "lat": 31.66159608,
      "lon": 34.5990634880001,
      "label": "מפעל גדילות \"ארין\" - אשקלון",
      "text": "",
      "stayTimes": "11:00 - 11:30",
      "t_start": "2020-03-20T09:00:00",
      "t_end": "2020-03-20T09:30:00",
      "link": ""
    },
    {
      "id": 106038,
      "lat": 31.6693889100001,
      "lon": 34.581119378,
      "label": "מחסני אלקטריק - אשקלון",
      "text": "",
      "stayTimes": "13:30 - 14:00",
      "t_start": "2020-03-20T11:30:00",
      "t_end": "2020-03-20T12:00:00",
      "link": ""
    },
    {
      "id": 106039,
      "lat": 32.0859852,
      "lon": 34.8355715000001,
      "label": "בית כנסת איצקוביץ - בני ברק",
      "text": "",
      "stayTimes": "15:00 - 15:15",
      "t_start": "2020-03-22T13:00:00",
      "t_end": "2020-03-22T13:15:00",
      "link": ""
    },
    {
      "id": 106040,
      "lat": 32.0873548000001,
      "lon": 34.8289585000001,
      "label": "בית הכנסת הגדול - בני ברק",
      "text": "",
      "stayTimes": "08:00 - 09:00",
      "t_start": "2020-03-22T06:00:00",
      "t_end": "2020-03-22T07:00:00",
      "link": ""
    },
    {
      "id": 106041,
      "lat": 32.0777296000001,
      "lon": 34.9062192000001,
      "label": "\"היפר מור\"- סופר מרקט - פתח תקווה",
      "text": "",
      "stayTimes": "14:00 - 15:00",
      "t_start": "2020-03-22T12:00:00",
      "t_end": "2020-03-22T13:00:00",
      "link": ""
    },
    {
      "id": 106042,
      "lat": 32.0819701,
      "lon": 34.8409268,
      "label": "א.א אורטופדיה - בני ברק",
      "text": "",
      "stayTimes": "12:00 - 13:00",
      "t_start": "2020-03-23T10:00:00",
      "t_end": "2020-03-23T11:00:00",
      "link": ""
    },
    {
      "id": 106043,
      "lat": 31.245803772,
      "lon": 34.7769873840001,
      "label": "קופת חולים כללית ט - באר שבע",
      "text": "",
      "stayTimes": "10:30 - 11:00",
      "t_start": "2020-03-27T08:30:00",
      "t_end": "2020-03-27T09:00:00",
      "link": ""
    },
    {
      "id": 106044,
      "lat": 31.2133285,
      "lon": 34.8110283820001,
      "label": "סופר \"אושר עד\" - באר שבע",
      "text": "",
      "stayTimes": "17:00 - 18:30",
      "t_start": "2020-03-23T15:00:00",
      "t_end": "2020-03-23T16:30:00",
      "link": ""
    },
    {
      "id": 106045,
      "lat": 32.0244638,
      "lon": 34.8705627000001,
      "label": "סופר פארם נוה רבין - אור יהודה",
      "text": "",
      "stayTimes": "21:00 - 22:00",
      "t_start": "2020-03-21T19:00:00",
      "t_end": "2020-03-21T20:00:00",
      "link": ""
    },
    {
      "id": 106046,
      "lat": 32.0258672000001,
      "lon": 34.8593382,
      "label": "סופרמרקט \"יש\" - אור יהודה",
      "text": "",
      "stayTimes": "17:00 - 17:30",
      "t_start": "2020-03-22T15:00:00",
      "t_end": "2020-03-22T15:30:00",
      "link": ""
    },
    {
      "id": 106047,
      "lat": 32.0784483,
      "lon": 34.8394218,
      "label": "בית אבות והדרת פני זקן - בני ברק",
      "text": "",
      "stayTimes": "08:00 - 12:00",
      "t_start": "2020-03-27T06:00:00",
      "t_end": "2020-03-27T10:00:00",
      "link": ""
    },
    {
      "id": 106048,
      "lat": 32.0784483,
      "lon": 34.8394218,
      "label": "בית אבות והדרת פני זקן - בני ברק",
      "text": "",
      "stayTimes": "08:00 - 12:00",
      "t_start": "2020-03-25T06:00:00",
      "t_end": "2020-03-25T10:00:00",
      "link": ""
    },
    {
      "id": 106049,
      "lat": 32.0784483,
      "lon": 34.8394218,
      "label": "בית אבות והדרת פני זקן - בני ברק",
      "text": "",
      "stayTimes": "08:00 - 12:00",
      "t_start": "2020-03-26T06:00:00",
      "t_end": "2020-03-26T10:00:00",
      "link": ""
    },
    {
      "id": 106050,
      "lat": 32.0784483,
      "lon": 34.8394218,
      "label": "בית אבות והדרת פני זקן - בני ברק",
      "text": "",
      "stayTimes": "08:00 - 12:00",
      "t_start": "2020-03-22T06:00:00",
      "t_end": "2020-03-22T10:00:00",
      "link": ""
    },
    {
      "id": 106051,
      "lat": 32.0784483,
      "lon": 34.8394218,
      "label": "בת אבות והדרת פני זקן - בני ברק",
      "text": "",
      "stayTimes": "08:00 - 12:00",
      "t_start": "2020-03-23T06:00:00",
      "t_end": "2020-03-23T10:00:00",
      "link": ""
    },
    {
      "id": 106052,
      "lat": 32.3187235,
      "lon": 34.9340612,
      "label": "חבוש - כפר יונה",
      "text": "",
      "stayTimes": "11:15 - 11:30",
      "t_start": "2020-03-25T09:15:00",
      "t_end": "2020-03-25T09:30:00",
      "link": ""
    },
    {
      "id": 106053,
      "lat": 32.318136183,
      "lon": 34.9344362570001,
      "label": "סופר מגה - כפר יונה",
      "text": "",
      "stayTimes": "11:00 - 11:15",
      "t_start": "2020-03-25T09:00:00",
      "t_end": "2020-03-25T09:15:00",
      "link": ""
    },
    {
      "id": 106054,
      "lat": 32.0859908,
      "lon": 34.8313016000001,
      "label": "מקסיגו - בני ברק",
      "text": "",
      "stayTimes": "20:30 - 21:00",
      "t_start": "2020-03-23T18:30:00",
      "t_end": "2020-03-23T19:00:00",
      "link": ""
    },
    {
      "id": 106055,
      "lat": 32.0972669000001,
      "lon": 34.8379174,
      "label": "בית כנסת זיו יהודה - בני ברק",
      "text": "",
      "stayTimes": "07:10 - 21:00",
      "t_start": "2020-03-23T05:10:00",
      "t_end": "2020-03-23T19:00:00",
      "link": ""
    },
    {
      "id": 106056,
      "lat": 33.0180438,
      "lon": 35.2694409000001,
      "label": "סופר דאבח - אזור תעשיה - מעלות-תרשיחא",
      "text": "",
      "stayTimes": "11:00 - 12:00",
      "t_start": "2020-03-21T09:00:00",
      "t_end": "2020-03-21T10:00:00",
      "link": ""
    },
    {
      "id": 106057,
      "lat": 31.714391,
      "lon": 34.989566,
      "label": "בית כנסת לב אליהו - בית שמש",
      "text": "",
      "stayTimes": "09:30 - 10:30",
      "t_start": "2020-03-21T07:30:00",
      "t_end": "2020-03-21T08:30:00",
      "link": ""
    },
    {
      "id": 106058,
      "lat": 31.7151104000001,
      "lon": 34.9910768,
      "label": "בית כנסת ברכת אליהו - בית שמש",
      "text": "",
      "stayTimes": "18:30 - 19:00",
      "t_start": "2020-03-20T16:30:00",
      "t_end": "2020-03-20T17:00:00",
      "link": ""
    },
    {
      "id": 106059,
      "lat": 32.0279776880001,
      "lon": 34.8647664000001,
      "label": "קופ\"ח כללית- מרפאת גיורא - אור יהודה",
      "text": "",
      "stayTimes": "16:00 - 16:30",
      "t_start": "2020-03-24T14:00:00",
      "t_end": "2020-03-24T14:30:00",
      "link": ""
    },
    {
      "id": 106060,
      "lat": 31.786169928,
      "lon": 35.173770303,
      "label": "קופ\"ח לאומית - ירושלים",
      "text": "",
      "stayTimes": "09:15 - 11:00",
      "t_start": "2020-03-20T07:15:00",
      "t_end": "2020-03-20T09:00:00",
      "link": ""
    },
    {
      "id": 106061,
      "lat": 32.0850599,
      "lon": 34.8336433000001,
      "label": "בית כנסת \"דברי שלום\" - בני ברק",
      "text": "",
      "stayTimes": "08:30 - 11:00",
      "t_start": "2020-03-21T06:30:00",
      "t_end": "2020-03-21T09:00:00",
      "link": ""
    },
    {
      "id": 106062,
      "lat": 32.0275752000001,
      "lon": 34.8633736,
      "label": "בית הכנסת שערי רחמים - אור יהודה",
      "text": "",
      "stayTimes": "20:00 - 21:30",
      "t_start": "2020-03-21T18:00:00",
      "t_end": "2020-03-21T19:30:00",
      "link": ""
    },
    {
      "id": 106063,
      "lat": 32.0746139,
      "lon": 34.8400729000001,
      "label": "בית הכנסת \"כסא רחמים\" - אור יהודה",
      "text": "",
      "stayTimes": "08:30 - 10:30",
      "t_start": "2020-03-21T06:30:00",
      "t_end": "2020-03-21T08:30:00",
      "link": ""
    },
    {
      "id": 106064,
      "lat": 32.0989103090001,
      "lon": 34.829733628,
      "label": "אושר עד בני ברק - בני ברק",
      "text": "",
      "stayTimes": "19:00 - 20:00",
      "t_start": "2020-03-24T17:00:00",
      "t_end": "2020-03-24T18:00:00",
      "link": ""
    },
    {
      "id": 106065,
      "lat": 32.0860237000001,
      "lon": 34.8303992,
      "label": "מרפאת מכבי - בני ברק",
      "text": "",
      "stayTimes": "11:00 - 12:00",
      "t_start": "2020-03-24T09:00:00",
      "t_end": "2020-03-24T10:00:00",
      "link": ""
    },
    {
      "id": 106066,
      "lat": 32.0873548000001,
      "lon": 34.8289585000001,
      "label": "בית כנסת הגדול - בני ברק",
      "text": "",
      "stayTimes": "05:05 - 07:00",
      "t_start": "2020-03-21T03:05:00",
      "t_end": "2020-03-21T05:00:00",
      "link": ""
    },
    {
      "id": 106067,
      "lat": 32.0873548000001,
      "lon": 34.8289585000001,
      "label": "בית כנסת הגדול - בני ברק",
      "text": "",
      "stayTimes": "16:45 - 17:20",
      "t_start": "2020-03-21T14:45:00",
      "t_end": "2020-03-21T15:20:00",
      "link": ""
    },
    {
      "id": 106068,
      "lat": 32.0862991000001,
      "lon": 34.8348894000001,
      "label": "נתיב החסד - בני ברק",
      "text": "",
      "stayTimes": "13:30 - 14:00",
      "t_start": "2020-03-20T11:30:00",
      "t_end": "2020-03-20T12:00:00",
      "link": ""
    },
    {
      "id": 106069,
      "lat": 32.0873548000001,
      "lon": 34.8289585000001,
      "label": "בית כנסת הגדול - בני ברק",
      "text": "",
      "stayTimes": "13:00 - 13:30",
      "t_start": "2020-03-20T11:00:00",
      "t_end": "2020-03-20T11:30:00",
      "link": ""
    },
    {
      "id": 106070,
      "lat": 32.027943921,
      "lon": 34.8646902040001,
      "label": "קופת חולים כללית - אור יהודה",
      "text": "",
      "stayTimes": "09:30 - 11:00",
      "t_start": "2020-03-24T07:30:00",
      "t_end": "2020-03-24T09:00:00",
      "link": ""
    },
    {
      "id": 106071,
      "lat": 32.7853938850001,
      "lon": 35.4985358280001,
      "label": "סופר- פארם - טבריה",
      "text": "",
      "stayTimes": "11:00 - 11:05",
      "t_start": "2020-03-24T09:00:00",
      "t_end": "2020-03-24T09:05:00",
      "link": ""
    },
    {
      "id": 106072,
      "lat": 32.0784483,
      "lon": 34.8394218,
      "label": "בית אבות \"והדרת פני זקן\" - בני ברק",
      "text": "",
      "stayTimes": "07:00 - 12:00",
      "t_start": "2020-03-23T05:00:00",
      "t_end": "2020-03-23T10:00:00",
      "link": ""
    },
    {
      "id": 106073,
      "lat": 32.0244638,
      "lon": 34.8705627000001,
      "label": "סופרפארם נוה רבין - אור יהודה",
      "text": "",
      "stayTimes": "21:00 - 22:00",
      "t_start": "2020-03-21T19:00:00",
      "t_end": "2020-03-21T20:00:00",
      "link": ""
    },
    {
      "id": 106074,
      "lat": 31.665727996,
      "lon": 34.5626868250001,
      "label": "קונדטוריה לה טורט - אשקלון",
      "text": "",
      "stayTimes": "10:30 - 10:45",
      "t_start": "2020-03-20T08:30:00",
      "t_end": "2020-03-20T08:45:00",
      "link": ""
    },
    {
      "id": 106075,
      "lat": 31.6699529840001,
      "lon": 34.5690912330001,
      "label": "חצר בנין מגורים דב ברייר 1 - אשקלון",
      "text": "",
      "stayTimes": "17:40 - 18:30",
      "t_start": "2020-03-20T15:40:00",
      "t_end": "2020-03-20T16:30:00",
      "link": ""
    },
    {
      "id": 106076,
      "lat": 31.6675239,
      "lon": 34.5689428000001,
      "label": "סופר שוק העיר האקדמיה - אשקלון",
      "text": "",
      "stayTimes": "17:15 - 18:00",
      "t_start": "2020-03-22T15:15:00",
      "t_end": "2020-03-22T16:00:00",
      "link": ""
    },
    {
      "id": 106077,
      "lat": 31.6680199470001,
      "lon": 34.5827644820001,
      "label": "סופר שופרסל דיל - אשקלון",
      "text": "",
      "stayTimes": "12:30 - 13:10",
      "t_start": "2020-03-20T10:30:00",
      "t_end": "2020-03-20T11:10:00",
      "link": ""
    },
    {
      "id": 106078,
      "lat": 31.6682664000001,
      "lon": 34.6023671,
      "label": "סופר יינות ביתן- אזה\"ת - אשקלון",
      "text": "",
      "stayTimes": "17:00 - 19:00",
      "t_start": "2020-03-23T15:00:00",
      "t_end": "2020-03-23T17:00:00",
      "link": ""
    },
    {
      "id": 106079,
      "lat": 31.6583656,
      "lon": 34.5650019,
      "label": "ביהכ\"נ ע\"ש קורבנות השואה עתיקות - אשקלון",
      "text": "",
      "stayTimes": "08:40 - 10:45",
      "t_start": "2020-03-21T06:40:00",
      "t_end": "2020-03-21T08:45:00",
      "link": ""
    },
    {
      "id": 106080,
      "lat": 31.6622785000001,
      "lon": 34.5592871000001,
      "label": "יחידת המחשוב בי\"ח ברזילי - אשקלון",
      "text": "",
      "stayTimes": "08:00 - 17:00",
      "t_start": "2020-03-24T06:00:00",
      "t_end": "2020-03-24T15:00:00",
      "link": ""
    },
    {
      "id": 106081,
      "lat": 31.6622785000001,
      "lon": 34.5592871000001,
      "label": "יחידת המחשוב בי\"ח ברזילי - אשקלון",
      "text": "",
      "stayTimes": "08:10 - 17:00",
      "t_start": "2020-03-22T06:10:00",
      "t_end": "2020-03-22T15:00:00",
      "link": ""
    },
    {
      "id": 106082,
      "lat": 31.6622785000001,
      "lon": 34.5592871000001,
      "label": "יחידת המחשוב בי\"ח ברזילי - אשקלון",
      "text": "",
      "stayTimes": "08:00 - 17:00",
      "t_start": "2020-03-23T06:00:00",
      "t_end": "2020-03-23T15:00:00",
      "link": ""
    },
    {
      "id": 106083,
      "lat": 32.3289153000001,
      "lon": 34.8594580000001,
      "label": "שוק נתניה - נתניה",
      "text": "",
      "stayTimes": "13:00 - 13:30",
      "t_start": "2020-03-20T11:00:00",
      "t_end": "2020-03-20T11:30:00",
      "link": ""
    },
    {
      "id": 106084,
      "lat": 31.261171194,
      "lon": 34.796580996,
      "label": "מכולת של רחל - באר שבע",
      "text": "",
      "stayTimes": "20:00 - 20:10",
      "t_start": "2020-03-22T18:00:00",
      "t_end": "2020-03-22T18:10:00",
      "link": ""
    },
    {
      "id": 106085,
      "lat": 31.662064049,
      "lon": 34.5949142640001,
      "label": "רמי לוי צפון - אשקלון",
      "text": "",
      "stayTimes": "11:00 - 12:00",
      "t_start": "2020-03-23T09:00:00",
      "t_end": "2020-03-23T10:00:00",
      "link": ""
    },
    {
      "id": 106086,
      "lat": 31.6619693000001,
      "lon": 34.55967,
      "label": "מיון ברזילי - אשקלון",
      "text": "",
      "stayTimes": "14:30 - 17:00",
      "t_start": "2020-03-27T12:30:00",
      "t_end": "2020-03-27T15:00:00",
      "link": ""
    },
    {
      "id": 106087,
      "lat": 31.6663264000001,
      "lon": 34.5961589,
      "label": "מוסך האחים - אשקלון",
      "text": "",
      "stayTimes": "08:00 - 15:00",
      "t_start": "2020-03-22T06:00:00",
      "t_end": "2020-03-22T13:00:00",
      "link": ""
    },
    {
      "id": 106088,
      "lat": 31.6663264000001,
      "lon": 34.5961589,
      "label": "מוסך האחים - אשקלון",
      "text": "",
      "stayTimes": "08:00 - 15:00",
      "t_start": "2020-03-23T06:00:00",
      "t_end": "2020-03-23T13:00:00",
      "link": ""
    },
    {
      "id": 106089,
      "lat": 32.0279570000001,
      "lon": 34.864768,
      "label": "קופת חולים כללית גיורא - אור יהודה",
      "text": "",
      "stayTimes": "09:30 - 11:00",
      "t_start": "2020-03-23T07:30:00",
      "t_end": "2020-03-23T09:00:00",
      "link": ""
    },
    {
      "id": 106090,
      "lat": 30.6111034,
      "lon": 34.7986178,
      "label": "מכולת \"הסלסלה\" - מצפה רמון",
      "text": "",
      "stayTimes": "12:00 - 13:00",
      "t_start": "2020-03-26T10:00:00",
      "t_end": "2020-03-26T11:00:00",
      "link": ""
    },
    {
      "id": 106091,
      "lat": 31.8111825,
      "lon": 35.2197587000001,
      "label": "קופת חולים כללית - ירושלים",
      "text": "",
      "stayTimes": "09:00 - 12:00",
      "t_start": "2020-03-25T07:00:00",
      "t_end": "2020-03-25T10:00:00",
      "link": ""
    },
    {
      "id": 106092,
      "lat": 31.8122742190001,
      "lon": 35.1952146290001,
      "label": "זול ובגדול קניון רמות. - ירושלים",
      "text": "",
      "stayTimes": "10:00 - 11:00",
      "t_start": "2020-03-26T08:00:00",
      "t_end": "2020-03-26T09:00:00",
      "link": ""
    },
    {
      "id": 106093,
      "lat": 31.7990571390001,
      "lon": 35.2062507960001,
      "label": "פנמיה קרית הילד - ירושלים",
      "text": "",
      "stayTimes": "09:00 - 15:00",
      "t_start": "2020-03-24T07:00:00",
      "t_end": "2020-03-24T13:00:00",
      "link": ""
    },
    {
      "id": 106094,
      "lat": 32.6109683,
      "lon": 35.2879797000001,
      "label": "חנות שבו - עפולה",
      "text": "",
      "stayTimes": "18:30 - 18:45",
      "t_start": "2020-03-22T16:30:00",
      "t_end": "2020-03-22T16:45:00",
      "link": ""
    },
    {
      "id": 106095,
      "lat": 32.6109683,
      "lon": 35.2879797000001,
      "label": "חנות שבו - עפולה",
      "text": "",
      "stayTimes": "18:30 - 18:45",
      "t_start": "2020-03-22T16:30:00",
      "t_end": "2020-03-22T16:45:00",
      "link": ""
    },
    {
      "id": 106096,
      "lat": 32.6109683,
      "lon": 35.2879797000001,
      "label": "חנות שבו - עפולה",
      "text": "",
      "stayTimes": "18:30 - 18:45",
      "t_start": "2020-03-22T16:30:00",
      "t_end": "2020-03-22T16:45:00",
      "link": ""
    },
    {
      "id": 106097,
      "lat": 32.6109683,
      "lon": 35.2879797000001,
      "label": "חנות שבו - עפולה",
      "text": "",
      "stayTimes": "18:30 - 18:45",
      "t_start": "2020-03-22T16:30:00",
      "t_end": "2020-03-15T16:45:00",
      "link": ""
    },
    {
      "id": 106098,
      "lat": 32.603900449,
      "lon": 35.293039977,
      "label": "סופרמרקט רמי לוי - עפולה",
      "text": "",
      "stayTimes": "20:30 - 21:30",
      "t_start": "2020-03-21T18:30:00",
      "t_end": "2020-03-21T19:30:00",
      "link": ""
    },
    {
      "id": 106099,
      "lat": 32.0830681830001,
      "lon": 34.841963853,
      "label": "בית הכנסת זוטשקא - בני ברק",
      "text": "",
      "stayTimes": "08:00 - 10:15",
      "t_start": "2020-03-22T06:00:00",
      "t_end": "2020-03-22T08:15:00",
      "link": ""
    },
    {
      "id": 106100,
      "lat": 32.085686722,
      "lon": 34.8422490720001,
      "label": "בית הכנסת קהל חסידים שטיבלך - בני ברק",
      "text": "",
      "stayTimes": "12:45 - 13:15",
      "t_start": "2020-03-23T10:45:00",
      "t_end": "2020-03-23T11:15:00",
      "link": ""
    },
    {
      "id": 106101,
      "lat": 32.0825822,
      "lon": 34.8423667000001,
      "label": "בית הכנסת אשל אברהם - בני ברק",
      "text": "",
      "stayTimes": "08:00 - 10:15",
      "t_start": "2020-03-20T06:00:00",
      "t_end": "2020-03-20T08:15:00",
      "link": ""
    },
    {
      "id": 106102,
      "lat": 32.0825810640001,
      "lon": 34.842370723,
      "label": "בית הכנסת אשל אברהם - בני ברק",
      "text": "",
      "stayTimes": "08:00 - 10:00",
      "t_start": "2020-03-23T06:00:00",
      "t_end": "2020-03-23T08:00:00",
      "link": ""
    },
    {
      "id": 106103,
      "lat": 32.0827834,
      "lon": 34.8426542,
      "label": "צרכניית גור - בני ברק",
      "text": "",
      "stayTimes": "20:45 - 21:15",
      "t_start": "2020-03-23T18:45:00",
      "t_end": "2020-03-23T19:15:00",
      "link": ""
    },
    {
      "id": 106104,
      "lat": 32.9715689000001,
      "lon": 35.5043578,
      "label": "בנק הפועלים - צפת",
      "text": "",
      "stayTimes": "11:00 - 11:40",
      "t_start": "2020-03-23T09:00:00",
      "t_end": "2020-03-23T09:40:00",
      "link": ""
    },
    {
      "id": 106105,
      "lat": 32.9715941010001,
      "lon": 35.5050279920001,
      "label": "סופר יש שערי העיר - צפת",
      "text": "",
      "stayTimes": "11:40 - 12:10",
      "t_start": "2020-03-23T09:40:00",
      "t_end": "2020-03-23T10:10:00",
      "link": ""
    },
    {
      "id": 106106,
      "lat": 32.1464242870001,
      "lon": 34.8041538000001,
      "label": "\"שופרסל\" סניף גלילות - הרצליה",
      "text": "",
      "stayTimes": "06:00 - 14:30",
      "t_start": "2020-03-27T04:00:00",
      "t_end": "2020-03-27T12:30:00",
      "link": ""
    },
    {
      "id": 106107,
      "lat": 31.6677821000001,
      "lon": 34.5695299000001,
      "label": "דלתא - אשקלון",
      "text": "",
      "stayTimes": "18:00 - 18:30",
      "t_start": "2020-03-22T16:00:00",
      "t_end": "2020-03-22T16:30:00",
      "link": ""
    },
    {
      "id": 106108,
      "lat": 31.715440642,
      "lon": 34.9925321590001,
      "label": "הי\"ס משכנות דעת - בית שמש",
      "text": "",
      "stayTimes": "12:00 - 13:00",
      "t_start": "2020-03-20T10:00:00",
      "t_end": "2020-03-20T11:00:00",
      "link": ""
    },
    {
      "id": 106109,
      "lat": 31.9393532,
      "lon": 35.0414396,
      "label": "בית כנסת תורה ותפילה - מודיעין עילית",
      "text": "",
      "stayTimes": "07:30 - 08:40",
      "t_start": "2020-03-23T05:30:00",
      "t_end": "2020-03-23T06:40:00",
      "link": ""
    },
    {
      "id": 106110,
      "lat": 31.9393532,
      "lon": 35.0414396,
      "label": "בית כנסת תורה ותפילה - מודיעין עילית",
      "text": "",
      "stayTimes": "06:30 - 07:45",
      "t_start": "2020-03-22T04:30:00",
      "t_end": "2020-03-22T05:45:00",
      "link": ""
    },
    {
      "id": 106111,
      "lat": 31.9407681060001,
      "lon": 35.041481795,
      "label": "שיעור בבית - מודיעין עילית",
      "text": "",
      "stayTimes": "21:45 - 23:15",
      "t_start": "2020-03-22T19:45:00",
      "t_end": "2020-03-22T21:15:00",
      "link": ""
    },
    {
      "id": 106112,
      "lat": 31.991863,
      "lon": 34.7750457000001,
      "label": "ביקור רופא - ראשון לציון",
      "text": "",
      "stayTimes": "21:11 - 22:50",
      "t_start": "2020-03-28T19:11:00",
      "t_end": "2020-03-28T20:50:00",
      "link": ""
    },
    {
      "id": 106113,
      "lat": 32.0069029000001,
      "lon": 34.7508932000001,
      "label": "בית הכנסת אורות התורה - בת ים",
      "text": "",
      "stayTimes": "16:30 - 17:30",
      "t_start": "2020-03-22T14:30:00",
      "t_end": "2020-03-22T15:30:00",
      "link": ""
    },
    {
      "id": 106114,
      "lat": 32.0069029000001,
      "lon": 34.7508932000001,
      "label": "בית הכנסת אורות התורה - בת ים",
      "text": "",
      "stayTimes": "16:30 - 17:30",
      "t_start": "2020-03-23T14:30:00",
      "t_end": "2020-03-23T15:30:00",
      "link": ""
    },
    {
      "id": 106115,
      "lat": 31.7968967,
      "lon": 35.2104085,
      "label": "מקווה ברחוב זית רעין - ירושלים",
      "text": "",
      "stayTimes": "21:00 - 23:30",
      "t_start": "2020-03-21T19:00:00",
      "t_end": "2020-03-21T21:30:00",
      "link": ""
    },
    {
      "id": 106116,
      "lat": 32.0791613000001,
      "lon": 34.8384143000001,
      "label": "יש חסד - בני ברק",
      "text": "",
      "stayTimes": "22:00 - 22:30",
      "t_start": "2020-03-25T20:00:00",
      "t_end": "2020-03-25T20:30:00",
      "link": ""
    },
    {
      "id": 106117,
      "lat": 32.0847749000001,
      "lon": 34.8323027000001,
      "label": "ישיבת משך חוכמה - בני ברק",
      "text": "",
      "stayTimes": "11:00 - 13:00",
      "t_start": "2020-03-22T09:00:00",
      "t_end": "2020-03-22T11:00:00",
      "link": ""
    },
    {
      "id": 106118,
      "lat": 32.281929958,
      "lon": 34.851215247,
      "label": "ישיבת הסדר אורות נתניה - נתניה",
      "text": "",
      "stayTimes": "07:30 - 07:35",
      "t_start": "2020-03-20T05:30:00",
      "t_end": "2020-03-20T05:35:00",
      "link": ""
    },
    {
      "id": 106119,
      "lat": 32.3119263,
      "lon": 34.8855179,
      "label": "בית כנסת הגדול \"לוין\" - נתניה",
      "text": "",
      "stayTimes": "18:30 - 19:30",
      "t_start": "2020-03-20T16:30:00",
      "t_end": "2020-03-20T17:30:00",
      "link": ""
    },
    {
      "id": 106120,
      "lat": 32.311916099,
      "lon": 34.885527288,
      "label": "בית הכנסת הגדול \"לוין\" - נתניה",
      "text": "",
      "stayTimes": "08:00 - 10:00",
      "t_start": "2020-03-21T06:00:00",
      "t_end": "2020-03-21T08:00:00",
      "link": ""
    },
    {
      "id": 106121,
      "lat": 32.2819756000001,
      "lon": 34.8636723000001,
      "label": "זיפר - נתניה",
      "text": "",
      "stayTimes": "09:00 - 09:05",
      "t_start": "2020-03-20T07:00:00",
      "t_end": "2020-03-20T07:05:00",
      "link": ""
    },
    {
      "id": 106122,
      "lat": 32.3120405,
      "lon": 34.8709662000001,
      "label": "סופר פארם - נתניה",
      "text": "",
      "stayTimes": "08:15 - 08:20",
      "t_start": "2020-03-20T06:15:00",
      "t_end": "2020-03-20T06:20:00",
      "link": ""
    },
    {
      "id": 106123,
      "lat": 32.3120405,
      "lon": 34.8709662000001,
      "label": "סופר פארם - נתניה",
      "text": "",
      "stayTimes": "08:45 - 08:50",
      "t_start": "2020-03-20T06:45:00",
      "t_end": "2020-03-20T06:50:00",
      "link": ""
    },
    {
      "id": 106124,
      "lat": 32.003632829,
      "lon": 34.8038148690001,
      "label": "חצי חינם - חולון",
      "text": "",
      "stayTimes": "14:30 - 16:30",
      "t_start": "2020-03-25T12:30:00",
      "t_end": "2020-03-25T14:30:00",
      "link": ""
    },
    {
      "id": 106125,
      "lat": 32.018378,
      "lon": 34.770967865,
      "label": "סופרפארם - חולון",
      "text": "",
      "stayTimes": "13:00 - 13:30",
      "t_start": "2020-03-23T11:00:00",
      "t_end": "2020-03-23T11:30:00",
      "link": ""
    },
    {
      "id": 106126,
      "lat": 32.0082967130001,
      "lon": 34.791272909,
      "label": "שופרסל - חולון",
      "text": "",
      "stayTimes": "17:00 - 17:30",
      "t_start": "2020-03-25T15:00:00",
      "t_end": "2020-03-25T15:30:00",
      "link": ""
    },
    {
      "id": 106127,
      "lat": 32.1973029000001,
      "lon": 34.8778576,
      "label": "הום סנטר קניון רננים - רעננה",
      "text": "",
      "stayTimes": "19:00 - 20:00",
      "t_start": "2020-03-26T17:00:00",
      "t_end": "2020-03-26T18:00:00",
      "link": ""
    },
    {
      "id": 106128,
      "lat": 32.1964064000001,
      "lon": 34.8764550000001,
      "label": "פירות גינוסר - רעננה",
      "text": "",
      "stayTimes": "20:00 - 20:30",
      "t_start": "2020-03-26T18:00:00",
      "t_end": "2020-03-26T18:30:00",
      "link": ""
    },
    {
      "id": 106129,
      "lat": 31.6455817,
      "lon": 34.5943259000001,
      "label": "סופר אושר עד - בת הדר",
      "text": "",
      "stayTimes": "19:00 - 21:30",
      "t_start": "2020-03-24T17:00:00",
      "t_end": "2020-03-24T19:30:00",
      "link": ""
    },
    {
      "id": 106130,
      "lat": 31.6697462000001,
      "lon": 34.5790404000001,
      "label": "הבית של חני - אשקלון",
      "text": "",
      "stayTimes": "16:00 - 16:30",
      "t_start": "2020-03-25T14:00:00",
      "t_end": "2020-03-25T14:30:00",
      "link": ""
    },
    {
      "id": 106131,
      "lat": 31.6733361,
      "lon": 34.5760379000001,
      "label": "חודשי השנה- בית - אשקלון",
      "text": "",
      "stayTimes": "09:00 - 11:00",
      "t_start": "2020-03-24T07:00:00",
      "t_end": "2020-03-24T09:00:00",
      "link": ""
    },
    {
      "id": 106132,
      "lat": 31.6629795000001,
      "lon": 34.5766783,
      "label": "קופת חולים נאות אשקלון - אשקלון",
      "text": "",
      "stayTimes": "09:40 - 10:00",
      "t_start": "2020-03-24T07:40:00",
      "t_end": "2020-03-24T08:00:00",
      "link": ""
    },
    {
      "id": 106133,
      "lat": 32.055273044,
      "lon": 34.960689867,
      "label": "סופר מרקט \"שוק מהדרין\" סניף בן שטח - אלעד",
      "text": "",
      "stayTimes": "08:00 - 13:30",
      "t_start": "2020-03-20T06:00:00",
      "t_end": "2020-03-20T11:30:00",
      "link": ""
    },
    {
      "id": 106134,
      "lat": 32.0552349000001,
      "lon": 34.9606875000001,
      "label": "סופרמרקט \"שוק מהדרין\" סניף בן שטח - אלעד",
      "text": "",
      "stayTimes": "08:00 - 17:30",
      "t_start": "2020-03-22T06:00:00",
      "t_end": "2020-03-22T15:30:00",
      "link": ""
    },
    {
      "id": 106135,
      "lat": 32.0554890940001,
      "lon": 34.9606203710001,
      "label": "סופר מרקט \"שוק מהדרין\" סניף בן שטח - אלעד",
      "text": "",
      "stayTimes": "08:00 - 16:30",
      "t_start": "2020-03-23T06:00:00",
      "t_end": "2020-03-23T14:30:00",
      "link": ""
    },
    {
      "id": 106136,
      "lat": 32.055256077,
      "lon": 34.9606923480001,
      "label": "סופר מרקט \"שוק מהדרין\" סניף בן שטח - אלעד",
      "text": "",
      "stayTimes": "08:00 - 10:30",
      "t_start": "2020-03-24T06:00:00",
      "t_end": "2020-03-24T08:30:00",
      "link": ""
    },
    {
      "id": 106137,
      "lat": 32.9715689000001,
      "lon": 35.5043578,
      "label": "בנק הפועלים - צפת",
      "text": "",
      "stayTimes": "11:00 - 11:40",
      "t_start": "2020-03-23T09:00:00",
      "t_end": "2020-03-23T09:40:00",
      "link": ""
    },
    {
      "id": 106138,
      "lat": 31.9908489000001,
      "lon": 34.7610698,
      "label": "אושר עד - ראשון לציון",
      "text": "",
      "stayTimes": "08:00 - 10:00",
      "t_start": "2020-03-20T06:00:00",
      "t_end": "2020-03-20T08:00:00",
      "link": ""
    },
    {
      "id": 106139,
      "lat": 32.3806337,
      "lon": 34.8748283,
      "label": "פולידר - כפר ויתקין",
      "text": "",
      "stayTimes": "09:00 - 09:30",
      "t_start": "2020-03-20T07:00:00",
      "t_end": "2020-03-20T07:30:00",
      "link": ""
    },
    {
      "id": 106140,
      "lat": 32.3807992270001,
      "lon": 34.8731380930001,
      "label": "קופת חולים -בית מקרחת - כפר ויתקין",
      "text": "",
      "stayTimes": "09:30 - 10:00",
      "t_start": "2020-03-20T07:30:00",
      "t_end": "2020-03-20T08:00:00",
      "link": ""
    },
    {
      "id": 106141,
      "lat": 31.2584512,
      "lon": 34.771347,
      "label": "תיוון \"באר שבע 360\" - באר שבע",
      "text": "",
      "stayTimes": "10:30 - 19:00",
      "t_start": "2020-03-24T08:30:00",
      "t_end": "2020-03-24T17:00:00",
      "link": ""
    },
    {
      "id": 106142,
      "lat": 31.6621588,
      "lon": 34.5788590000001,
      "label": "סופר האחים - אשקלון",
      "text": "",
      "stayTimes": "15:30 - 15:45",
      "t_start": "2020-03-26T13:30:00",
      "t_end": "2020-03-26T13:45:00",
      "link": ""
    },