[
  {
    "id": 21664,
    "lat": 31.6576710000001,
    "lon": 35.1235129,
    "label": "בית המדרש ישיבת הר עציון, ישוב אלון שבות",
    "text": "",
    "stayTimes": "00:00-01:30",
    "t_start": "2020-03-11T22:00:00",
    "t_end": "2020-03-11T23:30:00",
    "link": ""
  },
  {
    "id": 21665,
    "lat": 32.0360309000001,
    "lon": 34.7627074000001,
    "label": "בית חולים וולפסון",
    "text": "",
    "stayTimes": "00:00-23:59",
    "t_start": "2020-03-11T22:00:00",
    "t_end": "2020-03-12T21:59:00",
    "link": ""
  },
  {
    "id": 21666,
    "lat": 31.7720994000001,
    "lon": 35.2126628,
    "label": "מרפאת מטודלה של קופת חולים כללית ירושלים",
    "text": "",
    "stayTimes": "00:00-23:59",
    "t_start": "2020-03-11T22:00:00",
    "t_end": "2020-03-12T21:59:00",
    "link": ""
  },
  {
    "id": 21667,
    "lat": 31.9705519,
    "lon": 34.7934562,
    "label": "בי\"ס עמית עמל מקיף ג' רחוב המתנדבים 6 ראשון לציון",
    "text": "",
    "stayTimes": "08:30-12:20",
    "t_start": "2020-03-12T06:30:00",
    "t_end": "2020-03-12T10:20:00",
    "link": ""
  },
  {
    "id": 21668,
    "lat": 32.0328940000001,
    "lon": 34.8874520000001,
    "label": "\"במוסד נעמן\" יהוד",
    "text": "",
    "stayTimes": "14:00-14:30",
    "t_start": "2020-03-12T12:00:00",
    "t_end": "2020-03-12T12:30:00",
    "link": ""
  },
  {
    "id": 21669,
    "lat": 32.971981,
    "lon": 35.4942120000001,
    "label": "ישיבת חב\"ד הגדולה, צפת",
    "text": "",
    "stayTimes": "00:00-22:00",
    "t_start": "2020-03-11T22:00:00",
    "t_end": "2020-03-12T20:00:00",
    "link": ""
  },
  {
    "id": 21670,
    "lat": 32.9584609,
    "lon": 35.4991753,
    "label": "ישיבת חינוך לנער, צפת",
    "text": "",
    "stayTimes": "22:00-23:59",
    "t_start": "2020-03-12T20:00:00",
    "t_end": "2020-03-12T21:59:00",
    "link": ""
  },
  {
    "id": 21671,
    "lat": 31.6111480000001,
    "lon": 34.7684590000001,
    "label": "בית הכנסת קרית שנף, קרית גת",
    "text": "",
    "stayTimes": "18:00-18:30",
    "t_start": "2020-03-12T16:00:00",
    "t_end": "2020-03-12T16:30:00",
    "link": ""
  },
  {
    "id": 21672,
    "lat": 32.8144726,
    "lon": 35.1068491,
    "label": "בית ספר רוגוזין",
    "text": "",
    "stayTimes": "00:02-23:58",
    "t_start": "2020-03-11T22:02:00",
    "t_end": "2020-03-12T21:58:00",
    "link": ""
  },
  {
    "id": 21673,
    "lat": 32.6778114000001,
    "lon": 35.2417497000001,
    "label": "ישיבה מתובתא מגדל העמק",
    "text": "",
    "stayTimes": "09:00-13:00",
    "t_start": "2020-03-12T07:00:00",
    "t_end": "2020-03-12T11:00:00",
    "link": ""
  },
  {
    "id": 21674,
    "lat": 31.8701375000001,
    "lon": 34.8216411000001,
    "label": "סופרמרקט יוחננוף, צומת ביל\"ו",
    "text": "",
    "stayTimes": "20:00-21:00",
    "t_start": "2020-03-12T18:00:00",
    "t_end": "2020-03-12T19:00:00",
    "link": ""
  },
  {
    "id": 21675,
    "lat": 30.9878617000001,
    "lon": 34.9292548,
    "label": "קופת חולים כללית, צבי בורנשטיין 1, ירוחם",
    "text": "",
    "stayTimes": "08:00-13:00",
    "t_start": "2020-03-12T06:00:00",
    "t_end": "2020-03-12T11:00:00",
    "link": ""
  },
  {
    "id": 21676,
    "lat": 31.2440942000001,
    "lon": 34.7952386000001,
    "label": "ברלינגטון אינגליש קניון הנגב באר שבע",
    "text": "",
    "stayTimes": "18:00-19:30",
    "t_start": "2020-03-12T16:00:00",
    "t_end": "2020-03-12T17:30:00",
    "link": ""
  },
  {
    "id": 21677,
    "lat": 32.0495300000001,
    "lon": 34.95075,
    "label": "בית כנסת \"משכנות נריה\", אלעד",
    "text": "",
    "stayTimes": "05:45-06:20",
    "t_start": "2020-03-12T03:45:00",
    "t_end": "2020-03-12T04:20:00",
    "link": ""
  },
  {
    "id": 21678,
    "lat": 32.053904,
    "lon": 34.9597296000001,
    "label": "בית כנסת \"מאור שרגא\", אלעד",
    "text": "",
    "stayTimes": "19:30-20:00",
    "t_start": "2020-03-12T17:30:00",
    "t_end": "2020-03-12T18:00:00",
    "link": ""
  },
  {
    "id": 21679,
    "lat": 31.7622535,
    "lon": 35.2256699000001,
    "label": "יס פלאנט ירושלים",
    "text": "",
    "stayTimes": "לא ידוע",
    "t_start": "2020-03-11T22:00:00",
    "t_end": "2020-03-11T22:00:00",
    "link": ""
  },
  {
    "id": 21680,
    "lat": 32.1955935,
    "lon": 34.8845583,
    "label": "התדהר 14, רעננה, 43665",
    "text": "",
    "stayTimes": "13:40-14:00",
    "t_start": "2020-03-12T11:40:00",
    "t_end": "2020-03-12T12:00:00",
    "link": ""
  },
  {
    "id": 21681,
    "lat": 32.842670275,
    "lon": 35.0689034820001,
    "label": "חנות לבגדי נשים \"לילוש\" בקרית ים - שד' ירושלים 51",
    "text": "",
    "stayTimes": "00:02-23:58",
    "t_start": "2020-03-11T22:02:00",
    "t_end": "2020-03-12T21:58:00",
    "link": ""
  },
  {
    "id": 21682,
    "lat": 31.7904444000001,
    "lon": 35.2079747000001,
    "label": "מרפאת רוקח של כללית, רח' שרי ישראל ירושלים",
    "text": "",
    "stayTimes": "19:40-23:00",
    "t_start": "2020-03-12T17:40:00",
    "t_end": "2020-03-12T21:00:00",
    "link": ""
  },
  {
    "id": 21683,
    "lat": 31.3163224,
    "lon": 34.6209134000001,
    "label": "בנק מזרחי, רחוב הרצל, אופקים",
    "text": "",
    "stayTimes": "13:00-13:30",
    "t_start": "2020-03-12T11:00:00",
    "t_end": "2020-03-12T11:30:00",
    "link": ""
  },
  {
    "id": 21684,
    "lat": 31.6494398,
    "lon": 35.1477990000001,
    "label": "ביה\"ס ממ\"ד תמר ברחוב מוריה באפרת",
    "text": "",
    "stayTimes": "08:00-15:00",
    "t_start": "2020-03-12T06:00:00",
    "t_end": "2020-03-12T13:00:00",
    "link": ""
  },
  {
    "id": 21685,
    "lat": 31.8812554,
    "lon": 35.2448093,
    "label": "בית כנסת \"הדר ציון\" רח' טירת הכסף כוכב יעקב",
    "text": "",
    "stayTimes": "05:15-06:15",
    "t_start": "2020-03-12T03:15:00",
    "t_end": "2020-03-12T04:15:00",
    "link": ""
  },
  {
    "id": 21686,
    "lat": 31.87904,
    "lon": 35.248254,
    "label": "בית כנסת בבית מדרש \"אוהלי שם\" רח' נהר שלום כוכב יעקב",
    "text": "",
    "stayTimes": "20:30-20:50",
    "t_start": "2020-03-12T18:30:00",
    "t_end": "2020-03-12T18:50:00",
    "link": ""
  },
  {
    "id": 21687,
    "lat": 31.7877947000001,
    "lon": 35.1819121,
    "label": "מיסוי מקרקעין מחלקת גביה, רח' כנפי נשרים 66, ירושלים",
    "text": "",
    "stayTimes": "12:50-13:10",
    "t_start": "2020-03-12T10:50:00",
    "t_end": "2020-03-12T11:10:00",
    "link": ""
  },
  {
    "id": 21688,
    "lat": 31.7896423,
    "lon": 35.1739899,
    "label": "בית כנסת אמרי שפר, רח' קצנלבוגן 1, הר נוף, ירושלים",
    "text": "",
    "stayTimes": "10:00-11:00",
    "t_start": "2020-03-12T08:00:00",
    "t_end": "2020-03-12T09:00:00",
    "link": ""
  },
  {
    "id": 21689,
    "lat": 31.7536775,
    "lon": 35.2139339,
    "label": "חדר כושר מתי במרכז הדר בתלפיות, ירושלים",
    "text": "",
    "stayTimes": "18:00-19:30",
    "t_start": "2020-03-12T16:00:00",
    "t_end": "2020-03-12T17:30:00",
    "link": ""
  },
  {
    "id": 21690,
    "lat": 32.0383166,
    "lon": 34.8877082000001,
    "label": "בית כנסת \"שבט אחים\", יהוד",
    "text": "",
    "stayTimes": "17:30-18:00",
    "t_start": "2020-03-12T15:30:00",
    "t_end": "2020-03-12T16:00:00",
    "link": ""
  },
  {
    "id": 21691,
    "lat": 32.081018107,
    "lon": 34.8435117820001,
    "label": "בית הכנסת הספרדי/חסידי, רח' הרב זוננפלד 15, בני ברק",
    "text": "",
    "stayTimes": "00:00-05:00",
    "t_start": "2020-03-11T22:00:00",
    "t_end": "2020-03-12T03:00:00",
    "link": ""
  },
  {
    "id": 21692,
    "lat": 32.1687871720001,
    "lon": 34.8421797710001,
    "label": "מרפאת \"גודפריד\" כללית",
    "text": "",
    "stayTimes": "00:01-23:59",
    "t_start": "2020-03-11T22:01:00",
    "t_end": "2020-03-12T21:59:00",
    "link": ""
  },
  {
    "id": 21693,
    "lat": 32.0371900000001,
    "lon": 34.89205,
    "label": "בית כנסת \"אור לשבים\" יהוד",
    "text": "",
    "stayTimes": "05:00-07:00",
    "t_start": "2020-03-12T03:00:00",
    "t_end": "2020-03-12T05:00:00",
    "link": ""
  },
  {
    "id": 21694,
    "lat": 31.8664694,
    "lon": 34.7360281000001,
    "label": "מאפיית דרך הלחם - יבנה",
    "text": "",
    "stayTimes": "05:00 - 15:00",
    "t_start": "2020-03-12T03:00:00",
    "t_end": "2020-03-12T13:00:00",
    "link": ""
  },
  {
    "id": 21695,
    "lat": 31.721995238,
    "lon": 35.2241539880001,
    "label": "בית הכנסת 'תפארת ציון ושרה', הרב מנהר 20, הר חומה, ירושלים",
    "text": "",
    "stayTimes": "05:15-06:15",
    "t_start": "2020-03-12T03:15:00",
    "t_end": "2020-03-12T04:15:00",
    "link": ""
  },
  {
    "id": 21696,
    "lat": 31.7226279440001,
    "lon": 35.2287781970001,
    "label": "בית הכנסת 'תפארת ציון ושרה' - ירושלים",
    "text": "",
    "stayTimes": "05:15 - 06:15",
    "t_start": "2020-03-12T03:15:00",
    "t_end": "2020-03-12T04:15:00",
    "link": ""
  },
  {
    "id": 21697,
    "lat": 31.3263210000001,
    "lon": 34.6489340000001,
    "label": "בית כנסת מגן שלמה, מושב גילת",
    "text": "",
    "stayTimes": "05:45-06:30",
    "t_start": "2020-03-12T03:45:00",
    "t_end": "2020-03-12T04:30:00",
    "link": ""
  },
  {
    "id": 21698,
    "lat": 32.1618209000001,
    "lon": 34.9347458,
    "label": "מכון כושר קרוספיט – עתיר ידע 19, בכפר סבא",
    "text": "",
    "stayTimes": "06:00-07:00",
    "t_start": "2020-03-12T04:00:00",
    "t_end": "2020-03-12T05:00:00",
    "link": ""
  },
  {
    "id": 21699,
    "lat": 32.0738230220001,
    "lon": 34.9099921480001,
    "label": "מתחנת עד\"ש  שפיק פתח תקווה לארלוזורוב בת\"א.",
    "text": "",
    "stayTimes": "06:00-06:45",
    "t_start": "2020-03-12T04:00:00",
    "t_end": "2020-03-12T04:45:00",
    "link": ""
  },
  {
    "id": 21700,
    "lat": 32.0812337,
    "lon": 34.8342639000001,
    "label": "\"כולל ברסלב\", רח' אלשיך 5, בני ברק",
    "text": "",
    "stayTimes": "06:00-09:00",
    "t_start": "2020-03-12T04:00:00",
    "t_end": "2020-03-12T07:00:00",
    "link": ""
  },
  {
    "id": 21701,
    "lat": 32.0845200000001,
    "lon": 34.8394200000001,
    "label": "בית הכנסת \"נחום\" ברחוב השומר פינת היום, בני ברק",
    "text": "",
    "stayTimes": "06:15-08:15",
    "t_start": "2020-03-12T04:15:00",
    "t_end": "2020-03-12T06:15:00",
    "link": ""
  },
  {
    "id": 21702,
    "lat": 32.0845200000001,
    "lon": 34.8394200000001,
    "label": "בית הכנסת \"נחום\" ברחוב השומר פינת היום, בני ברק",
    "text": "",
    "stayTimes": "06:15-08:15",
    "t_start": "2020-03-12T04:15:00",
    "t_end": "2020-03-12T06:15:00",
    "link": ""
  },
  {
    "id": 21703,
    "lat": 31.9036971,
    "lon": 34.9946079000001,
    "label": "בית כנסת \"חושן\" רחוב בדולח 12 מודיעין",
    "text": "",
    "stayTimes": "06:30-07:10",
    "t_start": "2020-03-12T04:30:00",
    "t_end": "2020-03-12T05:10:00",
    "link": ""
  },
  {
    "id": 21704,
    "lat": 31.6310856000001,
    "lon": 34.5260912000001,
    "label": "בהיכ\"נ תפעול חברת החשמל אתר רוטנברג - אשקלון",
    "text": "",
    "stayTimes": "06:50 - 07:30",
    "t_start": "2020-03-12T04:50:00",
    "t_end": "2020-03-12T05:30:00",
    "link": ""
  },
  {
    "id": 21705,
    "lat": 31.6644667370001,
    "lon": 35.1564125560001,
    "label": " בית הכנסת המרכזי ברחוב הדקל באפרת",
    "text": "",
    "stayTimes": "07:00-07:40",
    "t_start": "2020-03-12T05:00:00",
    "t_end": "2020-03-12T05:40:00",
    "link": ""
  },
  {
    "id": 21706,
    "lat": 32.0972669000001,
    "lon": 34.8379174,
    "label": "בית כנסת \"זיו יהודה\" ושטיבלאך, שד' אריה לוין בבני ברק",
    "text": "",
    "stayTimes": "07:30-08:00",
    "t_start": "2020-03-12T05:30:00",
    "t_end": "2020-03-12T06:00:00",
    "link": ""
  },
  {
    "id": 21707,
    "lat": 32.0972214,
    "lon": 34.84142,
    "label": "בית כנסת הרב שחף, רח' הרב נויפלד 10 בבני ברק",
    "text": "",
    "stayTimes": "07:30-08:00",
    "t_start": "2020-03-12T05:30:00",
    "t_end": "2020-03-12T06:00:00",
    "link": ""
  },
  {
    "id": 21708,
    "lat": 31.9078573000001,
    "lon": 34.9931828000001,
    "label": "בית ספר \"דרכי יהודה\" רח' יהלום 52 מודיעין",
    "text": "",
    "stayTimes": "07:50-12:45",
    "t_start": "2020-03-12T05:50:00",
    "t_end": "2020-03-12T10:45:00",
    "link": ""
  },
  {
    "id": 21709,
    "lat": 31.9499689,
    "lon": 34.8273502000001,
    "label": "בית ספר אור מלכה, רח' נחמיה 111, ראשון לציון",
    "text": "",
    "stayTimes": "07:50-14:45",
    "t_start": "2020-03-12T05:50:00",
    "t_end": "2020-03-12T12:45:00",
    "link": ""
  },
  {
    "id": 21710,
    "lat": 32.2845697060001,
    "lon": 35.125347832,
    "label": "מעון \"ניצנים\", ענב",
    "text": "",
    "stayTimes": "07:55-08:05",
    "t_start": "2020-03-12T05:55:00",
    "t_end": "2020-03-12T06:05:00",
    "link": ""
  },
  {
    "id": 21711,
    "lat": 31.8954340000001,
    "lon": 34.8226080000001,
    "label": "קופ\"ח כללית רחוב הפלמ\"ח 17 רחובות",
    "text": "",
    "stayTimes": "08:00-08:30",
    "t_start": "2020-03-12T06:00:00",
    "t_end": "2020-03-12T06:30:00",
    "link": ""
  },
  {
    "id": 21712,
    "lat": 31.7858114000001,
    "lon": 35.1883690000001,
    "label": "בית הספר \"דרכי שרה\" רחוב בית הדפוס ירושלים",
    "text": "",
    "stayTimes": "08:00-14:00",
    "t_start": "2020-03-12T06:00:00",
    "t_end": "2020-03-12T12:00:00",
    "link": ""
  },
  {
    "id": 21713,
    "lat": 31.7858114000001,
    "lon": 35.1883690000001,
    "label": "בית הספר \"דרכי שרה\" רחוב בית הדפוס ירושלים",
    "text": "",
    "stayTimes": "08:00-14:00",
    "t_start": "2020-03-12T06:00:00",
    "t_end": "2020-03-12T12:00:00",
    "link": ""
  },
  {
    "id": 21714,
    "lat": 31.7880423,
    "lon": 35.1763226,
    "label": "תלמוד תורה \"דיברות משה\" רחוב קצנלבוגן 83 ירושלים",
    "text": "",
    "stayTimes": "08:00-15:00",
    "t_start": "2020-03-12T06:00:00",
    "t_end": "2020-03-12T13:00:00",
    "link": ""
  },
  {
    "id": 21715,
    "lat": 31.8954340000001,
    "lon": 34.8226080000001,
    "label": "קופ\"ח כללית רחוב הפלמ\"ח 17 רחובות",
    "text": "",
    "stayTimes": "08:00-08:30",
    "t_start": "2020-03-12T06:00:00",
    "t_end": "2020-03-12T06:30:00",
    "link": ""
  },
  {
    "id": 21716,
    "lat": 31.7858114000001,
    "lon": 35.1883690000001,
    "label": "בית הספר \"דרכי שרה\" רחוב בית הדפוס ירושלים",
    "text": "",
    "stayTimes": "08:00-14:00",
    "t_start": "2020-03-12T06:00:00",
    "t_end": "2020-03-12T12:00:00",
    "link": ""
  },
  {
    "id": 21717,
    "lat": 31.7858114000001,
    "lon": 35.1883690000001,
    "label": "בית הספר \"דרכי שרה\" רחוב בית הדפוס ירושלים",
    "text": "",
    "stayTimes": "08:00-14:00",
    "t_start": "2020-03-12T06:00:00",
    "t_end": "2020-03-12T12:00:00",
    "link": ""
  },
  {
    "id": 21718,
    "lat": 31.7880423,
    "lon": 35.1763226,
    "label": "תלמוד תורה \"דיברות משה\" רחוב קצנלבוגן 83 ירושלים",
    "text": "",
    "stayTimes": "08:00-15:00",
    "t_start": "2020-03-12T06:00:00",
    "t_end": "2020-03-12T13:00:00",
    "link": ""
  },
  {
    "id": 21719,
    "lat": 31.823121847,
    "lon": 35.242524679,
    "label": "בי\"\"ס בני עקיבא 'נתיבות חיים' בפסגת זאב, ירושלים",
    "text": "",
    "stayTimes": "08:00-16:00",
    "t_start": "2020-03-12T06:00:00",
    "t_end": "2020-03-12T14:00:00",
    "link": ""
  },
  {
    "id": 21720,
    "lat": 31.789098,
    "lon": 35.205387,
    "label": "מרפאת עיניים, שערי העיר, ירושלים",
    "text": "",
    "stayTimes": "08:00-18:00",
    "t_start": "2020-03-12T06:00:00",
    "t_end": "2020-03-12T16:00:00",
    "link": ""
  },
  {
    "id": 21721,
    "lat": 32.1859894,
    "lon": 34.8560948000001,
    "label": "בית לוינשטיין - רעננה",
    "text": "",
    "stayTimes": "08:00 - 16:00",
    "t_start": "2020-03-12T06:00:00",
    "t_end": "2020-03-12T14:00:00",
    "link": ""
  },
  {
    "id": 21722,
    "lat": 31.6564286,
    "lon": 35.151196,
    "label": "בית ספר עושה חיל - אפרת",
    "text": "",
    "stayTimes": "08:00 - 08:00",
    "t_start": "2020-03-12T06:00:00",
    "t_end": "2020-03-12T06:00:00",
    "link": ""
  },
  {
    "id": 21723,
    "lat": 31.770566504,
    "lon": 35.182364632,
    "label": "יום לימודים בי\"ס בני עקיבא - ירושלים",
    "text": "",
    "stayTimes": "08:00 - 14:00",
    "t_start": "2020-03-12T06:00:00",
    "t_end": "2020-03-12T12:00:00",
    "link": ""
  },
  {
    "id": 21724,
    "lat": 32.679120255,
    "lon": 35.240601548,
    "label": "כתה ט' 3, בית ספר יערת העמק - מגדל העמק",
    "text": "",
    "stayTimes": "08:00 - 12:30",
    "t_start": "2020-03-12T06:00:00",
    "t_end": "2020-03-12T10:30:00",
    "link": ""
  },
  {
    "id": 21725,
    "lat": 32.0684862000001,
    "lon": 34.7941454,
    "label": "מכון כושר F45 Trainig Yigal Alon, מגדל אלון 2, רחוב יגאל אלון 94, תל אביב",
    "text": "",
    "stayTimes": "08:15-09:00",
    "t_start": "2020-03-12T06:15:00",
    "t_end": "2020-03-12T07:00:00",
    "link": ""
  },
  {
    "id": 21726,
    "lat": 32.6037908000001,
    "lon": 35.2940938,
    "label": "בנק יהב עפולה",
    "text": "",
    "stayTimes": "08:15-15:45",
    "t_start": "2020-03-12T06:15:00",
    "t_end": "2020-03-12T13:45:00",
    "link": ""
  },
  {
    "id": 21727,
    "lat": 31.9705500000001,
    "lon": 34.7934500000001,
    "label": "בי\"ס עמית עמל מקיף ג' רחוב המתנדבים 6 ראשון לציון",
    "text": "",
    "stayTimes": "08:30-12:20",
    "t_start": "2020-03-12T06:30:00",
    "t_end": "2020-03-12T10:20:00",
    "link": ""
  },
  {
    "id": 21728,
    "lat": 31.9705500000001,
    "lon": 34.7934500000001,
    "label": "בי\"ס עמית עמל מקיף ג' רחוב המתנדבים 6 ראשון לציון",
    "text": "",
    "stayTimes": "08:30-12:20",
    "t_start": "2020-03-12T06:30:00",
    "t_end": "2020-03-12T10:20:00",
    "link": ""
  },
  {
    "id": 21729,
    "lat": 32.674337,
    "lon": 35.2423890000001,
    "label": "בית כנסת חב\"ד מגדל העמק",
    "text": "",
    "stayTimes": "08:30-09:00",
    "t_start": "2020-03-12T06:30:00",
    "t_end": "2020-03-12T07:00:00",
    "link": ""
  },
  {
    "id": 21730,
    "lat": 32.674337,
    "lon": 35.2423890000001,
    "label": "בית כנסת חב\"ד מגדל העמק",
    "text": "",
    "stayTimes": "08:30-09:00",
    "t_start": "2020-03-12T06:30:00",
    "t_end": "2020-03-12T07:00:00",
    "link": ""
  },
  {
    "id": 21731,
    "lat": 32.1138173000001,
    "lon": 34.80224,
    "label": "חנון דיונון אוניברסיטת תל אביב רחוב חיים לבנון 58 תל אביב",
    "text": "",
    "stayTimes": "08:30-09:00",
    "t_start": "2020-03-12T06:30:00",
    "t_end": "2020-03-12T07:00:00",
    "link": ""
  },
  {
    "id": 21732,
    "lat": 32.0847645630001,
    "lon": 34.832187264,
    "label": "בית מדרש - בני ברק",
    "text": "",
    "stayTimes": "08:30 - 09:30",
    "t_start": "2020-03-12T06:30:00",
    "t_end": "2020-03-12T07:30:00",
    "link": ""
  },
  {
    "id": 21733,
    "lat": 32.67757591,
    "lon": 35.2316353200001,
    "label": "מגדל אור מגדל העמק",
    "text": "",
    "stayTimes": "09:00-21:00",
    "t_start": "2020-03-12T07:00:00",
    "t_end": "2020-03-12T19:00:00",
    "link": ""
  },
  {
    "id": 21734,
    "lat": 32.1095258,
    "lon": 34.8045132,
    "label": "אוניברסיטת תל אביב בית ספר לכלכלה חדר 10",
    "text": "",
    "stayTimes": "09:00-11:00",
    "t_start": "2020-03-12T07:00:00",
    "t_end": "2020-03-12T09:00:00",
    "link": ""
  },
  {
    "id": 21735,
    "lat": 32.0980736000001,
    "lon": 34.7754274000001,
    "label": "סופרפארם נמל תל אביב",
    "text": "",
    "stayTimes": "09:00-10:00",
    "t_start": "2020-03-12T07:00:00",
    "t_end": "2020-03-12T08:00:00",
    "link": ""
  },
  {
    "id": 21736,
    "lat": 31.6535890000001,
    "lon": 35.149934,
    "label": "בית הספר \"עושה חיל\", אפרת",
    "text": "",
    "stayTimes": "09:00-15:00",
    "t_start": "2020-03-12T07:00:00",
    "t_end": "2020-03-12T13:00:00",
    "link": ""
  },
  {
    "id": 21737,
    "lat": 32.0160931,
    "lon": 34.7730563000001,
    "label": "מכללת HIT רח' גולומב 52, חולון",
    "text": "",
    "stayTimes": "09:00-13:00",
    "t_start": "2020-03-12T07:00:00",
    "t_end": "2020-03-12T11:00:00",
    "link": ""
  },
  {
    "id": 21738,
    "lat": 32.0779264,
    "lon": 34.8398083000001,
    "label": "\"כולל אדרת אליהו\", רח' בן יעקב 17, בני ברק",
    "text": "",
    "stayTimes": "09:30-13:00",
    "t_start": "2020-03-12T07:30:00",
    "t_end": "2020-03-12T11:00:00",
    "link": ""
  },
  {
    "id": 21739,
    "lat": 32.097205574,
    "lon": 34.8376757870001,
    "label": "סמינר בנות \"לאה אסתר\" - בני ברק",
    "text": "",
    "stayTimes": "09:30 - 15:00",
    "t_start": "2020-03-12T07:30:00",
    "t_end": "2020-03-12T13:00:00",
    "link": ""
  },
  {
    "id": 21740,
    "lat": 32.6100099000001,
    "lon": 35.2890104000001,
    "label": "שיפודי עמוס בעפולה",
    "text": "",
    "stayTimes": "10:00-10:10",
    "t_start": "2020-03-12T08:00:00",
    "t_end": "2020-03-12T08:10:00",
    "link": ""
  },
  {
    "id": 21741,
    "lat": 32.0901366890001,
    "lon": 34.8348957160001,
    "label": "\"ברכל מעיין 2000\", סמטת אז\"ר 3, בני ברק",
    "text": "",
    "stayTimes": "10:00-15:00",
    "t_start": "2020-03-12T08:00:00",
    "t_end": "2020-03-12T13:00:00",
    "link": ""
  },
  {
    "id": 21742,
    "lat": 32.1669419,
    "lon": 34.8125020000001,
    "label": "גב ים הרצליה - הרצליה",
    "text": "",
    "stayTimes": "10:00 - 14:00",
    "t_start": "2020-03-12T08:00:00",
    "t_end": "2020-03-12T12:00:00",
    "link": ""
  },
  {
    "id": 21743,
    "lat": 31.432154,
    "lon": 34.8840950000001,
    "label": "תפילת שחרית ומנחה בבית כנסת - שומריה",
    "text": "",
    "stayTimes": "10:00 - 10:00",
    "t_start": "2020-03-12T08:00:00",
    "t_end": "2020-03-15T08:00:00",
    "link": ""
  },
  {
    "id": 21744,
    "lat": 31.432154,
    "lon": 34.8840950000001,
    "label": "גנים טרום חובה וחובה - שומריה",
    "text": "",
    "stayTimes": "10:00 - 10:00",
    "t_start": "2020-03-12T08:00:00",
    "t_end": "2020-03-12T08:00:00",
    "link": ""
  },
  {
    "id": 21745,
    "lat": 31.3268379780001,
    "lon": 34.939201746,
    "label": "מרפאה כללית מיתר - מיתר",
    "text": "",
    "stayTimes": "10:00 - 10:00",
    "t_start": "2020-03-12T08:00:00",
    "t_end": "2020-03-19T08:00:00",
    "link": ""
  },
  {
    "id": 21746,
    "lat": 32.6749277000001,
    "lon": 35.2531498000001,
    "label": "טיפת חלב נוף העמק - מגדל העמק",
    "text": "",
    "stayTimes": "10:00 - 10:30",
    "t_start": "2020-03-12T08:00:00",
    "t_end": "2020-03-12T08:30:00",
    "link": ""
  },
  {
    "id": 21747,
    "lat": 31.8729453,
    "lon": 34.8142255000001,
    "label": "בית חולים קפלן- במסגרת לימודים - רחובות",
    "text": "",
    "stayTimes": "10:00 - 15:30",
    "t_start": "2020-03-12T08:00:00",
    "t_end": "2020-03-12T13:30:00",
    "link": ""
  },
  {
    "id": 21748,
    "lat": 32.3191479000001,
    "lon": 34.9336595,
    "label": "קופת חולים כללית, הרצל 7 כפר יונה",
    "text": "",
    "stayTimes": "10:15-10:30",
    "t_start": "2020-03-12T08:15:00",
    "t_end": "2020-03-12T08:30:00",
    "link": ""
  },
  {
    "id": 21749,
    "lat": 32.083895,
    "lon": 34.856412,
    "label": "קונדיטוריה דרימרי, רחוב הסיבים 49, פתח תקווה",
    "text": "",
    "stayTimes": "11:00-12:00",
    "t_start": "2020-03-12T09:00:00",
    "t_end": "2020-03-12T10:00:00",
    "link": ""
  },
  {
    "id": 21750,
    "lat": 31.7789446,
    "lon": 35.2128554,
    "label": "מרכז הפסגה', רח' מרדכי נרקיס, פסגת זאב ירושלים",
    "text": "",
    "stayTimes": "11:00-13:00",
    "t_start": "2020-03-12T09:00:00",
    "t_end": "2020-03-12T11:00:00",
    "link": ""
  },
  {
    "id": 21751,
    "lat": 32.0799527,
    "lon": 34.8335241,
    "label": "בנק \"פאדג'י\", רחוב הרב לנדאו 5, בני ברק",
    "text": "",
    "stayTimes": "11:00-11:45",
    "t_start": "2020-03-12T09:00:00",
    "t_end": "2020-03-12T09:45:00",
    "link": ""
  },
  {
    "id": 21752,
    "lat": 32.0858474,
    "lon": 34.8312082,
    "label": "חנות לבני נשים \"ג'ודי אקסלוסיב\" ברחובות רבי עקיבא 90 ורבי עקיבא 134 בבני ברק",
    "text": "",
    "stayTimes": "11:00-21:00",
    "t_start": "2020-03-12T09:00:00",
    "t_end": "2020-03-12T19:00:00",
    "link": ""
  },
  {
    "id": 21753,
    "lat": 32.2251370000001,
    "lon": 34.8298934000001,
    "label": "Cקפה - געש",
    "text": "",
    "stayTimes": "11:00 - 12:30",
    "t_start": "2020-03-12T09:00:00",
    "t_end": "2020-03-12T10:30:00",
    "link": ""
  },
  {
    "id": 21754,
    "lat": 32.0873548000001,
    "lon": 34.8289585000001,
    "label": "בית הכנסת הגדול- כולל גרטלר - בני ברק",
    "text": "",
    "stayTimes": "11:00 - 15:00",
    "t_start": "2020-03-12T09:00:00",
    "t_end": "2020-03-12T13:00:00",
    "link": ""
  },
  {
    "id": 21755,
    "lat": 32.097205574,
    "lon": 34.8376757870001,
    "label": "כולל תפארת שלום - בני ברק",
    "text": "",
    "stayTimes": "11:30 - 14:00",
    "t_start": "2020-03-12T09:30:00",
    "t_end": "2020-03-12T12:00:00",
    "link": ""
  },
  {
    "id": 21756,
    "lat": 32.3614838,
    "lon": 34.8680263000001,
    "label": "גלידה גולדה, מתחם בית אהרון",
    "text": "",
    "stayTimes": "11:45-11:50",
    "t_start": "2020-03-12T09:45:00",
    "t_end": "2020-03-12T09:50:00",
    "link": ""
  },
  {
    "id": 21757,
    "lat": 32.088982,
    "lon": 34.8593770000001,
    "label": "סופר פארם במרכז יכין סנטר, רחוב שחם 17, פתח תקווה",
    "text": "",
    "stayTimes": "12:00-12:30",
    "t_start": "2020-03-12T10:00:00",
    "t_end": "2020-03-12T10:30:00",
    "link": ""
  },
  {
    "id": 21758,
    "lat": 31.612332,
    "lon": 34.7659800000001,
    "label": "מקווה יחזקאל, קרית גת",
    "text": "",
    "stayTimes": "12:00-12:30",
    "t_start": "2020-03-12T10:00:00",
    "t_end": "2020-03-12T10:30:00",
    "link": ""
  },
  {
    "id": 21759,
    "lat": 32.0861406000001,
    "lon": 34.7790996000001,
    "label": "שופרסל רחוב ארלוזורוב 53 תל אביב",
    "text": "",
    "stayTimes": "12:00-12:30",
    "t_start": "2020-03-12T10:00:00",
    "t_end": "2020-03-12T10:30:00",
    "link": ""
  },
  {
    "id": 21760,
    "lat": 31.7804597000001,
    "lon": 35.2125130000001,
    "label": "בית כנסת אור חמה - ירושלים",
    "text": "",
    "stayTimes": "12:00 - 12:30",
    "t_start": "2020-03-12T10:00:00",
    "t_end": "2020-03-12T10:30:00",
    "link": ""
  },
  {
    "id": 21761,
    "lat": 31.9036406000001,
    "lon": 34.9958938,
    "label": "מרכז הבשר אטליז רחוב לשם 69 מודיעין",
    "text": "",
    "stayTimes": "12:20-12:25",
    "t_start": "2020-03-12T10:20:00",
    "t_end": "2020-03-12T10:25:00",
    "link": ""
  },
  {
    "id": 21762,
    "lat": 32.6067953,
    "lon": 35.2928779000001,
    "label": "פיצוחי שני, השוק 2, עפולה",
    "text": "",
    "stayTimes": "13:00-13:30",
    "t_start": "2020-03-12T11:00:00",
    "t_end": "2020-03-12T11:30:00",
    "link": ""
  },
  {
    "id": 21763,
    "lat": 32.034357309,
    "lon": 34.8486712530001,
    "label": "יוחננוף - אור יהודה",
    "text": "",
    "stayTimes": "13:00 - 14:00",
    "t_start": "2020-03-12T11:00:00",
    "t_end": "2020-03-12T12:00:00",
    "link": ""
  },
  {
    "id": 21764,
    "lat": 32.141461857,
    "lon": 34.8197328480001,
    "label": "שוק משק קנטור, רחוב שרף רמת השרון",
    "text": "",
    "stayTimes": "13:30-14:30",
    "t_start": "2020-03-12T11:30:00",
    "t_end": "2020-03-12T12:30:00",
    "link": ""
  },
  {
    "id": 21765,
    "lat": 31.802537,
    "lon": 35.2130930000001,
    "label": "קפה מלכה, הר חוצבים, רח' הרטום 9, ירושלים",
    "text": "",
    "stayTimes": "13:40-14:40",
    "t_start": "2020-03-12T11:40:00",
    "t_end": "2020-03-12T12:40:00",
    "link": ""
  },
  {
    "id": 21766,
    "lat": 32.181151223,
    "lon": 34.8754887690001,
    "label": "תפילת מנחה בבית כנסת  מאחורי בנק הפועלים - רעננה",
    "text": "",
    "stayTimes": "13:40 - 14:00",
    "t_start": "2020-03-12T11:40:00",
    "t_end": "2020-03-12T12:00:00",
    "link": ""
  },
  {
    "id": 21767,
    "lat": 32.7134837,
    "lon": 35.335905,
    "label": "מרכז המזון, נוף הגליל",
    "text": "",
    "stayTimes": "14:00-15:00",
    "t_start": "2020-03-12T12:00:00",
    "t_end": "2020-03-12T13:00:00",
    "link": ""
  },
  {
    "id": 21768,
    "lat": 31.7649503000001,
    "lon": 35.1494106000001,
    "label": "בית חולים \"הדסה עין כרם\", ירושלים",
    "text": "",
    "stayTimes": "14:00-14:30",
    "t_start": "2020-03-12T12:00:00",
    "t_end": "2020-03-12T12:30:00",
    "link": ""
  },
  {
    "id": 21769,
    "lat": 32.0683908840001,
    "lon": 34.777495753,
    "label": "\"חומוס אבו אכרם\", רח' שיינקין 59, תל אביב",
    "text": "",
    "stayTimes": "14:00-15:00",
    "t_start": "2020-03-12T12:00:00",
    "t_end": "2020-03-12T13:00:00",
    "link": ""
  },
  {
    "id": 21770,
    "lat": 32.0777635000001,
    "lon": 34.7669549390001,
    "label": "קפה מצדה-נמל תל אביב - תל אביב - יפו",
    "text": "",
    "stayTimes": "14:00 - 17:00",
    "t_start": "2020-03-12T12:00:00",
    "t_end": "2020-03-12T15:00:00",
    "link": ""
  },
  {
    "id": 21771,
    "lat": 32.0835611000001,
    "lon": 34.7971878000001,
    "label": "דוכן קפה נטו בתחנת רכבת סבידור מרכז - תל אביב - יפו",
    "text": "",
    "stayTimes": "14:00 - 14:28",
    "t_start": "2020-03-12T12:00:00",
    "t_end": "2020-03-12T12:28:00",
    "link": ""
  },
  {
    "id": 21772,
    "lat": 32.0991384720001,
    "lon": 34.8383772510001,
    "label": "ת\"ת כרם גפן ישראל - בני ברק",
    "text": "",
    "stayTimes": "14:00 - 17:30",
    "t_start": "2020-03-12T12:00:00",
    "t_end": "2020-03-22T15:30:00",
    "link": ""
  },
  {
    "id": 21773,
    "lat": 31.9912360000001,
    "lon": 34.7745650000001,
    "label": "חנות \"מיניסינו\" בקניון הזהב, רחוב דויד שחרוב 21, ראשל\"צ",
    "text": "",
    "stayTimes": "15:00-16:00",
    "t_start": "2020-03-12T13:00:00",
    "t_end": "2020-03-12T14:00:00",
    "link": ""
  },
  {
    "id": 21774,
    "lat": 31.7633984,
    "lon": 35.2073749,
    "label": "בית הכנסת 'השטיבלאך', רחוב החי\"ש, ירושלים",
    "text": "",
    "stayTimes": "15:00-15:30",
    "t_start": "2020-03-12T13:00:00",
    "t_end": "2020-03-12T13:30:00",
    "link": ""
  },
  {
    "id": 21775,
    "lat": 32.0859852,
    "lon": 34.8355715000001,
    "label": "בית כנסת איצקוביץ, רח' הרב ש\"ך 4, בני ברק",
    "text": "",
    "stayTimes": "15:00-16:00",
    "t_start": "2020-03-12T13:00:00",
    "t_end": "2020-03-12T14:00:00",
    "link": ""
  },
  {
    "id": 21776,
    "lat": 31.7742733160001,
    "lon": 35.18528287,
    "label": "בי\"ח שע\"צ כירורגיה - ירושלים",
    "text": "",
    "stayTimes": "15:00 - 23:00",
    "t_start": "2020-03-12T13:00:00",
    "t_end": "2020-03-12T21:00:00",
    "link": ""
  },
  {
    "id": 21777,
    "lat": 31.7641922,
    "lon": 35.1947682000001,
    "label": "מעיין 2000 סניף גבעת מרדכי רחוב שח\"ל 58 ירושלים",
    "text": "",
    "stayTimes": "15:15-17:30",
    "t_start": "2020-03-12T13:15:00",
    "t_end": "2020-03-12T15:30:00",
    "link": ""
  },
  {
    "id": 21778,
    "lat": 32.1122558000001,
    "lon": 34.7959133000001,
    "label": "קניון רמת אביב, רח' איינשטיין 40, תל אביב",
    "text": "",
    "stayTimes": "15:30-17:00",
    "t_start": "2020-03-12T13:30:00",
    "t_end": "2020-03-12T15:00:00",
    "link": ""
  },
  {
    "id": 21779,
    "lat": 32.0779264,
    "lon": 34.8398083000001,
    "label": "\"כולל אדרת אליהו\", רח' בן יעקב 17, בני ברק",
    "text": "",
    "stayTimes": "15:45-16:10",
    "t_start": "2020-03-12T13:45:00",
    "t_end": "2020-03-12T14:10:00",
    "link": ""
  },
  {
    "id": 21780,
    "lat": 31.7010023,
    "lon": 35.1119254000001,
    "label": "ביתר עילית",
    "text": "",
    "stayTimes": "15:50-16:00",
    "t_start": "2020-03-12T13:50:00",
    "t_end": "2020-03-12T14:00:00",
    "link": ""
  },
  {
    "id": 21781,
    "lat": 32.0813803880001,
    "lon": 34.7896211620001,
    "label": "קניון ויצמן, רחוב ויצמן 14, תל אביב",
    "text": "",
    "stayTimes": "16:00-17:00",
    "t_start": "2020-03-12T14:00:00",
    "t_end": "2020-03-12T15:00:00",
    "link": ""
  },
  {
    "id": 21782,
    "lat": 31.77262424,
    "lon": 35.166116883,
    "label": "קבלת פנים באירוע משפחתי במרכז ציפורי יער ירושלים",
    "text": "",
    "stayTimes": "16:00-16:30",
    "t_start": "2020-03-12T14:00:00",
    "t_end": "2020-03-12T14:30:00",
    "link": ""
  },
  {
    "id": 21783,
    "lat": 32.0637818000001,
    "lon": 34.7716087000001,
    "label": "נחלת בנימין 61 תל אביב",
    "text": "",
    "stayTimes": "16:00-16:30",
    "t_start": "2020-03-12T14:00:00",
    "t_end": "2020-03-12T14:30:00",
    "link": ""
  },
  {
    "id": 21784,
    "lat": 31.4308878000001,
    "lon": 34.591165,
    "label": "מכללה \"חמדת הדרום\" נתיבות",
    "text": "",
    "stayTimes": "16:00-18:00",
    "t_start": "2020-03-12T14:00:00",
    "t_end": "2020-03-12T16:00:00",
    "link": ""
  },
  {
    "id": 21785,
    "lat": 32.0636578,
    "lon": 34.7716635,
    "label": "פלאפל השרון, רחוב נחלת בנימין 61 תל אביב",
    "text": "",
    "stayTimes": "16:00-16:30",
    "t_start": "2020-03-12T14:00:00",
    "t_end": "2020-03-12T14:30:00",
    "link": ""
  },
  {
    "id": 21786,
    "lat": 32.1912984000001,
    "lon": 34.863387,
    "label": "קפה שלונסקי - רעננה",
    "text": "",
    "stayTimes": "16:15 - 20:00",
    "t_start": "2020-03-12T14:15:00",
    "t_end": "2020-03-12T18:00:00",
    "link": ""
  },
  {
    "id": 21787,
    "lat": 32.0740640000001,
    "lon": 34.765475,
    "label": "לנדוור קפה בית האופרה - תל אביב - יפו",
    "text": "",
    "stayTimes": "16:30 - 17:30",
    "t_start": "2020-03-12T14:30:00",
    "t_end": "2020-03-12T15:30:00",
    "link": ""
  },
  {
    "id": 21788,
    "lat": 32.9945034,
    "lon": 35.0919974,
    "label": "KSP - נהריה",
    "text": "",
    "stayTimes": "16:50 - 17:23",
    "t_start": "2020-03-12T14:50:00",
    "t_end": "2020-03-12T15:23:00",
    "link": ""
  },
  {
    "id": 21789,
    "lat": 32.0338,
    "lon": 34.88566,
    "label": "בית כנסת \"בית אל\" יהוד",
    "text": "",
    "stayTimes": "17:00-18:15",
    "t_start": "2020-03-12T15:00:00",
    "t_end": "2020-03-12T16:15:00",
    "link": ""
  },
  {
    "id": 21790,
    "lat": 32.2915039110001,
    "lon": 34.863012252,
    "label": "סינמה סיטי נתניה",
    "text": "",
    "stayTimes": "17:00-19:00",
    "t_start": "2020-03-12T15:00:00",
    "t_end": "2020-03-12T17:00:00",
    "link": ""
  },
  {
    "id": 21791,
    "lat": 31.773199,
    "lon": 35.185261,
    "label": "בית חולים שערי צדק- מחלקה פנימית ב' - ירושלים",
    "text": "",
    "stayTimes": "17:00 - 17:20",
    "t_start": "2020-03-12T15:00:00",
    "t_end": "2020-03-12T15:20:00",
    "link": ""
  },
  {
    "id": 21792,
    "lat": 31.9676900000001,
    "lon": 34.8201,
    "label": "מרכז לנוער \"באלנס\" בי\"ס רביבים רחוב גוש עציון 23 ראשון לציון",
    "text": "",
    "stayTimes": "17:30-20:30",
    "t_start": "2020-03-12T15:30:00",
    "t_end": "2020-03-12T18:30:00",
    "link": ""
  },
  {
    "id": 21793,
    "lat": 31.9676900000001,
    "lon": 34.8201,
    "label": "מרכז לנוער \"באלנס\" בי\"ס רביבים רחוב גוש עציון 23 ראשון לציון",
    "text": "",
    "stayTimes": "17:30-20:30",
    "t_start": "2020-03-12T15:30:00",
    "t_end": "2020-03-12T18:30:00",
    "link": ""
  },
  {
    "id": 21794,
    "lat": 32.129386561,
    "lon": 34.823618676,
    "label": "בית עלמין - תל אביב - יפו",
    "text": "",
    "stayTimes": "17:30 - 18:15",
    "t_start": "2020-03-12T15:30:00",
    "t_end": "2020-03-12T16:15:00",
    "link": ""
  },
  {
    "id": 21795,
    "lat": 32.6778551,
    "lon": 35.2384017000001,
    "label": "בית כנסת יוצאי אירופה מגדל העמק",
    "text": "",
    "stayTimes": "17:45-09:00",
    "t_start": "2020-03-12T15:45:00",
    "t_end": "2020-03-12T07:00:00",
    "link": ""
  },
  {
    "id": 21796,
    "lat": 32.6778551,
    "lon": 35.2384017000001,
    "label": "בית כנסת יוצאי אירופה מגדל העמק",
    "text": "",
    "stayTimes": "17:45-09:00",
    "t_start": "2020-03-12T15:45:00",
    "t_end": "2020-03-12T07:00:00",
    "link": ""
  },
  {
    "id": 21797,
    "lat": 32.0295340000001,
    "lon": 34.8869943,
    "label": "בית חב\"ד, יהוד",
    "text": "",
    "stayTimes": "17:45-18:10",
    "t_start": "2020-03-12T15:45:00",
    "t_end": "2020-03-12T16:10:00",
    "link": ""
  },
  {
    "id": 21798,
    "lat": 32.074059,
    "lon": 34.8404918000001,
    "label": "בית הרופאים , רחוב חזון איש 56, בני ברק",
    "text": "",
    "stayTimes": "17:50-19:00",
    "t_start": "2020-03-12T15:50:00",
    "t_end": "2020-03-12T17:00:00",
    "link": ""
  },
  {
    "id": 21799,
    "lat": 32.074059,
    "lon": 34.8404918000001,
    "label": "בית הרופאים , רחוב חזון איש 56, בני ברק",
    "text": "",
    "stayTimes": "17:50-19:00",
    "t_start": "2020-03-12T15:50:00",
    "t_end": "2020-03-12T17:00:00",
    "link": ""
  },
  {
    "id": 21800,
    "lat": 32.0855614020001,
    "lon": 34.836284225,
    "label": "בית הכנסת \"אור החיים\" ברחוב רבי עקיבא 134, בני ברק",
    "text": "",
    "stayTimes": "18:00-20:00",
    "t_start": "2020-03-12T16:00:00",
    "t_end": "2020-03-12T18:00:00",
    "link": ""
  },
  {
    "id": 21801,
    "lat": 32.0855614020001,
    "lon": 34.836284225,
    "label": "בית הכנסת \"אור החיים\" ברחוב רבי עקיבא 134, בני ברק",
    "text": "",
    "stayTimes": "18:00-20:00",
    "t_start": "2020-03-12T16:00:00",
    "t_end": "2020-03-12T18:00:00",
    "link": ""
  },
  {
    "id": 21802,
    "lat": 32.0691568,
    "lon": 34.7855231,
    "label": "חדר כושר קאנטרי חשמונאים, קניון TLV תל אביב",
    "text": "",
    "stayTimes": "18:00-19:00",
    "t_start": "2020-03-12T16:00:00",
    "t_end": "2020-03-12T17:00:00",
    "link": ""
  },
  {
    "id": 21803,
    "lat": 32.1464078000001,
    "lon": 34.8041896,
    "label": "שופרסל דיל גלילות סינמה סיטי, רמת השרון",
    "text": "",
    "stayTimes": "18:00-19:00",
    "t_start": "2020-03-12T16:00:00",
    "t_end": "2020-03-12T17:00:00",
    "link": ""
  },
  {
    "id": 21804,
    "lat": 31.2473458000001,
    "lon": 34.8113132,
    "label": "מסיבבה 16:15-16:30 - באר שבע",
    "text": "",
    "stayTimes": "18:00 - 18:30",
    "t_start": "2020-03-12T16:00:00",
    "t_end": "2020-03-12T16:30:00",
    "link": ""
  },
  {
    "id": 21805,
    "lat": 32.0876430000001,
    "lon": 34.8296700000001,
    "label": "חוג חתם סופר- בית מדרש - בני ברק",
    "text": "",
    "stayTimes": "18:00 - 21:10",
    "t_start": "2020-03-12T16:00:00",
    "t_end": "2020-03-12T19:10:00",
    "link": ""
  },
  {
    "id": 21806,
    "lat": 32.0859029000001,
    "lon": 34.8274948000001,
    "label": "אמרי אמת - בני ברק",
    "text": "",
    "stayTimes": "18:00 - 23:30",
    "t_start": "2020-03-12T16:00:00",
    "t_end": "2020-03-12T21:30:00",
    "link": ""
  },
  {
    "id": 21807,
    "lat": 32.0291960000001,
    "lon": 34.888242,
    "label": "בית כנסת בית מאיר, רחוב בילו יהוד",
    "text": "",
    "stayTimes": "18:10-18:30",
    "t_start": "2020-03-12T16:10:00",
    "t_end": "2020-03-12T16:30:00",
    "link": ""
  },
  {
    "id": 21808,
    "lat": 31.9033000000001,
    "lon": 34.9958570000001,
    "label": "\"מרכז הבשר\" ברח' לשם מודיעין",
    "text": "",
    "stayTimes": "18:25-18:35",
    "t_start": "2020-03-12T16:25:00",
    "t_end": "2020-03-12T16:35:00",
    "link": ""
  },
  {
    "id": 21809,
    "lat": 31.9041783000001,
    "lon": 34.9955207,
    "label": " \"המאפה של אודטה\" רחוב האודם 21 מודיעין",
    "text": "",
    "stayTimes": "18:30-18:40",
    "t_start": "2020-03-12T16:30:00",
    "t_end": "2020-03-12T16:40:00",
    "link": ""
  },
  {
    "id": 21810,
    "lat": 32.028860384,
    "lon": 34.889051742,
    "label": "סופר מאיר, רחוב סעדיה חתוכה, יהוד",
    "text": "",
    "stayTimes": "18:30-18:45",
    "t_start": "2020-03-12T16:30:00",
    "t_end": "2020-03-12T16:45:00",
    "link": ""
  },
  {
    "id": 21811,
    "lat": 31.2412632,
    "lon": 34.8118416,
    "label": "רמי לוי ביג - באר שבע",
    "text": "",
    "stayTimes": "18:30 - 19:00",
    "t_start": "2020-03-12T16:30:00",
    "t_end": "2020-03-12T17:00:00",
    "link": ""
  },
  {
    "id": 21812,
    "lat": 32.2482737,
    "lon": 34.8362212000001,
    "label": "ארט קפה - יקום",
    "text": "",
    "stayTimes": "18:30 - 19:30",
    "t_start": "2020-03-12T16:30:00",
    "t_end": "2020-03-12T17:30:00",
    "link": ""
  },
  {
    "id": 21813,
    "lat": 31.9034749590001,
    "lon": 34.9957646180001,
    "label": "\"עידן הפרי והירק\" ברח' לשם מודיעין",
    "text": "",
    "stayTimes": "18:35-18:45",
    "t_start": "2020-03-12T16:35:00",
    "t_end": "2020-03-12T16:45:00",
    "link": ""
  },
  {
    "id": 21814,
    "lat": 31.9036431000001,
    "lon": 34.9958777000001,
    "label": "\"עידן הפרי והירק\" רחוב לשם 69 מודיעין",
    "text": "",
    "stayTimes": "18:40-18:50",
    "t_start": "2020-03-12T16:40:00",
    "t_end": "2020-03-12T16:50:00",
    "link": ""
  },
  {
    "id": 21815,
    "lat": 31.9028692000001,
    "lon": 34.9963269,
    "label": "סופר קייזר רחוב אבני חושן 21 מודיעין",
    "text": "",
    "stayTimes": "18:50-19:00",
    "t_start": "2020-03-12T16:50:00",
    "t_end": "2020-03-12T17:00:00",
    "link": ""
  },
  {
    "id": 21816,
    "lat": 31.4681640000001,
    "lon": 34.774822,
    "label": "חנות \"YELLOW השקמה\" תחנת דלק \"פז השקמה\" בית קמה כביש 6 צפון",
    "text": "",
    "stayTimes": "19:00-19:05",
    "t_start": "2020-03-12T17:00:00",
    "t_end": "2020-03-12T17:05:00",
    "link": ""
  },
  {
    "id": 21817,
    "lat": 32.291512981,
    "lon": 34.863022981,
    "label": "סינמה סיטי נתניה",
    "text": "",
    "stayTimes": "19:00-19:30",
    "t_start": "2020-03-12T17:00:00",
    "t_end": "2020-03-12T17:30:00",
    "link": ""
  },
  {
    "id": 21818,
    "lat": 32.1587970000001,
    "lon": 34.8318760000001,
    "label": "קרוספיט הרצליה, קיבוץ גליל ים",
    "text": "",
    "stayTimes": "19:00-21:00",
    "t_start": "2020-03-12T17:00:00",
    "t_end": "2020-03-12T19:00:00",
    "link": ""
  },
  {
    "id": 21819,
    "lat": 32.569352,
    "lon": 34.9334500000001,
    "label": "סופר רמי לוי - זכרון יעקב",
    "text": "",
    "stayTimes": "19:00 - 19:30",
    "t_start": "2020-03-12T17:00:00",
    "t_end": "2020-03-12T17:30:00",
    "link": ""
  },
  {
    "id": 21820,
    "lat": 32.0779264,
    "lon": 34.8398083000001,
    "label": "\"כולל אדרת אליהו\", רח' בן יעקב 17, בני ברק",
    "text": "",
    "stayTimes": "19:15-19:40",
    "t_start": "2020-03-12T17:15:00",
    "t_end": "2020-03-12T17:40:00",
    "link": ""
  },
  {
    "id": 21821,
    "lat": 32.0902790000001,
    "lon": 34.7755290000001,
    "label": "בר \"קוקטילים 223\", רחוב דיזינגוף 223, תל אביב",
    "text": "",
    "stayTimes": "19:30-21:30",
    "t_start": "2020-03-12T17:30:00",
    "t_end": "2020-03-12T19:30:00",
    "link": ""
  },
  {
    "id": 21822,
    "lat": 32.0860237000001,
    "lon": 34.8303992,
    "label": "מוקד מכבי , רחוב רבי עקיבא 84, בני ברק",
    "text": "",
    "stayTimes": "19:30-21:00",
    "t_start": "2020-03-12T17:30:00",
    "t_end": "2020-03-12T19:00:00",
    "link": ""
  },
  {
    "id": 21823,
    "lat": 32.0860237000001,
    "lon": 34.8303992,
    "label": "מוקד מכבי , רחוב רבי עקיבא 84, בני ברק",
    "text": "",
    "stayTimes": "19:30-21:00",
    "t_start": "2020-03-12T17:30:00",
    "t_end": "2020-03-12T19:00:00",
    "link": ""
  },
  {
    "id": 21824,
    "lat": 32.0838014,
    "lon": 34.789210666,
    "label": "מארלוזורוב ויצמן ת\"א תחנה מס' 13 עד תחנת עד\"ש שפיק מס' 46 בפ\"ת.",
    "text": "",
    "stayTimes": "19:30-20:00",
    "t_start": "2020-03-12T17:30:00",
    "t_end": "2020-03-12T18:00:00",
    "link": ""
  },
  {
    "id": 21825,
    "lat": 31.721992195,
    "lon": 35.2241575640001,
    "label": "ית הכנסת ברחוב הרב מנהר 4, הר חומה, ירושלים",
    "text": "",
    "stayTimes": "19:55-20:30",
    "t_start": "2020-03-12T17:55:00",
    "t_end": "2020-03-12T18:30:00",
    "link": ""
  },
  {
    "id": 21826,
    "lat": 31.721901717,
    "lon": 35.22485937,
    "label": "בית הכנסת - ירושלים",
    "text": "",
    "stayTimes": "19:55 - 20:30",
    "t_start": "2020-03-12T17:55:00",
    "t_end": "2020-03-12T18:30:00",
    "link": ""
  },
  {
    "id": 21827,
    "lat": 31.9006391,
    "lon": 35.0078202,
    "label": "סופרפארם קניון עזריאלי מודיעין",
    "text": "",
    "stayTimes": "20:00-20:10",
    "t_start": "2020-03-12T18:00:00",
    "t_end": "2020-03-12T18:10:00",
    "link": ""
  },
  {
    "id": 21828,
    "lat": 32.6346319530001,
    "lon": 35.3327005850001,
    "label": "בית כנסת ויזניץ רחב זית 1 עפולה",
    "text": "",
    "stayTimes": "20:00-21:30",
    "t_start": "2020-03-12T18:00:00",
    "t_end": "2020-03-12T19:30:00",
    "link": ""
  },
  {
    "id": 21829,
    "lat": 32.4490906,
    "lon": 34.9147627,
    "label": "סופר אושר עד באזור התעשייה חדרה",
    "text": "",
    "stayTimes": "20:00-21:00",
    "t_start": "2020-03-12T18:00:00",
    "t_end": "2020-03-12T19:00:00",
    "link": ""
  },
  {
    "id": 21830,
    "lat": 32.6102010000001,
    "lon": 35.2884211000001,
    "label": "חנות שילב - עפולה",
    "text": "",
    "stayTimes": "20:00 - 20:30",
    "t_start": "2020-03-12T18:00:00",
    "t_end": "2020-03-12T18:30:00",
    "link": ""
  },
  {
    "id": 21831,
    "lat": 32.4490906,
    "lon": 34.9147627,
    "label": "סופר אושר עד אזור התעשייה - חדרה",
    "text": "",
    "stayTimes": "20:00 - 21:00",
    "t_start": "2020-03-12T18:00:00",
    "t_end": "2020-03-12T19:00:00",
    "link": ""
  },
  {
    "id": 21832,
    "lat": 31.7708458000001,
    "lon": 34.6328370000001,
    "label": "אולם אירועים בית כנסת אבוחצירה - אשדוד",
    "text": "",
    "stayTimes": "20:00 - 22:30",
    "t_start": "2020-03-12T18:00:00",
    "t_end": "2020-03-12T20:30:00",
    "link": ""
  },
  {
    "id": 21833,
    "lat": 32.6102010000001,
    "lon": 35.2884211000001,
    "label": "חנות שילב, מתחם התחנה - עפולה",
    "text": "",
    "stayTimes": "20:00 - 20:30",
    "t_start": "2020-03-12T18:00:00",
    "t_end": "2020-03-12T18:30:00",
    "link": ""
  },
  {
    "id": 21834,
    "lat": 32.8680393000001,
    "lon": 35.278195,
    "label": "מרפאת קופת חולים כללית משגב - עצמון שגב",
    "text": "",
    "stayTimes": "20:00 - 21:00",
    "t_start": "2020-03-12T18:00:00",
    "t_end": "2020-03-12T19:00:00",
    "link": ""
  },
  {
    "id": 21835,
    "lat": 31.8992742,
    "lon": 35.0083440000001,
    "label": "\"יינות ביתן\" קניון עזריאלי מודיעין",
    "text": "",
    "stayTimes": "20:10-20:20",
    "t_start": "2020-03-12T18:10:00",
    "t_end": "2020-03-12T18:20:00",
    "link": ""
  },
  {
    "id": 21836,
    "lat": 31.438767731,
    "lon": 35.02945226,
    "label": "אולם החברים בעתניאל",
    "text": "",
    "stayTimes": "20:30-01:00",
    "t_start": "2020-03-12T18:30:00",
    "t_end": "2020-03-11T23:00:00",
    "link": ""
  },
  {
    "id": 21837,
    "lat": 32.6054369,
    "lon": 35.2935362000001,
    "label": "סופר פארם, מתחם התחנה - עפולה",
    "text": "",
    "stayTimes": "20:30 - 21:00",
    "t_start": "2020-03-12T18:30:00",
    "t_end": "2020-03-12T19:00:00",
    "link": ""
  },
  {
    "id": 21838,
    "lat": 32.0891032000001,
    "lon": 34.8380488,
    "label": "סופר שפע ברכת השם - בני ברק",
    "text": "",
    "stayTimes": "20:30 - 21:30",
    "t_start": "2020-03-12T18:30:00",
    "t_end": "2020-03-12T19:30:00",
    "link": ""
  },
  {
    "id": 21839,
    "lat": 32.6054369,
    "lon": 35.2935362000001,
    "label": "סופר פארם מתחם התחנה - עפולה",
    "text": "",
    "stayTimes": "20:30 - 21:00",
    "t_start": "2020-03-12T18:30:00",
    "t_end": "2020-03-12T19:00:00",
    "link": ""
  },
  {
    "id": 21840,
    "lat": 31.9053117,
    "lon": 34.9953755000001,
    "label": "בית כנסת משכן שלמה, רח' ענבר 17 מודיעין",
    "text": "",
    "stayTimes": "20:45-21:00",
    "t_start": "2020-03-12T18:45:00",
    "t_end": "2020-03-12T19:00:00",
    "link": ""
  },
  {
    "id": 21841,
    "lat": 31.6093320000001,
    "lon": 34.7703080000001,
    "label": "חנות שייפון ליד תחנה מרכזית, קרית גת",
    "text": "",
    "stayTimes": "20:45-21:00",
    "t_start": "2020-03-12T18:45:00",
    "t_end": "2020-03-12T19:00:00",
    "link": ""
  },
  {
    "id": 21842,
    "lat": 32.0886468,
    "lon": 34.7822321,
    "label": "אגנס, רחוב אבן גבירול 129, תל אביב",
    "text": "",
    "stayTimes": "21:30-00:59",
    "t_start": "2020-03-12T19:30:00",
    "t_end": "2020-03-11T22:59:00",
    "link": ""
  },
  {
    "id": 21843,
    "lat": 32.0811212,
    "lon": 34.7737281,
    "label": "דיזי פרישדון רח' דיזינגוף 121 תל אביב",
    "text": "",
    "stayTimes": "21:30-03:00",
    "t_start": "2020-03-12T19:30:00",
    "t_end": "2020-03-12T01:00:00",
    "link": ""
  },
  {
    "id": 21844,
    "lat": 32.3009928000001,
    "lon": 34.8598411,
    "label": "מתנ\"ס רמת ידין דורה, רח' נחום 35, נתניה",
    "text": "",
    "stayTimes": "21:30-23:00",
    "t_start": "2020-03-12T19:30:00",
    "t_end": "2020-03-12T21:00:00",
    "link": ""
  },
  {
    "id": 21845,
    "lat": 32.3009928000001,
    "lon": 34.8598411,
    "label": "מתנס דורה - נתניה",
    "text": "",
    "stayTimes": "21:30 - 23:00",
    "t_start": "2020-03-12T19:30:00",
    "t_end": "2020-03-12T21:00:00",
    "link": ""
  },
  {
    "id": 21846,
    "lat": 31.8031406000001,
    "lon": 35.1000709,
    "label": "בית הכנסת \"בית אברהם\", רחוב אזניים לתורה 1, קרית יערים (טלז סטון)",
    "text": "",
    "stayTimes": "21:45-23:00",
    "t_start": "2020-03-12T19:45:00",
    "t_end": "2020-03-12T21:00:00",
    "link": ""
  },
  {
    "id": 21847,
    "lat": 31.801969833,
    "lon": 35.0991936770001,
    "label": "בית כנסת אברהם - קרית יערים",
    "text": "",
    "stayTimes": "21:45 - 23:00",
    "t_start": "2020-03-12T19:45:00",
    "t_end": "2020-03-12T21:00:00",
    "link": ""
  },
  {
    "id": 21848,
    "lat": 31.6576710000001,
    "lon": 35.1235129,
    "label": "בית המדרש ישיבת הר עציון, ישוב אלון שבות",
    "text": "",
    "stayTimes": "22:00-23:59",
    "t_start": "2020-03-12T20:00:00",
    "t_end": "2020-03-12T21:59:00",
    "link": ""
  },
  {
    "id": 21849,
    "lat": 31.8884565000001,
    "lon": 34.9615246000001,
    "label": "בית קפה \"מיכליס\" ישפרו סנטר מודיעין",
    "text": "",
    "stayTimes": "22:00-23:59",
    "t_start": "2020-03-12T20:00:00",
    "t_end": "2020-03-12T21:59:00",
    "link": ""
  },
  {
    "id": 21850,
    "lat": 32.081018107,
    "lon": 34.8435117820001,
    "label": "בית הכנסת הספרדי/חסידי, רח' הרב זוננפלד 15, בני ברק",
    "text": "",
    "stayTimes": "22:00-23:00",
    "t_start": "2020-03-12T20:00:00",
    "t_end": "2020-03-12T21:00:00",
    "link": ""
  },
  {
    "id": 21851,
    "lat": 32.3452379130001,
    "lon": 34.908612405,
    "label": "מסעדת יומנגס - כפר רופין",
    "text": "",
    "stayTimes": "22:00 - 23:30",
    "t_start": "2020-03-12T20:00:00",
    "t_end": "2020-03-12T21:30:00",
    "link": ""
  },
  {
    "id": 21852,
    "lat": 32.0907700000001,
    "lon": 34.8573000000001,
    "label": "פאב \"דרינק פוינט\", רח' הסיבים 7, פתח תקווה",
    "text": "",
    "stayTimes": "23:00-23:59",
    "t_start": "2020-03-12T21:00:00",
    "t_end": "2020-03-12T21:59:00",
    "link": ""
  },
  {
    "id": 21853,
    "lat": 32.0907700000001,
    "lon": 34.8573000000001,
    "label": "פאב \"דרינק פוינט\", רח' הסיבים 7, פתח תקווה",
    "text": "",
    "stayTimes": "23:00-23:59",
    "t_start": "2020-03-12T21:00:00",
    "t_end": "2020-03-12T21:59:00",
    "link": ""
  },
  {
    "id": 21854,
    "lat": 32.0811212,
    "lon": 34.7737281,
    "label": "בר \"דיזי פרידשון\", דיזינגוף 131, תל אביב",
    "text": "",
    "stayTimes": "23:00-03:00",
    "t_start": "2020-03-12T21:00:00",
    "t_end": "2020-03-12T01:00:00",
    "link": ""
  },
  {
    "id": 21855,
    "lat": 32.0684112000001,
    "lon": 34.7773384000001,
    "label": "סופרמרקט am:pm, רח' שינקין 59 פינת אחד העם, תל אביב",
    "text": "",
    "stayTimes": "23:00-23:15",
    "t_start": "2020-03-12T21:00:00",
    "t_end": "2020-03-12T21:15:00",
    "link": ""
  },
  {
    "id": 21856,
    "lat": 32.098098775,
    "lon": 34.8412478390001,
    "label": "כולל היכל שמואל - בני ברק",
    "text": "",
    "stayTimes": "23:00 - 01:00",
    "t_start": "2020-03-12T21:00:00",
    "t_end": "2020-03-12T23:00:00",
    "link": ""
  },
  {
    "id": 21857,
    "lat": 32.1514060000001,
    "lon": 34.8433383,
    "label": "סופר פארם \"צמרות\", רחוב צמרות 2, הרצליה",
    "text": "",
    "stayTimes": "23:15-00:45",
    "t_start": "2020-03-12T21:15:00",
    "t_end": "2020-03-11T22:45:00",
    "link": ""
  },
  {
    "id": 21858,
    "lat": 32.0907700000001,
    "lon": 34.8573000000001,
    "label": "פאב \"דרינק פוינט\", רח' הסיבים 7, פתח תקווה",
    "text": "",
    "stayTimes": "00:00-01:00",
    "t_start": "2020-03-12T22:00:00",
    "t_end": "2020-03-12T23:00:00",
    "link": ""
  },
  {
    "id": 21859,
    "lat": 32.0907700000001,
    "lon": 34.8573000000001,
    "label": "פאב \"דרינק פוינט\", רח' הסיבים 7, פתח תקווה",
    "text": "",
    "stayTimes": "00:00-01:00",
    "t_start": "2020-03-12T22:00:00",
    "t_end": "2020-03-12T23:00:00",
    "link": ""
  },
  {
    "id": 21860,
    "lat": 32.0360309000001,
    "lon": 34.7627074000001,
    "label": "בית חולים וולפסון",
    "text": "",
    "stayTimes": "00:00-23:59",
    "t_start": "2020-03-12T22:00:00",
    "t_end": "2020-03-13T21:59:00",
    "link": ""
  },
  {
    "id": 21861,
    "lat": 32.9584609,
    "lon": 35.4991753,
    "label": "ישיבת חינוך לנער, צפת",
    "text": "",
    "stayTimes": "00:00-02:00",
    "t_start": "2020-03-12T22:00:00",
    "t_end": "2020-03-13T00:00:00",
    "link": ""
  },
  {
    "id": 21862,
    "lat": 32.971981,
    "lon": 35.4942120000001,
    "label": "ישיבת חב\"ד הגדולה, צפת",
    "text": "",
    "stayTimes": "00:00-23:59",
    "t_start": "2020-03-12T22:00:00",
    "t_end": "2020-03-13T21:59:00",
    "link": ""
  },
  {
    "id": 21863,
    "lat": 31.6111480000001,
    "lon": 34.7684590000001,
    "label": "בית הכנסת חסדי ישי, קרית גת",
    "text": "",
    "stayTimes": "10:00-12:30",
    "t_start": "2020-03-13T08:00:00",
    "t_end": "2020-03-13T10:30:00",
    "link": ""
  },
  {
    "id": 21864,
    "lat": 31.6111480000001,
    "lon": 34.7684590000001,
    "label": "בית הכנסת חסדי ישי, קרית גת",
    "text": "",
    "stayTimes": "18:15-19:15",
    "t_start": "2020-03-13T16:15:00",
    "t_end": "2020-03-13T17:15:00",
    "link": ""
  },
  {
    "id": 21865,
    "lat": 32.6773627000001,
    "lon": 35.2521039000001,
    "label": "בית כנסת ברסלב מגדל העמק",
    "text": "",
    "stayTimes": "16:00-18:00",
    "t_start": "2020-03-13T14:00:00",
    "t_end": "2020-03-13T16:00:00",
    "link": ""
  },
  {
    "id": 21866,
    "lat": 32.6821880000001,
    "lon": 35.2428180000001,
    "label": "בית כנסת נר יוסף רחוב הנגב מגדל העמק",
    "text": "",
    "stayTimes": "16:00-18:00",
    "t_start": "2020-03-13T14:00:00",
    "t_end": "2020-03-13T16:00:00",
    "link": ""
  },
  {
    "id": 21867,
    "lat": 32.7795991,
    "lon": 35.5169531000001,
    "label": "סופרמרקט \"יש חסד\", הנשיא ויצמן 1117, א.ת. שיכון ד', טבריה",
    "text": "",
    "stayTimes": "13:00-13:30",
    "t_start": "2020-03-13T11:00:00",
    "t_end": "2020-03-13T11:30:00",
    "link": ""
  },
  {
    "id": 21868,
    "lat": 32.0628413000001,
    "lon": 34.7731424,
    "label": "ספוטניק בר\" ברחוב אלנבי 122, תל אביב",
    "text": "",
    "stayTimes": "02:15-04:15",
    "t_start": "2020-03-13T00:15:00",
    "t_end": "2020-03-13T02:15:00",
    "link": ""
  },
  {
    "id": 21869,
    "lat": 31.8087788,
    "lon": 34.78599,
    "label": "בית כנסת חב\"ד, רחוב יסמין, גדרה.",
    "text": "",
    "stayTimes": "17:30-18:30",
    "t_start": "2020-03-13T15:30:00",
    "t_end": "2020-03-13T16:30:00",
    "link": ""
  },
  {
    "id": 21870,
    "lat": 32.8083407,
    "lon": 35.0543154000001,
    "label": "אולם הנסיכה, צ'ק פוסט",
    "text": "",
    "stayTimes": "11:30-12:00",
    "t_start": "2020-03-13T09:30:00",
    "t_end": "2020-03-13T10:00:00",
    "link": ""
  },
  {
    "id": 21871,
    "lat": 32.2692212000001,
    "lon": 34.8906791000001,
    "label": "בית חב\"ד, רחוב המייסדים 41, אבן יהודה",
    "text": "",
    "stayTimes": "17:00-19:30",
    "t_start": "2020-03-13T15:00:00",
    "t_end": "2020-03-13T17:30:00",
    "link": ""
  },
  {
    "id": 21872,
    "lat": 31.249581,
    "lon": 35.0828680000001,
    "label": "קופת חולים כללית, כסיפה א'",
    "text": "",
    "stayTimes": "08:00-12:00",
    "t_start": "2020-03-13T06:00:00",
    "t_end": "2020-03-13T10:00:00",
    "link": ""
  },
  {
    "id": 21873,
    "lat": 31.2377605,
    "lon": 34.7859917000001,
    "label": "מסעדת קפריס, רחוב הרצל, באר שבע",
    "text": "",
    "stayTimes": "20:00-00:00",
    "t_start": "2020-03-13T18:00:00",
    "t_end": "2020-03-12T22:00:00",
    "link": ""
  },
  {
    "id": 21874,
    "lat": 32.0495300000001,
    "lon": 34.95075,
    "label": "בית כנסת \"משכנות נריה\", אלעד",
    "text": "",
    "stayTimes": "05:45-06:20",
    "t_start": "2020-03-13T03:45:00",
    "t_end": "2020-03-13T04:20:00",
    "link": ""
  },
  {
    "id": 21875,
    "lat": 32.7795991,
    "lon": 35.5169531000001,
    "label": "סופרמרקט \"יש חסד\", הנשיא ויצמן 1117, א.ת. שיכון ד', טבריה",
    "text": "",
    "stayTimes": "13:00-13:30",
    "t_start": "2020-03-13T11:00:00",
    "t_end": "2020-03-13T11:30:00",
    "link": ""
  },
  {
    "id": 21876,
    "lat": 32.842670275,
    "lon": 35.0689034820001,
    "label": "חנות לבגדי נשים \"לילוש\" בקרית ים - שד' ירושלים 51",
    "text": "",
    "stayTimes": "00:02-23:58",
    "t_start": "2020-03-12T22:02:00",
    "t_end": "2020-03-13T21:58:00",
    "link": ""
  },
  {
    "id": 21877,
    "lat": 31.9073958610001,
    "lon": 34.9978718520001,
    "label": "סופר קייזר בקייזר סנטר רח' אבני החושן 12 מודיעין",
    "text": "",
    "stayTimes": "12:00-12:15",
    "t_start": "2020-03-13T10:00:00",
    "t_end": "2020-03-13T10:15:00",
    "link": ""
  },
  {
    "id": 21878,
    "lat": 31.651397108,
    "lon": 35.153772539,
    "label": "חדר כושר באפרת",
    "text": "",
    "stayTimes": "12:00-14:00",
    "t_start": "2020-03-13T10:00:00",
    "t_end": "2020-03-13T12:00:00",
    "link": ""
  },
  {
    "id": 21879,
    "lat": 31.9908489000001,
    "lon": 34.7610698,
    "label": "סופרמרקט \"אושר עד\", רח' אצ\"ל 24 ראשל\"צ",
    "text": "",
    "stayTimes": "23:30-00:30",
    "t_start": "2020-03-13T21:30:00",
    "t_end": "2020-03-12T22:30:00",
    "link": ""
  },
  {
    "id": 21880,
    "lat": 31.87904,
    "lon": 35.248254,
    "label": "בית כנסת בבית מדרש \"אוהלי שם\" רח' נהר שלום כוכב יעקב",
    "text": "",
    "stayTimes": "05:15-06:16",
    "t_start": "2020-03-13T03:15:00",
    "t_end": "2020-03-13T04:16:00",
    "link": ""
  },
  {
    "id": 21881,
    "lat": 31.87904,
    "lon": 35.248254,
    "label": "בית כנסת בבית מדרש \"אוהלי שם\" רח' נהר שלום כוכב יעקב",
    "text": "",
    "stayTimes": "07:25-07:40",
    "t_start": "2020-03-13T05:25:00",
    "t_end": "2020-03-13T05:40:00",
    "link": ""
  },
  {
    "id": 21882,
    "lat": 31.87904,
    "lon": 35.248254,
    "label": "בית כנסת בבית מדרש \"אוהלי שם\" רח' נהר שלום כוכב יעקב",
    "text": "",
    "stayTimes": "17:00-18:30",
    "t_start": "2020-03-13T15:00:00",
    "t_end": "2020-03-13T16:30:00",
    "link": ""
  },
  {
    "id": 21883,
    "lat": 31.7896423,
    "lon": 35.1739899,
    "label": "בית כנסת אמרי שפר, רח' קצנלבוגן 1, הר נוף, ירושלים",
    "text": "",
    "stayTimes": "10:00-11:00",
    "t_start": "2020-03-13T08:00:00",
    "t_end": "2020-03-13T09:00:00",
    "link": ""
  },
  {
    "id": 21884,
    "lat": 31.7861401000001,
    "lon": 35.1737005000001,
    "label": "סופר יש, רח' שאולזון, הר נוף, ירושלים",
    "text": "",
    "stayTimes": "13:00-13:30",
    "t_start": "2020-03-13T11:00:00",
    "t_end": "2020-03-13T11:30:00",
    "link": ""
  },
  {
    "id": 21885,
    "lat": 31.7547198,
    "lon": 35.2160602000001,
    "label": "בורקס אמא, רח' רבקה, ירושלים",
    "text": "",
    "stayTimes": "12:00-12:15",
    "t_start": "2020-03-13T10:00:00",
    "t_end": "2020-03-13T10:15:00",
    "link": ""
  },
  {
    "id": 21886,
    "lat": 32.033714,
    "lon": 34.8925797000001,
    "label": "\"סופר אדוארד\" רח' ויצמן 55, יהוד",
    "text": "",
    "stayTimes": "08:00-08:30",
    "t_start": "2020-03-13T06:00:00",
    "t_end": "2020-03-13T06:30:00",
    "link": ""
  },
  {
    "id": 21887,
    "lat": 32.0988889000001,
    "lon": 34.8297222,
    "label": "סופרמרקט \"אושר עד\", רח' הקישון 11, בני ברק",
    "text": "",
    "stayTimes": "09:30-11:00",
    "t_start": "2020-03-13T07:30:00",
    "t_end": "2020-03-13T09:00:00",
    "link": ""
  },
  {
    "id": 21888,
    "lat": 31.9908489000001,
    "lon": 34.7610698,
    "label": "אושר עד, רח' אצ\"ל 24",
    "text": "",
    "stayTimes": "23:30-00:30",
    "t_start": "2020-03-13T21:30:00",
    "t_end": "2020-03-12T22:30:00",
    "link": ""
  },
  {
    "id": 21889,
    "lat": 31.6535890000001,
    "lon": 35.149934,
    "label": "בית כנסת מרכזי התמר, אפרת",
    "text": "",
    "stayTimes": "00:02-23:58",
    "t_start": "2020-03-12T22:02:00",
    "t_end": "2020-03-13T21:58:00",
    "link": ""
  },
  {
    "id": 21890,
    "lat": 32.0893800000001,
    "lon": 34.8569900000001,
    "label": "מסעדת \"אבולעפיה\", רח' הסיבים 19, פתח תקווה",
    "text": "",
    "stayTimes": "01:00-01:30",
    "t_start": "2020-03-12T23:00:00",
    "t_end": "2020-03-12T23:30:00",
    "link": ""
  },
  {
    "id": 21891,
    "lat": 32.0893800000001,
    "lon": 34.8569900000001,
    "label": "מסעדת \"אבולעפיה\", רח' הסיבים 19, פתח תקווה",
    "text": "",
    "stayTimes": "01:00-01:30",
    "t_start": "2020-03-12T23:00:00",
    "t_end": "2020-03-12T23:30:00",
    "link": ""
  },
  {
    "id": 21892,
    "lat": 32.0371900000001,
    "lon": 34.89205,
    "label": "בית כנסת \"אור לשבים\" יהוד",
    "text": "",
    "stayTimes": "05:00-07:00",
    "t_start": "2020-03-13T03:00:00",
    "t_end": "2020-03-13T05:00:00",
    "link": ""
  },
  {
    "id": 21893,
    "lat": 31.8664694,
    "lon": 34.7360281000001,
    "label": "מאפיית דרך הלחם - יבנה",
    "text": "",
    "stayTimes": "05:00 - 15:00",
    "t_start": "2020-03-13T03:00:00",
    "t_end": "2020-03-13T13:00:00",
    "link": ""
  },
  {
    "id": 21894,
    "lat": 31.8026394450001,
    "lon": 35.099022694,
    "label": "בית כנסת 'בני ישיבות' קרית יערים (טלז סטון)",
    "text": "",
    "stayTimes": "05:20-06:30",
    "t_start": "2020-03-13T03:20:00",
    "t_end": "2020-03-13T04:30:00",
    "link": ""
  },
  {
    "id": 21895,
    "lat": 31.3263210000001,
    "lon": 34.6489340000001,
    "label": "בית כנסת מגן שלמה, מושב גילת",
    "text": "",
    "stayTimes": "05:45-06:30",
    "t_start": "2020-03-13T03:45:00",
    "t_end": "2020-03-13T04:30:00",
    "link": ""
  },
  {
    "id": 21896,
    "lat": 32.0800752000001,
    "lon": 34.9019874000001,
    "label": "רחוב אלעזר פתח תקווה",
    "text": "",
    "stayTimes": "06:00-06:30",
    "t_start": "2020-03-13T04:00:00",
    "t_end": "2020-03-13T04:30:00",
    "link": ""
  },
  {
    "id": 21897,
    "lat": 32.693576159,
    "lon": 35.2649098810001,
    "label": "בית כנסת עולי אירופה - מגדל העמק",
    "text": "",
    "stayTimes": "06:00 - 06:30",
    "t_start": "2020-03-13T04:00:00",
    "t_end": "2020-03-13T04:30:00",
    "link": ""
  },
  {
    "id": 21898,
    "lat": 31.9035949,
    "lon": 34.9947624000001,
    "label": "בית כנסת \"חושן\" רחוב הבדולח 12 מודיעין",
    "text": "",
    "stayTimes": "07:00-08:00",
    "t_start": "2020-03-13T05:00:00",
    "t_end": "2020-03-13T06:00:00",
    "link": ""
  },
  {
    "id": 21899,
    "lat": 31.8026394450001,
    "lon": 35.099022694,
    "label": "כולל 'נחלי דעת' קרית יערים (טלז סטון)",
    "text": "",
    "stayTimes": "07:00-13:00",
    "t_start": "2020-03-13T05:00:00",
    "t_end": "2020-03-13T11:00:00",
    "link": ""
  },
  {
    "id": 21900,
    "lat": 31.6548710000001,
    "lon": 35.125256,
    "label": "בית כנסת הישן, ישוב אלון שבות",
    "text": "",
    "stayTimes": "07:20-07:50",
    "t_start": "2020-03-13T05:20:00",
    "t_end": "2020-03-13T05:50:00",
    "link": ""
  },
  {
    "id": 21901,
    "lat": 32.0972669000001,
    "lon": 34.8379174,
    "label": "בית כנסת \"זיו יהודה\" ושטיבלאך, שד' אריה לוין בבני ברק",
    "text": "",
    "stayTimes": "07:30-08:00",
    "t_start": "2020-03-13T05:30:00",
    "t_end": "2020-03-13T06:00:00",
    "link": ""
  },
  {
    "id": 21902,
    "lat": 32.0972214,
    "lon": 34.84142,
    "label": "בית כנסת הרב שחף, רח' הרב נויפלד 10 בבני ברק",
    "text": "",
    "stayTimes": "07:30-08:00",
    "t_start": "2020-03-13T05:30:00",
    "t_end": "2020-03-13T06:00:00",
    "link": ""
  },
  {
    "id": 21903,
    "lat": 32.086465339,
    "lon": 34.832410714,
    "label": "מקווה צאנז - בני ברק",
    "text": "",
    "stayTimes": "07:30 - 07:50",
    "t_start": "2020-03-13T05:30:00",
    "t_end": "2020-03-13T05:50:00",
    "link": ""
  },
  {
    "id": 21904,
    "lat": 31.6576710000001,
    "lon": 35.1235129,
    "label": "ישיבת הר עציון ישוב אלון שבות",
    "text": "",
    "stayTimes": "07:50-08:15",
    "t_start": "2020-03-13T05:50:00",
    "t_end": "2020-03-13T06:15:00",
    "link": ""
  },
  {
    "id": 21905,
    "lat": 31.8954340000001,
    "lon": 34.8226080000001,
    "label": "קופ\"ח כללית רחוב הפלמ\"ח 17 רחובות",
    "text": "",
    "stayTimes": "08:00-08:30",
    "t_start": "2020-03-13T06:00:00",
    "t_end": "2020-03-13T06:30:00",
    "link": ""
  },
  {
    "id": 21906,
    "lat": 31.8954340000001,
    "lon": 34.8226080000001,
    "label": "קופ\"ח כללית רחוב הפלמ\"ח 17 רחובות",
    "text": "",
    "stayTimes": "08:00-08:30",
    "t_start": "2020-03-13T06:00:00",
    "t_end": "2020-03-13T06:30:00",
    "link": ""
  },
  {
    "id": 21907,
    "lat": 31.721989154,
    "lon": 35.2241539880001,
    "label": "בית הכנסת ברחוב הרב מנהר 4, הר חומה, ירושלים",
    "text": "",
    "stayTimes": "08:00-08:45",
    "t_start": "2020-03-13T06:00:00",
    "t_end": "2020-03-13T06:45:00",
    "link": ""
  },
  {
    "id": 21908,
    "lat": 32.1912984000001,
    "lon": 34.863387,
    "label": "קפה שלונסקי - רעננה",
    "text": "",
    "stayTimes": "08:00 - 13:30",
    "t_start": "2020-03-13T06:00:00",
    "t_end": "2020-03-13T11:30:00",
    "link": ""
  },
  {
    "id": 21909,
    "lat": 31.7218871220001,
    "lon": 35.224857232,
    "label": "בית כנסת - ירושלים",
    "text": "",
    "stayTimes": "08:00 - 08:45",
    "t_start": "2020-03-13T06:00:00",
    "t_end": "2020-03-13T06:45:00",
    "link": ""
  },
  {
    "id": 21910,
    "lat": 32.031667068,
    "lon": 34.887128659,
    "label": "בית כנסת ברסלב, רחוב סעדיה יהוד",
    "text": "",
    "stayTimes": "08:20-09:30",
    "t_start": "2020-03-13T06:20:00",
    "t_end": "2020-03-13T07:30:00",
    "link": ""
  },
  {
    "id": 21911,
    "lat": 31.6576710000001,
    "lon": 35.1235129,
    "label": "ישיבת הר עציון ישוב אלון שבות",
    "text": "",
    "stayTimes": "08:30-10:00",
    "t_start": "2020-03-13T06:30:00",
    "t_end": "2020-03-13T08:00:00",
    "link": ""
  },
  {
    "id": 21912,
    "lat": 31.8031406000001,
    "lon": 35.1000709,
    "label": "בית הכנסת \"בית אברהם\", רחוב אזניים לתורה 1, קרית יערים (טלז סטון)",
    "text": "",
    "stayTimes": "08:30-09:30",
    "t_start": "2020-03-13T06:30:00",
    "t_end": "2020-03-13T07:30:00",
    "link": ""
  },
  {
    "id": 21913,
    "lat": 32.0305322,
    "lon": 34.8783655,
    "label": "פארם בקניון סביונים ביהוד, קומה שנייה",
    "text": "",
    "stayTimes": "08:30-09:30",
    "t_start": "2020-03-13T06:30:00",
    "t_end": "2020-03-13T07:30:00",
    "link": ""
  },
  {
    "id": 21914,
    "lat": 31.664063969,
    "lon": 35.1565482390001,
    "label": "סופר דיל - אפרת",
    "text": "",
    "stayTimes": "08:30 - 08:45",
    "t_start": "2020-03-13T06:30:00",
    "t_end": "2020-03-13T06:45:00",
    "link": ""
  },
  {
    "id": 21915,
    "lat": 31.7672858,
    "lon": 35.2018044000001,
    "label": "סופר פארם ניות - ירושלים",
    "text": "",
    "stayTimes": "08:45 - 09:30",
    "t_start": "2020-03-13T06:45:00",
    "t_end": "2020-03-13T07:30:00",
    "link": ""
  },
  {
    "id": 21916,
    "lat": 31.8944963000001,
    "lon": 34.8040921,
    "label": "קופ\"ח כללית \"רמז\" רחוב דוד רמז 71 רחובות",
    "text": "",
    "stayTimes": "08:50-09:00",
    "t_start": "2020-03-13T06:50:00",
    "t_end": "2020-03-13T07:00:00",
    "link": ""
  },
  {
    "id": 21917,
    "lat": 31.8944963000001,
    "lon": 34.8040921,
    "label": "קופ\"ח כללית \"רמז\" רחוב דוד רמז 71 רחובות",
    "text": "",
    "stayTimes": "08:50-09:00",
    "t_start": "2020-03-13T06:50:00",
    "t_end": "2020-03-13T07:00:00",
    "link": ""
  },
  {
    "id": 21918,
    "lat": 32.0950616000001,
    "lon": 34.7786835000001,
    "label": "מועדון כושר \"קולנוע פאר\", רחוב ישעיה 1, תל אביב",
    "text": "",
    "stayTimes": "09:00-10:30",
    "t_start": "2020-03-13T07:00:00",
    "t_end": "2020-03-13T08:30:00",
    "link": ""
  },
  {
    "id": 21919,
    "lat": 31.8944963000001,
    "lon": 34.8040921,
    "label": "מרפאת עיניים קופ\"ח כללית \"רמז\" רחוב דוד רמז 71 רחובות",
    "text": "",
    "stayTimes": "09:00-09:40",
    "t_start": "2020-03-13T07:00:00",
    "t_end": "2020-03-13T07:40:00",
    "link": ""
  },
  {
    "id": 21920,
    "lat": 31.8944963000001,
    "lon": 34.8040921,
    "label": "מרפאת עיניים קופ\"ח כללית \"רמז\" רחוב דוד רמז 71 רחובות",
    "text": "",
    "stayTimes": "09:00-09:40",
    "t_start": "2020-03-13T07:00:00",
    "t_end": "2020-03-13T07:40:00",
    "link": ""
  },
  {
    "id": 21921,
    "lat": 32.6778114000001,
    "lon": 35.2417497000001,
    "label": "מועדון נוער \"אור ישראלי\" מגדל העמק",
    "text": "",
    "stayTimes": "09:00-13:00",
    "t_start": "2020-03-13T07:00:00",
    "t_end": "2020-03-13T11:00:00",
    "link": ""
  },
  {
    "id": 21922,
    "lat": 31.7856547000001,
    "lon": 35.2250446,
    "label": "ישיבת \"תולדות אהרון\", ירושלים",
    "text": "",
    "stayTimes": "09:00-09:40",
    "t_start": "2020-03-13T07:00:00",
    "t_end": "2020-03-13T07:40:00",
    "link": ""
  },
  {
    "id": 21923,
    "lat": 32.6933333000001,
    "lon": 35.3036111000001,
    "label": "חנות גליתא - דודג' סנטר - נוף הגליל",
    "text": "",
    "stayTimes": "09:00 - 14:00",
    "t_start": "2020-03-13T07:00:00",
    "t_end": "2020-03-13T12:00:00",
    "link": ""
  },
  {
    "id": 21924,
    "lat": 32.05602,
    "lon": 34.8825900000001,
    "label": "מקווה בסביון ברח' הדרים",
    "text": "",
    "stayTimes": "09:30-09:45",
    "t_start": "2020-03-13T07:30:00",
    "t_end": "2020-03-13T07:45:00",
    "link": ""
  },
  {
    "id": 21925,
    "lat": 31.612332,
    "lon": 34.7659800000001,
    "label": "מקווה יחזקאל, קרית גת",
    "text": "",
    "stayTimes": "09:30-10:00",
    "t_start": "2020-03-13T07:30:00",
    "t_end": "2020-03-13T08:00:00",
    "link": ""
  },
  {
    "id": 21926,
    "lat": 32.3112272000001,
    "lon": 34.9365342,
    "label": "סופר מגה בעיר מנחם בגין 44 כפר יונה",
    "text": "",
    "stayTimes": "09:30-10:00",
    "t_start": "2020-03-13T07:30:00",
    "t_end": "2020-03-13T08:00:00",
    "link": ""
  },
  {
    "id": 21927,
    "lat": 32.0685326,
    "lon": 34.7761506000001,
    "label": "מינימרקט \"שורצקי\", רח' שינקין 54, תל אביב",
    "text": "",
    "stayTimes": "09:30-10:00",
    "t_start": "2020-03-13T07:30:00",
    "t_end": "2020-03-13T08:00:00",
    "link": ""
  },
  {
    "id": 21928,
    "lat": 32.0779264,
    "lon": 34.8398083000001,
    "label": "\"כולל אדרת אליהו\", רח' בן יעקב 17, בני ברק",
    "text": "",
    "stayTimes": "09:30-13:00",
    "t_start": "2020-03-13T07:30:00",
    "t_end": "2020-03-13T11:00:00",
    "link": ""
  },
  {
    "id": 21929,
    "lat": 32.0864001,
    "lon": 34.8301802,
    "label": "משביר לעמו - בני ברק",
    "text": "",
    "stayTimes": "09:30 - 09:50",
    "t_start": "2020-03-13T07:30:00",
    "t_end": "2020-03-13T07:50:00",
    "link": ""
  },
  {
    "id": 21930,
    "lat": 32.0289263280001,
    "lon": 34.8889793220001,
    "label": "סופר מאיר, רחוב סעדיה חתוכה, יהוד",
    "text": "",
    "stayTimes": "09:40-10:00",
    "t_start": "2020-03-13T07:40:00",
    "t_end": "2020-03-13T08:00:00",
    "link": ""
  },
  {
    "id": 21931,
    "lat": 31.7545463000001,
    "lon": 35.2200407,
    "label": "סופר- דיל דרך בת לחם - ירושלים",
    "text": "",
    "stayTimes": "09:45 - 10:00",
    "t_start": "2020-03-13T07:45:00",
    "t_end": "2020-03-13T08:00:00",
    "link": ""
  },
  {
    "id": 21932,
    "lat": 31.8954340000001,
    "lon": 34.8226080000001,
    "label": "קופ\"ח כללית רחוב פלמ\"ח 17 רחובות קומה א'",
    "text": "",
    "stayTimes": "10:00-10:30",
    "t_start": "2020-03-13T08:00:00",
    "t_end": "2020-03-13T08:30:00",
    "link": ""
  },
  {
    "id": 21933,
    "lat": 31.8954340000001,
    "lon": 34.8226080000001,
    "label": "קופ\"ח כללית רחוב פלמ\"ח 17 רחובות קומה א'",
    "text": "",
    "stayTimes": "10:00-10:30",
    "t_start": "2020-03-13T08:00:00",
    "t_end": "2020-03-13T08:30:00",
    "link": ""
  },
  {
    "id": 21934,
    "lat": 31.9669506000001,
    "lon": 34.8407762530001,
    "label": "קניון בית החולים שמיר",
    "text": "",
    "stayTimes": "10:00-11:30",
    "t_start": "2020-03-13T08:00:00",
    "t_end": "2020-03-13T09:30:00",
    "link": ""
  },
  {
    "id": 21935,
    "lat": 32.1854841000001,
    "lon": 34.8544072,
    "label": "סופרמרקט \"ויקטורי\" רח' ירושלים 34 רעננה",
    "text": "",
    "stayTimes": "10:00-11:15",
    "t_start": "2020-03-13T08:00:00",
    "t_end": "2020-03-13T09:15:00",
    "link": ""
  },
  {
    "id": 21936,
    "lat": 32.1861476,
    "lon": 34.8545996,
    "label": "סופרמרקט ״ויקטורי״ רח׳ ירושלים 34, רעננה",
    "text": "",
    "stayTimes": "10:00-11:15",
    "t_start": "2020-03-13T08:00:00",
    "t_end": "2020-03-13T09:15:00",
    "link": ""
  },
  {
    "id": 21937,
    "lat": 32.1060032,
    "lon": 34.9413999000001,
    "label": "קייטרינג רוזמרין רחוב העבודה 7, ראש העין",
    "text": "",
    "stayTimes": "10:00-12:00",
    "t_start": "2020-03-13T08:00:00",
    "t_end": "2020-03-13T10:00:00",
    "link": ""
  },
  {
    "id": 21938,
    "lat": 32.4407789000001,
    "lon": 34.8949244,
    "label": "יוחננוף מול הים - חדרה",
    "text": "",
    "stayTimes": "10:00 - 11:00",
    "t_start": "2020-03-13T08:00:00",
    "t_end": "2020-03-13T09:00:00",
    "link": ""
  },
  {
    "id": 21939,
    "lat": 31.9030635770001,
    "lon": 34.996446335,
    "label": "סופר קייזר – רח' אבני החושן מודיעין",
    "text": "",
    "stayTimes": "10:10-10:45",
    "t_start": "2020-03-13T08:10:00",
    "t_end": "2020-03-13T08:45:00",
    "link": ""
  },
  {
    "id": 21940,
    "lat": 33.0009850000001,
    "lon": 35.0969043000001,
    "label": "שופרסל רח' לוחמי הגטאות 36, נהריה",
    "text": "",
    "stayTimes": "10:30-11:00",
    "t_start": "2020-03-13T08:30:00",
    "t_end": "2020-03-13T09:00:00",
    "link": ""
  },
  {
    "id": 21941,
    "lat": 31.8986272000001,
    "lon": 35.015185,
    "label": "ספריה מרכזית מודיעין",
    "text": "",
    "stayTimes": "10:30-10:50",
    "t_start": "2020-03-13T08:30:00",
    "t_end": "2020-03-13T08:50:00",
    "link": ""
  },
  {
    "id": 21942,
    "lat": 31.8988459,
    "lon": 35.0148796,
    "label": " רח' עמק דותן 49 מרכז רב- תחומי, מודיעין.",
    "text": "",
    "stayTimes": "10:30-11:00",
    "t_start": "2020-03-13T08:30:00",
    "t_end": "2020-03-13T09:00:00",
    "link": ""
  },
  {
    "id": 21943,
    "lat": 31.8988459,
    "lon": 35.0148796,
    "label": " רח' עמק דותן 49 מרכז רב- תחומי, מודיעין",
    "text": "",
    "stayTimes": "10:30-11:00",
    "t_start": "2020-03-13T08:30:00",
    "t_end": "2020-03-13T09:00:00",
    "link": ""
  },
  {
    "id": 21944,
    "lat": 31.7540687000001,
    "lon": 35.2132365000001,
    "label": "חנות \"הפיראט האדום\" תלפיות מתחת לקניון הדר - ירושלים",
    "text": "",
    "stayTimes": "10:30 - 10:45",
    "t_start": "2020-03-13T08:30:00",
    "t_end": "2020-03-13T08:45:00",
    "link": ""
  },
  {
    "id": 21945,
    "lat": 32.0716067000001,
    "lon": 34.8290158,
    "label": "שופרסל שלי מרכז מרום נווה - רמת גן",
    "text": "",
    "stayTimes": "10:45 - 11:00",
    "t_start": "2020-03-13T08:45:00",
    "t_end": "2020-03-13T09:00:00",
    "link": ""
  },
  {
    "id": 21946,
    "lat": 31.8992523000001,
    "lon": 35.0147152000001,
    "label": "עמק דותן 49 מודיעין",
    "text": "",
    "stayTimes": "10:50-11:00",
    "t_start": "2020-03-13T08:50:00",
    "t_end": "2020-03-13T09:00:00",
    "link": ""
  },
  {
    "id": 21947,
    "lat": 31.9004192,
    "lon": 35.008295,
    "label": "בית הרופאים רח' ערער 9 מודיעין",
    "text": "",
    "stayTimes": "11:00-11:30",
    "t_start": "2020-03-13T09:00:00",
    "t_end": "2020-03-13T09:30:00",
    "link": ""
  },
  {
    "id": 21948,
    "lat": 33.0043190000001,
    "lon": 35.0982285000001,
    "label": "קשת טעמים רח' לוחמי הגטאות 9, נהריה",
    "text": "",
    "stayTimes": "11:00-11:15",
    "t_start": "2020-03-13T09:00:00",
    "t_end": "2020-03-13T09:15:00",
    "link": ""
  },
  {
    "id": 21949,
    "lat": 31.8893826,
    "lon": 34.9625248,
    "label": "חנות מחשבים \"אייבורי\" ישפרו מודיעין",
    "text": "",
    "stayTimes": "11:00-11:30",
    "t_start": "2020-03-13T09:00:00",
    "t_end": "2020-03-13T09:30:00",
    "link": ""
  },
  {
    "id": 21950,
    "lat": 31.8898011000001,
    "lon": 34.9628105,
    "label": "חנות \"\"אייבורי\"\", \"\"ישפרו סנטר\"\", רח' המלאכות, מודיעין.",
    "text": "",
    "stayTimes": "11:00-11:30",
    "t_start": "2020-03-13T09:00:00",
    "t_end": "2020-03-13T09:30:00",
    "link": ""
  },
  {
    "id": 21951,
    "lat": 31.8893826,
    "lon": 34.9625248,
    "label": "\"אייבורי\", \"ישפרו סנטר\", רח' המלאכות, מודיעין.",
    "text": "",
    "stayTimes": "11:00-11:30",
    "t_start": "2020-03-13T09:00:00",
    "t_end": "2020-03-13T09:30:00",
    "link": ""
  },
  {
    "id": 21952,
    "lat": 31.7818868000001,
    "lon": 35.1615608000001,
    "label": "בית קפה דרך הגפן, מושב בית זית 24",
    "text": "",
    "stayTimes": "11:00-13:00",
    "t_start": "2020-03-13T09:00:00",
    "t_end": "2020-03-13T11:00:00",
    "link": ""
  },
  {
    "id": 21953,
    "lat": 32.9900208,
    "lon": 35.0844446,
    "label": "אטליז גבאי רח' השקד 38, נהריה",
    "text": "",
    "stayTimes": "11:15-11:35",
    "t_start": "2020-03-13T09:15:00",
    "t_end": "2020-03-13T09:35:00",
    "link": ""
  },
  {
    "id": 21954,
    "lat": 31.417696,
    "lon": 34.5925580000001,
    "label": "יוחננוף, נתיבות",
    "text": "",
    "stayTimes": "11:15-11:30",
    "t_start": "2020-03-13T09:15:00",
    "t_end": "2020-03-13T09:30:00",
    "link": ""
  },
  {
    "id": 21955,
    "lat": 32.0662875,
    "lon": 34.7706386,
    "label": "בית קפה \"בירנבאום\", רחוב נחלת בנימין 31, תל אביב",
    "text": "",
    "stayTimes": "11:30-13:45",
    "t_start": "2020-03-13T09:30:00",
    "t_end": "2020-03-13T11:45:00",
    "link": ""
  },
  {
    "id": 21956,
    "lat": 31.9006391,
    "lon": 35.0078202,
    "label": "סופר פארם קניון עזריאלי מודיעין",
    "text": "",
    "stayTimes": "11:30-12:00",
    "t_start": "2020-03-13T09:30:00",
    "t_end": "2020-03-13T10:00:00",
    "link": ""
  },
  {
    "id": 21957,
    "lat": 31.8898011000001,
    "lon": 34.9628105,
    "label": " חנות \"מגה ספורט\" ישפרו מודיעין",
    "text": "",
    "stayTimes": "11:30-11:40",
    "t_start": "2020-03-13T09:30:00",
    "t_end": "2020-03-13T09:40:00",
    "link": ""
  },
  {
    "id": 21958,
    "lat": 31.2450371730001,
    "lon": 34.783172415,
    "label": "הולמס פליס - באר שבע",
    "text": "",
    "stayTimes": "11:30 - 12:30",
    "t_start": "2020-03-13T09:30:00",
    "t_end": "2020-03-13T10:30:00",
    "link": ""
  },
  {
    "id": 21959,
    "lat": 32.0861406000001,
    "lon": 34.7790996000001,
    "label": "שופרסל, רחוב ארלוזורוב 53, תל אביב",
    "text": "",
    "stayTimes": "12:00-13:00",
    "t_start": "2020-03-13T10:00:00",
    "t_end": "2020-03-13T11:00:00",
    "link": ""
  },
  {
    "id": 21960,
    "lat": 31.7713271000001,
    "lon": 35.2984768000001,
    "label": "קניון מעלה אדומים, שופרסל ודלתא - מעלה אדומים",
    "text": "",
    "stayTimes": "12:00 - 13:30",
    "t_start": "2020-03-13T10:00:00",
    "t_end": "2020-03-13T11:30:00",
    "link": ""
  },
  {
    "id": 21961,
    "lat": 32.0371900000001,
    "lon": 34.89205,
    "label": "בית כנסת \"אור לשבים\" יהוד",
    "text": "",
    "stayTimes": "12:30-13:00",
    "t_start": "2020-03-13T10:30:00",
    "t_end": "2020-03-13T11:00:00",
    "link": ""
  },
  {
    "id": 21962,
    "lat": 32.0787578000001,
    "lon": 34.7741486,
    "label": "חנות BO-E , דיזנגוף 96 תל אביב",
    "text": "",
    "stayTimes": "13:00-13:30",
    "t_start": "2020-03-13T11:00:00",
    "t_end": "2020-03-13T11:30:00",
    "link": ""
  },
  {
    "id": 21963,
    "lat": 32.0787578000001,
    "lon": 34.7741486,
    "label": "חנות BO-E , דיזנגוף 96 תל אביב",
    "text": "",
    "stayTimes": "13:00-13:30",
    "t_start": "2020-03-13T11:00:00",
    "t_end": "2020-03-13T11:30:00",
    "link": ""
  },
  {
    "id": 21964,
    "lat": 32.0924884,
    "lon": 34.8379598000001,
    "label": "מוקד טרם, רחוב ז’בוטינסקי 160, בני ברק",
    "text": "",
    "stayTimes": "13:00-13:30",
    "t_start": "2020-03-13T11:00:00",
    "t_end": "2020-03-13T11:30:00",
    "link": ""
  },
  {
    "id": 21965,
    "lat": 32.8187756,
    "lon": 34.9940907000001,
    "label": "מסעדת \"שווארמה אמיל\", דרך אלנבי 33, חיפה",
    "text": "",
    "stayTimes": "13:00-14:00",
    "t_start": "2020-03-13T11:00:00",
    "t_end": "2020-03-13T12:00:00",
    "link": ""
  },
  {
    "id": 21966,
    "lat": 32.0703564,
    "lon": 34.7697756000001,
    "label": "בר \"סלון ברלין\", רחוב נג'רה 15, תל אביב",
    "text": "",
    "stayTimes": "13:30-17:30",
    "t_start": "2020-03-13T11:30:00",
    "t_end": "2020-03-13T15:30:00",
    "link": ""
  },
  {
    "id": 21967,
    "lat": 32.0808965000001,
    "lon": 34.7815399,
    "label": "ארקפה רח' אבן גבירול 70 תל אביב",
    "text": "",
    "stayTimes": "13:30-13:40",
    "t_start": "2020-03-13T11:30:00",
    "t_end": "2020-03-13T11:40:00",
    "link": ""
  },
  {
    "id": 21968,
    "lat": 32.0804173000001,
    "lon": 34.7817415000001,
    "label": "בר המשבצת - תל אביב - יפו",
    "text": "",
    "stayTimes": "13:45 - 16:00",
    "t_start": "2020-03-13T11:45:00",
    "t_end": "2020-03-13T14:00:00",
    "link": ""
  },
  {
    "id": 21969,
    "lat": 32.0915515,
    "lon": 34.8247563,
    "label": "סופר פארם, רחוב ז’בוטינסקי 7, בני ברק",
    "text": "",
    "stayTimes": "14:00-15:00",
    "t_start": "2020-03-13T12:00:00",
    "t_end": "2020-03-13T13:00:00",
    "link": ""
  },
  {
    "id": 21970,
    "lat": 32.4383146000001,
    "lon": 34.9286490000001,
    "label": "יינות ביתן מתחם mix חדרה",
    "text": "",
    "stayTimes": "14:00-15:00",
    "t_start": "2020-03-13T12:00:00",
    "t_end": "2020-03-13T13:00:00",
    "link": ""
  },
  {
    "id": 21971,
    "lat": 32.4383146000001,
    "lon": 34.9286490000001,
    "label": "סופר יינון ביתן מתחם מיקס חדרה - חדרה",
    "text": "",
    "stayTimes": "14:00 - 15:00",
    "t_start": "2020-03-13T12:00:00",
    "t_end": "2020-03-13T13:00:00",
    "link": ""
  },
  {
    "id": 21972,
    "lat": 32.6957333,
    "lon": 35.3003855000001,
    "label": "מתחם ביג פאשן - נצרת",
    "text": "",
    "stayTimes": "15:00 - 16:00",
    "t_start": "2020-03-13T13:00:00",
    "t_end": "2020-03-13T14:00:00",
    "link": ""
  },
  {
    "id": 21973,
    "lat": 31.2384220000001,
    "lon": 34.7737270000001,
    "label": "משביר מחסני הצרכן מרכז מסחרי מבנה ב\"ש - באר שבע",
    "text": "",
    "stayTimes": "15:00 - 15:30",
    "t_start": "2020-03-13T13:00:00",
    "t_end": "2020-03-13T13:30:00",
    "link": ""
  },
  {
    "id": 21974,
    "lat": 31.2417806,
    "lon": 34.8106661,
    "label": "H&O מרכז ביג - באר שבע",
    "text": "",
    "stayTimes": "15:00 - 16:00",
    "t_start": "2020-03-13T13:00:00",
    "t_end": "2020-03-13T14:00:00",
    "link": ""
  },
  {
    "id": 21975,
    "lat": 32.6957333,
    "lon": 35.3003855000001,
    "label": "מתחם ביג פאשן - נצרת",
    "text": "",
    "stayTimes": "15:00 - 13:00",
    "t_start": "2020-03-13T13:00:00",
    "t_end": "2020-03-13T11:00:00",
    "link": ""
  },
  {
    "id": 21976,
    "lat": 32.0779264,
    "lon": 34.8398083000001,
    "label": "\"כולל אדרת אליהו\", רח' בן יעקב 17, בני ברק",
    "text": "",
    "stayTimes": "15:45-16:10",
    "t_start": "2020-03-13T13:45:00",
    "t_end": "2020-03-13T14:10:00",
    "link": ""
  },
  {
    "id": 21977,
    "lat": 31.773572825,
    "lon": 35.1654302380001,
    "label": "קבלת פנים באירוע משפחתי במרכז ציפורי יער ירושלים",
    "text": "",
    "stayTimes": "16:00-16:30",
    "t_start": "2020-03-13T14:00:00",
    "t_end": "2020-03-13T14:30:00",
    "link": ""
  },
  {
    "id": 21978,
    "lat": 31.772660725,
    "lon": 35.1662027140001,
    "label": "קבלת פנים באירוע משפחתי במרכז ציפורי יער ירושלים",
    "text": "",
    "stayTimes": "16:00-16:30",
    "t_start": "2020-03-13T14:00:00",
    "t_end": "2020-03-13T14:30:00",
    "link": ""
  },
  {
    "id": 21979,
    "lat": 31.243825218,
    "lon": 34.7953814590001,
    "label": "חנות בלונים תחנה מרכזית ב\"ש ליד חנות סטימצקי - באר שבע",
    "text": "",
    "stayTimes": "16:00 - 16:30",
    "t_start": "2020-03-13T14:00:00",
    "t_end": "2020-03-13T14:30:00",
    "link": ""
  },
  {
    "id": 21980,
    "lat": 32.6208532000001,
    "lon": 35.3160576000001,
    "label": "מיון ביח' העמק - עפולה",
    "text": "",
    "stayTimes": "16:00 - 18:00",
    "t_start": "2020-03-13T14:00:00",
    "t_end": "2020-03-13T16:00:00",
    "link": ""
  },
  {
    "id": 21981,
    "lat": 31.9880811,
    "lon": 34.8516028000001,
    "label": "מקווה מרכזי כפר חב''ד",
    "text": "",
    "stayTimes": "16:15-17:15",
    "t_start": "2020-03-13T14:15:00",
    "t_end": "2020-03-13T15:15:00",
    "link": ""
  },
  {
    "id": 21982,
    "lat": 32.0943643530001,
    "lon": 34.835152426,
    "label": "בית כנסת \"היכל מאיר\", רח' נורדאו 35, בני ברק",
    "text": "",
    "stayTimes": "16:30-17:30",
    "t_start": "2020-03-13T14:30:00",
    "t_end": "2020-03-13T15:30:00",
    "link": ""
  },
  {
    "id": 21983,
    "lat": 31.2441962,
    "lon": 34.7961416000001,
    "label": "חנות פרחי טיב תחנה מרכזית - באר שבע",
    "text": "",
    "stayTimes": "16:30 - 17:00",
    "t_start": "2020-03-13T14:30:00",
    "t_end": "2020-03-13T15:00:00",
    "link": ""
  },
  {
    "id": 21984,
    "lat": 32.6210762000001,
    "lon": 35.3165964,
    "label": "מלר\"ד נשים מרכז רפואי העמק",
    "text": "",
    "stayTimes": "17:00-17:45",
    "t_start": "2020-03-13T15:00:00",
    "t_end": "2020-03-13T15:45:00",
    "link": ""
  },
  {
    "id": 21985,
    "lat": 31.8035901000001,
    "lon": 35.1032978000001,
    "label": "בית הכנסת \"דרכי אבותינו\" רחוב גורדון 1 קריית יערים",
    "text": "",
    "stayTimes": "17:00-18:30",
    "t_start": "2020-03-13T15:00:00",
    "t_end": "2020-03-13T16:30:00",
    "link": ""
  },
  {
    "id": 21986,
    "lat": 31.8035901000001,
    "lon": 35.1032978000001,
    "label": "בית הכנסת \"דרכי אבותינו\" רחוב גורדון 1 קריית יערים",
    "text": "",
    "stayTimes": "17:00-18:30",
    "t_start": "2020-03-13T15:00:00",
    "t_end": "2020-03-13T16:30:00",
    "link": ""
  },
  {
    "id": 21987,
    "lat": 32.0794765090001,
    "lon": 34.8358719070001,
    "label": "בית כנסת - בני ברק",
    "text": "",
    "stayTimes": "17:00 - 19:00",
    "t_start": "2020-03-13T15:00:00",
    "t_end": "2020-03-13T17:00:00",
    "link": ""
  },
  {
    "id": 21988,
    "lat": 32.079458328,
    "lon": 34.8358719070001,
    "label": "בית כנסת - בני ברק",
    "text": "",
    "stayTimes": "17:00 - 19:00",
    "t_start": "2020-03-13T15:00:00",
    "t_end": "2020-03-13T17:00:00",
    "link": ""
  },
  {
    "id": 21989,
    "lat": 31.8195152000001,
    "lon": 35.2533911,
    "label": "בית הכנסת 'אוהלי יוסף ושרה'  יצחק טוניק בירושלים",
    "text": "",
    "stayTimes": "17:15-18:30",
    "t_start": "2020-03-13T15:15:00",
    "t_end": "2020-03-13T16:30:00",
    "link": ""
  },
  {
    "id": 21990,
    "lat": 31.819480099,
    "lon": 35.2534051390001,
    "label": "בית כנסת \"אוהלי יוסף ושרה\", רחוב יצחק טוניק, ירושלים",
    "text": "",
    "stayTimes": "17:15-18:00",
    "t_start": "2020-03-13T15:15:00",
    "t_end": "2020-03-13T16:00:00",
    "link": ""
  },
  {
    "id": 21991,
    "lat": 31.8195667050001,
    "lon": 35.2536411730001,
    "label": "בית כנסת \"אוהלי יוסף ושרה\", רחוב יצחק טוניק, ירושלים",
    "text": "",
    "stayTimes": "17:15-18:30",
    "t_start": "2020-03-13T15:15:00",
    "t_end": "2020-03-13T16:30:00",
    "link": ""
  },
  {
    "id": 21992,
    "lat": 32.0901985,
    "lon": 34.8366309,
    "label": "בית כנסת \"ישועה ליהודה\", רח' יואל 16, בני ברק",
    "text": "",
    "stayTimes": "17:15-18:30",
    "t_start": "2020-03-13T15:15:00",
    "t_end": "2020-03-13T16:30:00",
    "link": ""
  },
  {
    "id": 21993,
    "lat": 32.0354600000001,
    "lon": 34.88104,
    "label": "בית כנסת \"אור אבנר\", יהוד",
    "text": "",
    "stayTimes": "17:30-19:00",
    "t_start": "2020-03-13T15:30:00",
    "t_end": "2020-03-13T17:00:00",
    "link": ""
  },
  {
    "id": 21994,
    "lat": 32.6778114000001,
    "lon": 35.2417497000001,
    "label": "שיבה מתיבתא מגדל העמק",
    "text": "",
    "stayTimes": "17:30-19:00",
    "t_start": "2020-03-13T15:30:00",
    "t_end": "2020-03-13T17:00:00",
    "link": ""
  },
  {
    "id": 21995,
    "lat": 31.937594,
    "lon": 34.8465110000001,
    "label": "ית הכנסת 'קדושי פולין' ברח' ז'בוטינסקי, מושב נווה דורון",
    "text": "",
    "stayTimes": "17:30-19:00",
    "t_start": "2020-03-13T15:30:00",
    "t_end": "2020-03-13T17:00:00",
    "link": ""
  },
  {
    "id": 21996,
    "lat": 31.937594,
    "lon": 34.8465110000001,
    "label": "בית הכנסת 'קדושי פולין' ברח' ז'בוטינסקי, מושב נווה דורון",
    "text": "",
    "stayTimes": "17:30-19:00",
    "t_start": "2020-03-13T15:30:00",
    "t_end": "2020-03-13T17:00:00",
    "link": ""
  },
  {
    "id": 21997,
    "lat": 32.6348649,
    "lon": 35.3245400000001,
    "label": "רחוב וינגייט עפולה",
    "text": "",
    "stayTimes": "17:30-19:00",
    "t_start": "2020-03-13T15:30:00",
    "t_end": "2020-03-13T17:00:00",
    "link": ""
  },
  {
    "id": 21998,
    "lat": 32.0972214,
    "lon": 34.84142,
    "label": "בית כנסת הרב שחף - אולם פנימי, רח' הרב נויפלד 10 בני ברק",
    "text": "",
    "stayTimes": "17:30-19:00",
    "t_start": "2020-03-13T15:30:00",
    "t_end": "2020-03-13T17:00:00",
    "link": ""
  },
  {
    "id": 21999,
    "lat": 31.8087788,
    "lon": 34.78599,
    "label": "בית כנסת \"בית חב\"ד\" רחוב היסמין 24 גדרה",
    "text": "",
    "stayTimes": "17:30-18:00",
    "t_start": "2020-03-13T15:30:00",
    "t_end": "2020-03-13T16:00:00",
    "link": ""
  },
  {
    "id": 22000,
    "lat": 31.3263210000001,
    "lon": 34.6489340000001,
    "label": "בית כנסת מגן שלמה, מושב גילת",
    "text": "",
    "stayTimes": "17:30-19:00",
    "t_start": "2020-03-13T15:30:00",
    "t_end": "2020-03-13T17:00:00",
    "link": ""
  },
  {
    "id": 22001,
    "lat": 31.4220945000001,
    "lon": 34.7863414,
    "label": "סי קפה צומת דבירה - דבירה",
    "text": "",
    "stayTimes": "17:30 - 18:00",
    "t_start": "2020-03-13T15:30:00",
    "t_end": "2020-03-13T16:00:00",
    "link": ""
  },
  {
    "id": 22002,
    "lat": 31.7876648000001,
    "lon": 35.2191968000001,
    "label": "בית כנסת אהבת שלום - ירושלים",
    "text": "",
    "stayTimes": "17:30 - 18:30",
    "t_start": "2020-03-13T15:30:00",
    "t_end": "2020-03-13T16:30:00",
    "link": ""
  },
  {
    "id": 22003,
    "lat": 32.0160555000001,
    "lon": 34.7467473,
    "label": "בית כנסת בית אל - בת ים",
    "text": "",
    "stayTimes": "17:30 - 18:30",
    "t_start": "2020-03-13T15:30:00",
    "t_end": "2020-03-13T16:30:00",
    "link": ""
  },
  {
    "id": 22004,
    "lat": 32.0800752000001,
    "lon": 34.9019874000001,
    "label": "רחוב אלעזר פתח תקווה",
    "text": "",
    "stayTimes": "17:45-19:30",
    "t_start": "2020-03-13T15:45:00",
    "t_end": "2020-03-13T17:30:00",
    "link": ""
  },
  {
    "id": 22005,
    "lat": 31.0684946000001,
    "lon": 35.0410436000001,
    "label": "בית הכנסת \"שלום המלכה \" ברחוב נצרים, דימונה",
    "text": "",
    "stayTimes": "18:00-19:00",
    "t_start": "2020-03-13T16:00:00",
    "t_end": "2020-03-13T17:00:00",
    "link": ""
  },
  {
    "id": 22006,
    "lat": 32.7857036,
    "lon": 35.0173118000001,
    "label": "בית הכנסת 'אור וישועה', רח' טרומפלדור, חיפה",
    "text": "",
    "stayTimes": "18:00-19:00",
    "t_start": "2020-03-13T16:00:00",
    "t_end": "2020-03-13T17:00:00",
    "link": ""
  },
  {
    "id": 22007,
    "lat": 31.7856547000001,
    "lon": 35.2250446,
    "label": "ישיבת \"תולדות אהרון\", ירושלים",
    "text": "",
    "stayTimes": "18:00-18:15",
    "t_start": "2020-03-13T16:00:00",
    "t_end": "2020-03-13T16:15:00",
    "link": ""
  },
  {
    "id": 22008,
    "lat": 32.7857036,
    "lon": 35.0173118000001,
    "label": "בית כנסת 'אור וישועה' - חיפה",
    "text": "",
    "stayTimes": "18:00 - 19:00",
    "t_start": "2020-03-13T16:00:00",
    "t_end": "2020-03-13T17:00:00",
    "link": ""
  },
  {
    "id": 22009,
    "lat": 32.0354635,
    "lon": 34.8810490000001,
    "label": "בית כנסת אור אבנר, יהוד",
    "text": "",
    "stayTimes": "18:20-19:30",
    "t_start": "2020-03-13T16:20:00",
    "t_end": "2020-03-13T17:30:00",
    "link": ""
  },
  {
    "id": 22010,
    "lat": 32.7866310000001,
    "lon": 34.9984804000001,
    "label": "מסעדת ויוינו (Vivino) חוצות המפרץ אאוטלט, חיפה",
    "text": "",
    "stayTimes": "18:45-20:00",
    "t_start": "2020-03-13T16:45:00",
    "t_end": "2020-03-13T18:00:00",
    "link": ""
  },
  {
    "id": 22011,
    "lat": 32.0775921000001,
    "lon": 34.7682231000001,
    "label": "הבית התיילנדי - תל אביב - יפו",
    "text": "",
    "stayTimes": "19:00 - 21:45",
    "t_start": "2020-03-13T17:00:00",
    "t_end": "2020-03-13T19:45:00",
    "link": ""
  },
  {
    "id": 22012,
    "lat": 32.0779264,
    "lon": 34.8398083000001,
    "label": "\"כולל אדרת אליהו\", רח' בן יעקב 17, בני ברק",
    "text": "",
    "stayTimes": "19:15-19:40",
    "t_start": "2020-03-13T17:15:00",
    "t_end": "2020-03-13T17:40:00",
    "link": ""
  },
  {
    "id": 22013,
    "lat": 32.6210762000001,
    "lon": 35.3165964,
    "label": "מלר\"ד פנימי מרכז רפואי העמק",
    "text": "",
    "stayTimes": "20:30-21:50",
    "t_start": "2020-03-13T18:30:00",
    "t_end": "2020-03-13T19:50:00",
    "link": ""
  },
  {
    "id": 22014,
    "lat": 32.6210762000001,
    "lon": 35.3165964,
    "label": "מלר\"ד פנימי כללי מרכז רפואי העמק",
    "text": "",
    "stayTimes": "20:30-22:00",
    "t_start": "2020-03-13T18:30:00",
    "t_end": "2020-03-13T20:00:00",
    "link": ""
  },
  {
    "id": 22015,
    "lat": 31.785402531,
    "lon": 34.664427495,
    "label": "ביהכ\"נ אור החיים - אשדוד",
    "text": "",
    "stayTimes": "21:30 - 22:00",
    "t_start": "2020-03-13T19:30:00",
    "t_end": "2020-03-13T20:00:00",
    "link": ""
  },
  {
    "id": 22016,
    "lat": 32.097205574,
    "lon": 34.8376757870001,
    "label": "טיש אצל האדמור +פגישה עם הבחורים בישיבה הגדולה - בני ברק",
    "text": "",
    "stayTimes": "21:30 - 00:30",
    "t_start": "2020-03-13T19:30:00",
    "t_end": "2020-03-13T22:30:00",
    "link": ""
  },
  {
    "id": 22017,
    "lat": 32.074701481,
    "lon": 34.7833701230001,
    "label": "בר FRIENDS - תל אביב - יפו",
    "text": "",
    "stayTimes": "22:30 - 00:00",
    "t_start": "2020-03-13T20:30:00",
    "t_end": "2020-03-13T22:00:00",
    "link": ""
  },
  {
    "id": 22018,
    "lat": 32.0360309000001,
    "lon": 34.7627074000001,
    "label": "בית חולים וולפסון",
    "text": "",
    "stayTimes": "00:00-23:59",
    "t_start": "2020-03-13T22:00:00",
    "t_end": "2020-03-14T21:59:00",
    "link": ""
  },
  {
    "id": 22019,
    "lat": 32.6210762000001,
    "lon": 35.3165964,
    "label": "מלר\"ד פנימי כללי מרכז רפואי העמק",
    "text": "",
    "stayTimes": "00:00-04:30",
    "t_start": "2020-03-13T22:00:00",
    "t_end": "2020-03-14T02:30:00",
    "link": ""
  },
  {
    "id": 22020,
    "lat": 32.9584609,
    "lon": 35.4991753,
    "label": "ישיבת חינוך לנער, צפת",
    "text": "",
    "stayTimes": "00:00-23:59",
    "t_start": "2020-03-13T22:00:00",
    "t_end": "2020-03-14T21:59:00",
    "link": ""
  },
  {
    "id": 22021,
    "lat": 31.6111480000001,
    "lon": 34.7684590000001,
    "label": "בית הכנסת חסדי ישי, קרית גת",
    "text": "",
    "stayTimes": "10:30-14:30",
    "t_start": "2020-03-14T08:30:00",
    "t_end": "2020-03-14T12:30:00",
    "link": ""
  },
  {
    "id": 22022,
    "lat": 32.143400414,
    "lon": 34.803112044,
    "label": "סינמה סיטי גלילות",
    "text": "",
    "stayTimes": "19:00-21:10",
    "t_start": "2020-03-14T17:00:00",
    "t_end": "2020-03-14T19:10:00",
    "link": ""
  },
  {
    "id": 22023,
    "lat": 32.6813385,
    "lon": 35.2325949,
    "label": "בית כנסת חב\"ד מגדל העמק",
    "text": "",
    "stayTimes": "09:00-11:00",
    "t_start": "2020-03-14T07:00:00",
    "t_end": "2020-03-14T09:00:00",
    "link": ""
  },
  {
    "id": 22024,
    "lat": 32.6813385,
    "lon": 35.2325949,
    "label": "בית כנסת חב\"ד מגדל העמק",
    "text": "",
    "stayTimes": "16:00-19:00",
    "t_start": "2020-03-14T14:00:00",
    "t_end": "2020-03-14T17:00:00",
    "link": ""
  },
  {
    "id": 22025,
    "lat": 32.7844835000001,
    "lon": 35.4986223000001,
    "label": "סופרמרקט \"רמי לוי\", מתחם ביג, פוריה",
    "text": "",
    "stayTimes": "19:00-21:30",
    "t_start": "2020-03-14T17:00:00",
    "t_end": "2020-03-14T19:30:00",
    "link": ""
  },
  {
    "id": 22026,
    "lat": 31.808802659,
    "lon": 34.786002909,
    "label": "בית כנסת חב\"ד ברחוב יסמין, רחובות",
    "text": "",
    "stayTimes": "08:00-11:00",
    "t_start": "2020-03-14T06:00:00",
    "t_end": "2020-03-14T09:00:00",
    "link": ""
  },
  {
    "id": 22027,
    "lat": 32.2692212000001,
    "lon": 34.8906791000001,
    "label": "בית חב\"ד, רחוב המייסדים 41, אבן יהודה",
    "text": "",
    "stayTimes": "17:00-20:00",
    "t_start": "2020-03-14T15:00:00",
    "t_end": "2020-03-14T18:00:00",
    "link": ""
  },
  {
    "id": 22028,
    "lat": 32.049606383,
    "lon": 34.956674019,
    "label": "בית כנסת \"שערי לוחמים\", אלעד",
    "text": "",
    "stayTimes": "08:00-10:00",
    "t_start": "2020-03-14T06:00:00",
    "t_end": "2020-03-14T08:00:00",
    "link": ""
  },
  {
    "id": 22029,
    "lat": 32.0891370000001,
    "lon": 34.9072570000001,
    "label": "בית כנסת \"שערי לוחמים\", אלעד",
    "text": "",
    "stayTimes": "17:00-18:00",
    "t_start": "2020-03-14T15:00:00",
    "t_end": "2020-03-14T16:00:00",
    "link": ""
  },
  {
    "id": 22030,
    "lat": 32.7848330190001,
    "lon": 35.4989683050001,
    "label": "סופרמרקט \"רמי לוי\", מתחם ביג, פוריה",
    "text": "",
    "stayTimes": "19:00-21:30",
    "t_start": "2020-03-14T17:00:00",
    "t_end": "2020-03-14T19:30:00",
    "link": ""
  },
  {
    "id": 22031,
    "lat": 31.6790119,
    "lon": 35.1636353000001,
    "label": "רחוב הדבש 13, אפרת",
    "text": "",
    "stayTimes": "לא ידוע",
    "t_start": "2020-03-13T22:00:00",
    "t_end": "2020-03-13T22:00:00",
    "link": ""
  },
  {
    "id": 22032,
    "lat": 31.6568936620001,
    "lon": 35.1504848700001,
    "label": "בית הכנסת המרכזי באפרת\"",
    "text": "",
    "stayTimes": "19:20-19:50",
    "t_start": "2020-03-14T17:20:00",
    "t_end": "2020-03-14T17:50:00",
    "link": ""
  },
  {
    "id": 22033,
    "lat": 32.1147789,
    "lon": 34.8263634,
    "label": "סופר טיב טעם שיכון דן, רחוב רוזן פנחס 72, תל אביב",
    "text": "",
    "stayTimes": "20:00-20:20",
    "t_start": "2020-03-14T18:00:00",
    "t_end": "2020-03-14T18:20:00",
    "link": ""
  },
  {
    "id": 22034,
    "lat": 31.87904,
    "lon": 35.248254,
    "label": "בית כנסת בבית מדרש \"אוהלי שם\" רח' נהר שלום כוכב יעקב",
    "text": "",
    "stayTimes": "07:45-10:15",
    "t_start": "2020-03-14T05:45:00",
    "t_end": "2020-03-14T08:15:00",
    "link": ""
  },
  {
    "id": 22035,
    "lat": 31.87904,
    "lon": 35.248254,
    "label": "בית כנסת בבית מדרש \"אוהלי שם\" רח' נהר שלום כוכב יעקב",
    "text": "",
    "stayTimes": "17:00-17:30",
    "t_start": "2020-03-14T15:00:00",
    "t_end": "2020-03-14T15:30:00",
    "link": ""
  },