[
  {
    "id": 43499,
    "lat": 32.0907700000001,
    "lon": 34.8573000000001,
    "label": "פאב \"דרינק פוינט\", רח' הסיבים 7, פתח תקווה",
    "text": "",
    "stayTimes": "00:00-01:00",
    "t_start": "2020-03-12T22:00:00",
    "t_end": "2020-03-12T23:00:00",
    "link": ""
  },
  {
    "id": 43500,
    "lat": 32.0907700000001,
    "lon": 34.8573000000001,
    "label": "פאב \"דרינק פוינט\", רח' הסיבים 7, פתח תקווה",
    "text": "",
    "stayTimes": "00:00-01:00",
    "t_start": "2020-03-12T22:00:00",
    "t_end": "2020-03-12T23:00:00",
    "link": ""
  },
  {
    "id": 43501,
    "lat": 32.0360309000001,
    "lon": 34.7627074000001,
    "label": "בית חולים וולפסון",
    "text": "",
    "stayTimes": "00:00-23:59",
    "t_start": "2020-03-12T22:00:00",
    "t_end": "2020-03-13T21:59:00",
    "link": ""
  },
  {
    "id": 43502,
    "lat": 32.9584609,
    "lon": 35.4991753,
    "label": "ישיבת חינוך לנער, צפת",
    "text": "",
    "stayTimes": "00:00-02:00",
    "t_start": "2020-03-12T22:00:00",
    "t_end": "2020-03-13T00:00:00",
    "link": ""
  },
  {
    "id": 43503,
    "lat": 32.971981,
    "lon": 35.4942120000001,
    "label": "ישיבת חב\"ד הגדולה, צפת",
    "text": "",
    "stayTimes": "00:00-23:59",
    "t_start": "2020-03-12T22:00:00",
    "t_end": "2020-03-13T21:59:00",
    "link": ""
  },
  {
    "id": 43504,
    "lat": 31.6111480000001,
    "lon": 34.7684590000001,
    "label": "בית הכנסת חסדי ישי, קרית גת",
    "text": "",
    "stayTimes": "10:00-12:30",
    "t_start": "2020-03-13T08:00:00",
    "t_end": "2020-03-13T10:30:00",
    "link": ""
  },
  {
    "id": 43505,
    "lat": 31.6111480000001,
    "lon": 34.7684590000001,
    "label": "בית הכנסת חסדי ישי, קרית גת",
    "text": "",
    "stayTimes": "18:15-19:15",
    "t_start": "2020-03-13T16:15:00",
    "t_end": "2020-03-13T17:15:00",
    "link": ""
  },
  {
    "id": 43506,
    "lat": 32.6773627000001,
    "lon": 35.2521039000001,
    "label": "בית כנסת ברסלב מגדל העמק",
    "text": "",
    "stayTimes": "16:00-18:00",
    "t_start": "2020-03-13T14:00:00",
    "t_end": "2020-03-13T16:00:00",
    "link": ""
  },
  {
    "id": 43507,
    "lat": 32.6821880000001,
    "lon": 35.2428180000001,
    "label": "בית כנסת נר יוסף רחוב הנגב מגדל העמק",
    "text": "",
    "stayTimes": "16:00-18:00",
    "t_start": "2020-03-13T14:00:00",
    "t_end": "2020-03-13T16:00:00",
    "link": ""
  },
  {
    "id": 43508,
    "lat": 32.7795991,
    "lon": 35.5169531000001,
    "label": "סופרמרקט \"יש חסד\", הנשיא ויצמן 1117, א.ת. שיכון ד', טבריה",
    "text": "",
    "stayTimes": "13:00-13:30",
    "t_start": "2020-03-13T11:00:00",
    "t_end": "2020-03-13T11:30:00",
    "link": ""
  },
  {
    "id": 43509,
    "lat": 32.0628413000001,
    "lon": 34.7731424,
    "label": "ספוטניק בר\" ברחוב אלנבי 122, תל אביב",
    "text": "",
    "stayTimes": "02:15-04:15",
    "t_start": "2020-03-13T00:15:00",
    "t_end": "2020-03-13T02:15:00",
    "link": ""
  },
  {
    "id": 43510,
    "lat": 31.8087788,
    "lon": 34.78599,
    "label": "בית כנסת חב\"ד, רחוב יסמין, גדרה.",
    "text": "",
    "stayTimes": "17:30-18:30",
    "t_start": "2020-03-13T15:30:00",
    "t_end": "2020-03-13T16:30:00",
    "link": ""
  },
  {
    "id": 43511,
    "lat": 32.8083407,
    "lon": 35.0543154000001,
    "label": "אולם הנסיכה, צ'ק פוסט",
    "text": "",
    "stayTimes": "11:30-12:00",
    "t_start": "2020-03-13T09:30:00",
    "t_end": "2020-03-13T10:00:00",
    "link": ""
  },
  {
    "id": 43512,
    "lat": 32.2692212000001,
    "lon": 34.8906791000001,
    "label": "בית חב\"ד, רחוב המייסדים 41, אבן יהודה",
    "text": "",
    "stayTimes": "17:00-19:30",
    "t_start": "2020-03-13T15:00:00",
    "t_end": "2020-03-13T17:30:00",
    "link": ""
  },
  {
    "id": 43513,
    "lat": 31.249581,
    "lon": 35.0828680000001,
    "label": "קופת חולים כללית, כסיפה א'",
    "text": "",
    "stayTimes": "08:00-12:00",
    "t_start": "2020-03-13T06:00:00",
    "t_end": "2020-03-13T10:00:00",
    "link": ""
  },
  {
    "id": 43514,
    "lat": 31.2377605,
    "lon": 34.7859917000001,
    "label": "מסעדת קפריס, רחוב הרצל, באר שבע",
    "text": "",
    "stayTimes": "20:00-00:00",
    "t_start": "2020-03-13T18:00:00",
    "t_end": "2020-03-12T22:00:00",
    "link": ""
  },
  {
    "id": 43515,
    "lat": 32.0495300000001,
    "lon": 34.95075,
    "label": "בית כנסת \"משכנות נריה\", אלעד",
    "text": "",
    "stayTimes": "05:45-06:20",
    "t_start": "2020-03-13T03:45:00",
    "t_end": "2020-03-13T04:20:00",
    "link": ""
  },
  {
    "id": 43516,
    "lat": 32.7795991,
    "lon": 35.5169531000001,
    "label": "סופרמרקט \"יש חסד\", הנשיא ויצמן 1117, א.ת. שיכון ד', טבריה",
    "text": "",
    "stayTimes": "13:00-13:30",
    "t_start": "2020-03-13T11:00:00",
    "t_end": "2020-03-13T11:30:00",
    "link": ""
  },
  {
    "id": 43517,
    "lat": 32.842670275,
    "lon": 35.0689034820001,
    "label": "חנות לבגדי נשים \"לילוש\" בקרית ים - שד' ירושלים 51",
    "text": "",
    "stayTimes": "00:02-23:58",
    "t_start": "2020-03-12T22:02:00",
    "t_end": "2020-03-13T21:58:00",
    "link": ""
  },
  {
    "id": 43518,
    "lat": 31.9073958610001,
    "lon": 34.9978718520001,
    "label": "סופר קייזר בקייזר סנטר רח' אבני החושן 12 מודיעין",
    "text": "",
    "stayTimes": "12:00-12:15",
    "t_start": "2020-03-13T10:00:00",
    "t_end": "2020-03-13T10:15:00",
    "link": ""
  },
  {
    "id": 43519,
    "lat": 31.651397108,
    "lon": 35.153772539,
    "label": "חדר כושר באפרת",
    "text": "",
    "stayTimes": "12:00-14:00",
    "t_start": "2020-03-13T10:00:00",
    "t_end": "2020-03-13T12:00:00",
    "link": ""
  },
  {
    "id": 43520,
    "lat": 31.9908489000001,
    "lon": 34.7610698,
    "label": "סופרמרקט \"אושר עד\", רח' אצ\"ל 24 ראשל\"צ",
    "text": "",
    "stayTimes": "23:30-00:30",
    "t_start": "2020-03-13T21:30:00",
    "t_end": "2020-03-12T22:30:00",
    "link": ""
  },
  {
    "id": 43521,
    "lat": 31.87904,
    "lon": 35.248254,
    "label": "בית כנסת בבית מדרש \"אוהלי שם\" רח' נהר שלום כוכב יעקב",
    "text": "",
    "stayTimes": "05:15-06:16",
    "t_start": "2020-03-13T03:15:00",
    "t_end": "2020-03-13T04:16:00",
    "link": ""
  },
  {
    "id": 43522,
    "lat": 31.87904,
    "lon": 35.248254,
    "label": "בית כנסת בבית מדרש \"אוהלי שם\" רח' נהר שלום כוכב יעקב",
    "text": "",
    "stayTimes": "07:25-07:40",
    "t_start": "2020-03-13T05:25:00",
    "t_end": "2020-03-13T05:40:00",
    "link": ""
  },
  {
    "id": 43523,
    "lat": 31.87904,
    "lon": 35.248254,
    "label": "בית כנסת בבית מדרש \"אוהלי שם\" רח' נהר שלום כוכב יעקב",
    "text": "",
    "stayTimes": "17:00-18:30",
    "t_start": "2020-03-13T15:00:00",
    "t_end": "2020-03-13T16:30:00",
    "link": ""
  },
  {
    "id": 43524,
    "lat": 31.7896423,
    "lon": 35.1739899,
    "label": "בית כנסת אמרי שפר, רח' קצנלבוגן 1, הר נוף, ירושלים",
    "text": "",
    "stayTimes": "10:00-11:00",
    "t_start": "2020-03-13T08:00:00",
    "t_end": "2020-03-13T09:00:00",
    "link": ""
  },
  {
    "id": 43525,
    "lat": 31.7861401000001,
    "lon": 35.1737005000001,
    "label": "סופר יש, רח' שאולזון, הר נוף, ירושלים",
    "text": "",
    "stayTimes": "13:00-13:30",
    "t_start": "2020-03-13T11:00:00",
    "t_end": "2020-03-13T11:30:00",
    "link": ""
  },
  {
    "id": 43526,
    "lat": 31.7547198,
    "lon": 35.2160602000001,
    "label": "בורקס אמא, רח' רבקה, ירושלים",
    "text": "",
    "stayTimes": "12:00-12:15",
    "t_start": "2020-03-13T10:00:00",
    "t_end": "2020-03-13T10:15:00",
    "link": ""
  },
  {
    "id": 43527,
    "lat": 32.033714,
    "lon": 34.8925797000001,
    "label": "\"סופר אדוארד\" רח' ויצמן 55, יהוד",
    "text": "",
    "stayTimes": "08:00-08:30",
    "t_start": "2020-03-13T06:00:00",
    "t_end": "2020-03-13T06:30:00",
    "link": ""
  },
  {
    "id": 43528,
    "lat": 32.0988889000001,
    "lon": 34.8297222,
    "label": "סופרמרקט \"אושר עד\", רח' הקישון 11, בני ברק",
    "text": "",
    "stayTimes": "09:30-11:00",
    "t_start": "2020-03-13T07:30:00",
    "t_end": "2020-03-13T09:00:00",
    "link": ""
  },
  {
    "id": 43529,
    "lat": 31.9908489000001,
    "lon": 34.7610698,
    "label": "אושר עד, רח' אצ\"ל 24",
    "text": "",
    "stayTimes": "23:30-00:30",
    "t_start": "2020-03-13T21:30:00",
    "t_end": "2020-03-12T22:30:00",
    "link": ""
  },
  {
    "id": 43530,
    "lat": 31.6535890000001,
    "lon": 35.149934,
    "label": "בית כנסת מרכזי התמר, אפרת",
    "text": "",
    "stayTimes": "00:02-23:58",
    "t_start": "2020-03-12T22:02:00",
    "t_end": "2020-03-13T21:58:00",
    "link": ""
  },
  {
    "id": 43531,
    "lat": 32.0893800000001,
    "lon": 34.8569900000001,
    "label": "מסעדת \"אבולעפיה\", רח' הסיבים 19, פתח תקווה",
    "text": "",
    "stayTimes": "01:00-01:30",
    "t_start": "2020-03-12T23:00:00",
    "t_end": "2020-03-12T23:30:00",
    "link": ""
  },
  {
    "id": 43532,
    "lat": 32.0893800000001,
    "lon": 34.8569900000001,
    "label": "מסעדת \"אבולעפיה\", רח' הסיבים 19, פתח תקווה",
    "text": "",
    "stayTimes": "01:00-01:30",
    "t_start": "2020-03-12T23:00:00",
    "t_end": "2020-03-12T23:30:00",
    "link": ""
  },
  {
    "id": 43533,
    "lat": 32.0371900000001,
    "lon": 34.89205,
    "label": "בית כנסת \"אור לשבים\" יהוד",
    "text": "",
    "stayTimes": "05:00-07:00",
    "t_start": "2020-03-13T03:00:00",
    "t_end": "2020-03-13T05:00:00",
    "link": ""
  },
  {
    "id": 43534,
    "lat": 31.8664694,
    "lon": 34.7360281000001,
    "label": "מאפיית דרך הלחם - יבנה",
    "text": "",
    "stayTimes": "05:00 - 15:00",
    "t_start": "2020-03-13T03:00:00",
    "t_end": "2020-03-13T13:00:00",
    "link": ""
  },
  {
    "id": 43535,
    "lat": 31.8026394450001,
    "lon": 35.099022694,
    "label": "בית כנסת 'בני ישיבות' קרית יערים (טלז סטון)",
    "text": "",
    "stayTimes": "05:20-06:30",
    "t_start": "2020-03-13T03:20:00",
    "t_end": "2020-03-13T04:30:00",
    "link": ""
  },
  {
    "id": 43536,
    "lat": 31.3263210000001,
    "lon": 34.6489340000001,
    "label": "בית כנסת מגן שלמה, מושב גילת",
    "text": "",
    "stayTimes": "05:45-06:30",
    "t_start": "2020-03-13T03:45:00",
    "t_end": "2020-03-13T04:30:00",
    "link": ""
  },
  {
    "id": 43537,
    "lat": 32.0800752000001,
    "lon": 34.9019874000001,
    "label": "רחוב אלעזר פתח תקווה",
    "text": "",
    "stayTimes": "06:00-06:30",
    "t_start": "2020-03-13T04:00:00",
    "t_end": "2020-03-13T04:30:00",
    "link": ""
  },
  {
    "id": 43538,
    "lat": 32.693576159,
    "lon": 35.2649098810001,
    "label": "בית כנסת עולי אירופה - מגדל העמק",
    "text": "",
    "stayTimes": "06:00 - 06:30",
    "t_start": "2020-03-13T04:00:00",
    "t_end": "2020-03-13T04:30:00",
    "link": ""
  },
  {
    "id": 43539,
    "lat": 31.9035949,
    "lon": 34.9947624000001,
    "label": "בית כנסת \"חושן\" רחוב הבדולח 12 מודיעין",
    "text": "",
    "stayTimes": "07:00-08:00",
    "t_start": "2020-03-13T05:00:00",
    "t_end": "2020-03-13T06:00:00",
    "link": ""
  },
  {
    "id": 43540,
    "lat": 31.8026394450001,
    "lon": 35.099022694,
    "label": "כולל 'נחלי דעת' קרית יערים (טלז סטון)",
    "text": "",
    "stayTimes": "07:00-13:00",
    "t_start": "2020-03-13T05:00:00",
    "t_end": "2020-03-13T11:00:00",
    "link": ""
  },
  {
    "id": 43541,
    "lat": 31.6548710000001,
    "lon": 35.125256,
    "label": "בית כנסת הישן, ישוב אלון שבות",
    "text": "",
    "stayTimes": "07:20-07:50",
    "t_start": "2020-03-13T05:20:00",
    "t_end": "2020-03-13T05:50:00",
    "link": ""
  },
  {
    "id": 43542,
    "lat": 32.0972669000001,
    "lon": 34.8379174,
    "label": "בית כנסת \"זיו יהודה\" ושטיבלאך, שד' אריה לוין בבני ברק",
    "text": "",
    "stayTimes": "07:30-08:00",
    "t_start": "2020-03-13T05:30:00",
    "t_end": "2020-03-13T06:00:00",
    "link": ""
  },
  {
    "id": 43543,
    "lat": 32.0972214,
    "lon": 34.84142,
    "label": "בית כנסת הרב שחף, רח' הרב נויפלד 10 בבני ברק",
    "text": "",
    "stayTimes": "07:30-08:00",
    "t_start": "2020-03-13T05:30:00",
    "t_end": "2020-03-13T06:00:00",
    "link": ""
  },
  {
    "id": 43544,
    "lat": 32.086465339,
    "lon": 34.832410714,
    "label": "מקווה צאנז - בני ברק",
    "text": "",
    "stayTimes": "07:30 - 07:50",
    "t_start": "2020-03-13T05:30:00",
    "t_end": "2020-03-13T05:50:00",
    "link": ""
  },
  {
    "id": 43545,
    "lat": 31.6576710000001,
    "lon": 35.1235129,
    "label": "ישיבת הר עציון ישוב אלון שבות",
    "text": "",
    "stayTimes": "07:50-08:15",
    "t_start": "2020-03-13T05:50:00",
    "t_end": "2020-03-13T06:15:00",
    "link": ""
  },
  {
    "id": 43546,
    "lat": 31.8954340000001,
    "lon": 34.8226080000001,
    "label": "קופ\"ח כללית רחוב הפלמ\"ח 17 רחובות",
    "text": "",
    "stayTimes": "08:00-08:30",
    "t_start": "2020-03-13T06:00:00",
    "t_end": "2020-03-13T06:30:00",
    "link": ""
  },
  {
    "id": 43547,
    "lat": 31.8954340000001,
    "lon": 34.8226080000001,
    "label": "קופ\"ח כללית רחוב הפלמ\"ח 17 רחובות",
    "text": "",
    "stayTimes": "08:00-08:30",
    "t_start": "2020-03-13T06:00:00",
    "t_end": "2020-03-13T06:30:00",
    "link": ""
  },
  {
    "id": 43548,
    "lat": 31.721989154,
    "lon": 35.2241539880001,
    "label": "בית הכנסת ברחוב הרב מנהר 4, הר חומה, ירושלים",
    "text": "",
    "stayTimes": "08:00-08:45",
    "t_start": "2020-03-13T06:00:00",
    "t_end": "2020-03-13T06:45:00",
    "link": ""
  },
  {
    "id": 43549,
    "lat": 32.1912984000001,
    "lon": 34.863387,
    "label": "קפה שלונסקי - רעננה",
    "text": "",
    "stayTimes": "08:00 - 13:30",
    "t_start": "2020-03-13T06:00:00",
    "t_end": "2020-03-13T11:30:00",
    "link": ""
  },
  {
    "id": 43550,
    "lat": 31.7218871220001,
    "lon": 35.224857232,
    "label": "בית כנסת - ירושלים",
    "text": "",
    "stayTimes": "08:00 - 08:45",
    "t_start": "2020-03-13T06:00:00",
    "t_end": "2020-03-13T06:45:00",
    "link": ""
  },
  {
    "id": 43551,
    "lat": 32.031667068,
    "lon": 34.887128659,
    "label": "בית כנסת ברסלב, רחוב סעדיה יהוד",
    "text": "",
    "stayTimes": "08:20-09:30",
    "t_start": "2020-03-13T06:20:00",
    "t_end": "2020-03-13T07:30:00",
    "link": ""
  },
  {
    "id": 43552,
    "lat": 31.6576710000001,
    "lon": 35.1235129,
    "label": "ישיבת הר עציון ישוב אלון שבות",
    "text": "",
    "stayTimes": "08:30-10:00",
    "t_start": "2020-03-13T06:30:00",
    "t_end": "2020-03-13T08:00:00",
    "link": ""
  },
  {
    "id": 43553,
    "lat": 31.8031406000001,
    "lon": 35.1000709,
    "label": "בית הכנסת \"בית אברהם\", רחוב אזניים לתורה 1, קרית יערים (טלז סטון)",
    "text": "",
    "stayTimes": "08:30-09:30",
    "t_start": "2020-03-13T06:30:00",
    "t_end": "2020-03-13T07:30:00",
    "link": ""
  },
  {
    "id": 43554,
    "lat": 32.0305322,
    "lon": 34.8783655,
    "label": "פארם בקניון סביונים ביהוד, קומה שנייה",
    "text": "",
    "stayTimes": "08:30-09:30",
    "t_start": "2020-03-13T06:30:00",
    "t_end": "2020-03-13T07:30:00",
    "link": ""
  },
  {
    "id": 43555,
    "lat": 31.664063969,
    "lon": 35.1565482390001,
    "label": "סופר דיל - אפרת",
    "text": "",
    "stayTimes": "08:30 - 08:45",
    "t_start": "2020-03-13T06:30:00",
    "t_end": "2020-03-13T06:45:00",
    "link": ""
  },
  {
    "id": 43556,
    "lat": 31.7672858,
    "lon": 35.2018044000001,
    "label": "סופר פארם ניות - ירושלים",
    "text": "",
    "stayTimes": "08:45 - 09:30",
    "t_start": "2020-03-13T06:45:00",
    "t_end": "2020-03-13T07:30:00",
    "link": ""
  },
  {
    "id": 43557,
    "lat": 31.8944963000001,
    "lon": 34.8040921,
    "label": "קופ\"ח כללית \"רמז\" רחוב דוד רמז 71 רחובות",
    "text": "",
    "stayTimes": "08:50-09:00",
    "t_start": "2020-03-13T06:50:00",
    "t_end": "2020-03-13T07:00:00",
    "link": ""
  },
  {
    "id": 43558,
    "lat": 31.8944963000001,
    "lon": 34.8040921,
    "label": "קופ\"ח כללית \"רמז\" רחוב דוד רמז 71 רחובות",
    "text": "",
    "stayTimes": "08:50-09:00",
    "t_start": "2020-03-13T06:50:00",
    "t_end": "2020-03-13T07:00:00",
    "link": ""
  },
  {
    "id": 43559,
    "lat": 32.0950616000001,
    "lon": 34.7786835000001,
    "label": "מועדון כושר \"קולנוע פאר\", רחוב ישעיה 1, תל אביב",
    "text": "",
    "stayTimes": "09:00-10:30",
    "t_start": "2020-03-13T07:00:00",
    "t_end": "2020-03-13T08:30:00",
    "link": ""
  },
  {
    "id": 43560,
    "lat": 31.8944963000001,
    "lon": 34.8040921,
    "label": "מרפאת עיניים קופ\"ח כללית \"רמז\" רחוב דוד רמז 71 רחובות",
    "text": "",
    "stayTimes": "09:00-09:40",
    "t_start": "2020-03-13T07:00:00",
    "t_end": "2020-03-13T07:40:00",
    "link": ""
  },
  {
    "id": 43561,
    "lat": 31.8944963000001,
    "lon": 34.8040921,
    "label": "מרפאת עיניים קופ\"ח כללית \"רמז\" רחוב דוד רמז 71 רחובות",
    "text": "",
    "stayTimes": "09:00-09:40",
    "t_start": "2020-03-13T07:00:00",
    "t_end": "2020-03-13T07:40:00",
    "link": ""
  },
  {
    "id": 43562,
    "lat": 32.6778114000001,
    "lon": 35.2417497000001,
    "label": "מועדון נוער \"אור ישראלי\" מגדל העמק",
    "text": "",
    "stayTimes": "09:00-13:00",
    "t_start": "2020-03-13T07:00:00",
    "t_end": "2020-03-13T11:00:00",
    "link": ""
  },
  {
    "id": 43563,
    "lat": 31.7856547000001,
    "lon": 35.2250446,
    "label": "ישיבת \"תולדות אהרון\", ירושלים",
    "text": "",
    "stayTimes": "09:00-09:40",
    "t_start": "2020-03-13T07:00:00",
    "t_end": "2020-03-13T07:40:00",
    "link": ""
  },
  {
    "id": 43564,
    "lat": 32.6933333000001,
    "lon": 35.3036111000001,
    "label": "חנות גליתא - דודג' סנטר - נוף הגליל",
    "text": "",
    "stayTimes": "09:00 - 14:00",
    "t_start": "2020-03-13T07:00:00",
    "t_end": "2020-03-13T12:00:00",
    "link": ""
  },
  {
    "id": 43565,
    "lat": 32.05602,
    "lon": 34.8825900000001,
    "label": "מקווה בסביון ברח' הדרים",
    "text": "",
    "stayTimes": "09:30-09:45",
    "t_start": "2020-03-13T07:30:00",
    "t_end": "2020-03-13T07:45:00",
    "link": ""
  },
  {
    "id": 43566,
    "lat": 31.612332,
    "lon": 34.7659800000001,
    "label": "מקווה יחזקאל, קרית גת",
    "text": "",
    "stayTimes": "09:30-10:00",
    "t_start": "2020-03-13T07:30:00",
    "t_end": "2020-03-13T08:00:00",
    "link": ""
  },
  {
    "id": 43567,
    "lat": 32.3112272000001,
    "lon": 34.9365342,
    "label": "סופר מגה בעיר מנחם בגין 44 כפר יונה",
    "text": "",
    "stayTimes": "09:30-10:00",
    "t_start": "2020-03-13T07:30:00",
    "t_end": "2020-03-13T08:00:00",
    "link": ""
  },
  {
    "id": 43568,
    "lat": 32.0685326,
    "lon": 34.7761506000001,
    "label": "מינימרקט \"שורצקי\", רח' שינקין 54, תל אביב",
    "text": "",
    "stayTimes": "09:30-10:00",
    "t_start": "2020-03-13T07:30:00",
    "t_end": "2020-03-13T08:00:00",
    "link": ""
  },
  {
    "id": 43569,
    "lat": 32.0779264,
    "lon": 34.8398083000001,
    "label": "\"כולל אדרת אליהו\", רח' בן יעקב 17, בני ברק",
    "text": "",
    "stayTimes": "09:30-13:00",
    "t_start": "2020-03-13T07:30:00",
    "t_end": "2020-03-13T11:00:00",
    "link": ""
  },
  {
    "id": 43570,
    "lat": 32.0864001,
    "lon": 34.8301802,
    "label": "משביר לעמו - בני ברק",
    "text": "",
    "stayTimes": "09:30 - 09:50",
    "t_start": "2020-03-13T07:30:00",
    "t_end": "2020-03-13T07:50:00",
    "link": ""
  },
  {
    "id": 43571,
    "lat": 32.0289263280001,
    "lon": 34.8889793220001,
    "label": "סופר מאיר, רחוב סעדיה חתוכה, יהוד",
    "text": "",
    "stayTimes": "09:40-10:00",
    "t_start": "2020-03-13T07:40:00",
    "t_end": "2020-03-13T08:00:00",
    "link": ""
  },
  {
    "id": 43572,
    "lat": 31.7545463000001,
    "lon": 35.2200407,
    "label": "סופר- דיל דרך בת לחם - ירושלים",
    "text": "",
    "stayTimes": "09:45 - 10:00",
    "t_start": "2020-03-13T07:45:00",
    "t_end": "2020-03-13T08:00:00",
    "link": ""
  },
  {
    "id": 43573,
    "lat": 31.8954340000001,
    "lon": 34.8226080000001,
    "label": "קופ\"ח כללית רחוב פלמ\"ח 17 רחובות קומה א'",
    "text": "",
    "stayTimes": "10:00-10:30",
    "t_start": "2020-03-13T08:00:00",
    "t_end": "2020-03-13T08:30:00",
    "link": ""
  },
  {
    "id": 43574,
    "lat": 31.8954340000001,
    "lon": 34.8226080000001,
    "label": "קופ\"ח כללית רחוב פלמ\"ח 17 רחובות קומה א'",
    "text": "",
    "stayTimes": "10:00-10:30",
    "t_start": "2020-03-13T08:00:00",
    "t_end": "2020-03-13T08:30:00",
    "link": ""
  },
  {
    "id": 43575,
    "lat": 31.9669506000001,
    "lon": 34.8407762530001,
    "label": "קניון בית החולים שמיר",
    "text": "",
    "stayTimes": "10:00-11:30",
    "t_start": "2020-03-13T08:00:00",
    "t_end": "2020-03-13T09:30:00",
    "link": ""
  },
  {
    "id": 43576,
    "lat": 32.1854841000001,
    "lon": 34.8544072,
    "label": "סופרמרקט \"ויקטורי\" רח' ירושלים 34 רעננה",
    "text": "",
    "stayTimes": "10:00-11:15",
    "t_start": "2020-03-13T08:00:00",
    "t_end": "2020-03-13T09:15:00",
    "link": ""
  },
  {
    "id": 43577,
    "lat": 32.1861476,
    "lon": 34.8545996,
    "label": "סופרמרקט ״ויקטורי״ רח׳ ירושלים 34, רעננה",
    "text": "",
    "stayTimes": "10:00-11:15",
    "t_start": "2020-03-13T08:00:00",
    "t_end": "2020-03-13T09:15:00",
    "link": ""
  },
  {
    "id": 43578,
    "lat": 32.1060032,
    "lon": 34.9413999000001,
    "label": "קייטרינג רוזמרין רחוב העבודה 7, ראש העין",
    "text": "",
    "stayTimes": "10:00-12:00",
    "t_start": "2020-03-13T08:00:00",
    "t_end": "2020-03-13T10:00:00",
    "link": ""
  },
  {
    "id": 43579,
    "lat": 32.4407789000001,
    "lon": 34.8949244,
    "label": "יוחננוף מול הים - חדרה",
    "text": "",
    "stayTimes": "10:00 - 11:00",
    "t_start": "2020-03-13T08:00:00",
    "t_end": "2020-03-13T09:00:00",
    "link": ""
  },
  {
    "id": 43580,
    "lat": 31.9030635770001,
    "lon": 34.996446335,
    "label": "סופר קייזר – רח' אבני החושן מודיעין",
    "text": "",
    "stayTimes": "10:10-10:45",
    "t_start": "2020-03-13T08:10:00",
    "t_end": "2020-03-13T08:45:00",
    "link": ""
  },
  {
    "id": 43581,
    "lat": 33.0009850000001,
    "lon": 35.0969043000001,
    "label": "שופרסל רח' לוחמי הגטאות 36, נהריה",
    "text": "",
    "stayTimes": "10:30-11:00",
    "t_start": "2020-03-13T08:30:00",
    "t_end": "2020-03-13T09:00:00",
    "link": ""
  },
  {
    "id": 43582,
    "lat": 31.8986272000001,
    "lon": 35.015185,
    "label": "ספריה מרכזית מודיעין",
    "text": "",
    "stayTimes": "10:30-10:50",
    "t_start": "2020-03-13T08:30:00",
    "t_end": "2020-03-13T08:50:00",
    "link": ""
  },
  {
    "id": 43583,
    "lat": 31.8988459,
    "lon": 35.0148796,
    "label": " רח' עמק דותן 49 מרכז רב- תחומי, מודיעין.",
    "text": "",
    "stayTimes": "10:30-11:00",
    "t_start": "2020-03-13T08:30:00",
    "t_end": "2020-03-13T09:00:00",
    "link": ""
  },
  {
    "id": 43584,
    "lat": 31.8988459,
    "lon": 35.0148796,
    "label": " רח' עמק דותן 49 מרכז רב- תחומי, מודיעין",
    "text": "",
    "stayTimes": "10:30-11:00",
    "t_start": "2020-03-13T08:30:00",
    "t_end": "2020-03-13T09:00:00",
    "link": ""
  },
  {
    "id": 43585,
    "lat": 31.7540687000001,
    "lon": 35.2132365000001,
    "label": "חנות \"הפיראט האדום\" תלפיות מתחת לקניון הדר - ירושלים",
    "text": "",
    "stayTimes": "10:30 - 10:45",
    "t_start": "2020-03-13T08:30:00",
    "t_end": "2020-03-13T08:45:00",
    "link": ""
  },
  {
    "id": 43586,
    "lat": 32.0716067000001,
    "lon": 34.8290158,
    "label": "שופרסל שלי מרכז מרום נווה - רמת גן",
    "text": "",
    "stayTimes": "10:45 - 11:00",
    "t_start": "2020-03-13T08:45:00",
    "t_end": "2020-03-13T09:00:00",
    "link": ""
  },
  {
    "id": 43587,
    "lat": 31.8992523000001,
    "lon": 35.0147152000001,
    "label": "עמק דותן 49 מודיעין",
    "text": "",
    "stayTimes": "10:50-11:00",
    "t_start": "2020-03-13T08:50:00",
    "t_end": "2020-03-13T09:00:00",
    "link": ""
  },
  {
    "id": 43588,
    "lat": 31.9004192,
    "lon": 35.008295,
    "label": "בית הרופאים רח' ערער 9 מודיעין",
    "text": "",
    "stayTimes": "11:00-11:30",
    "t_start": "2020-03-13T09:00:00",
    "t_end": "2020-03-13T09:30:00",
    "link": ""
  },
  {
    "id": 43589,
    "lat": 33.0043190000001,
    "lon": 35.0982285000001,
    "label": "קשת טעמים רח' לוחמי הגטאות 9, נהריה",
    "text": "",
    "stayTimes": "11:00-11:15",
    "t_start": "2020-03-13T09:00:00",
    "t_end": "2020-03-13T09:15:00",
    "link": ""
  },
  {
    "id": 43590,
    "lat": 31.8893826,
    "lon": 34.9625248,
    "label": "חנות מחשבים \"אייבורי\" ישפרו מודיעין",
    "text": "",
    "stayTimes": "11:00-11:30",
    "t_start": "2020-03-13T09:00:00",
    "t_end": "2020-03-13T09:30:00",
    "link": ""
  },
  {
    "id": 43591,
    "lat": 31.8898011000001,
    "lon": 34.9628105,
    "label": "חנות \"\"אייבורי\"\", \"\"ישפרו סנטר\"\", רח' המלאכות, מודיעין.",
    "text": "",
    "stayTimes": "11:00-11:30",
    "t_start": "2020-03-13T09:00:00",
    "t_end": "2020-03-13T09:30:00",
    "link": ""
  },
  {
    "id": 43592,
    "lat": 31.8893826,
    "lon": 34.9625248,
    "label": "\"אייבורי\", \"ישפרו סנטר\", רח' המלאכות, מודיעין.",
    "text": "",
    "stayTimes": "11:00-11:30",
    "t_start": "2020-03-13T09:00:00",
    "t_end": "2020-03-13T09:30:00",
    "link": ""
  },
  {
    "id": 43593,
    "lat": 31.7818868000001,
    "lon": 35.1615608000001,
    "label": "בית קפה דרך הגפן, מושב בית זית 24",
    "text": "",
    "stayTimes": "11:00-13:00",
    "t_start": "2020-03-13T09:00:00",
    "t_end": "2020-03-13T11:00:00",
    "link": ""
  },
  {
    "id": 43594,
    "lat": 32.9900208,
    "lon": 35.0844446,
    "label": "אטליז גבאי רח' השקד 38, נהריה",
    "text": "",
    "stayTimes": "11:15-11:35",
    "t_start": "2020-03-13T09:15:00",
    "t_end": "2020-03-13T09:35:00",
    "link": ""
  },
  {
    "id": 43595,
    "lat": 31.417696,
    "lon": 34.5925580000001,
    "label": "יוחננוף, נתיבות",
    "text": "",
    "stayTimes": "11:15-11:30",
    "t_start": "2020-03-13T09:15:00",
    "t_end": "2020-03-13T09:30:00",
    "link": ""
  },
  {
    "id": 43596,
    "lat": 32.0662875,
    "lon": 34.7706386,
    "label": "בית קפה \"בירנבאום\", רחוב נחלת בנימין 31, תל אביב",
    "text": "",
    "stayTimes": "11:30-13:45",
    "t_start": "2020-03-13T09:30:00",
    "t_end": "2020-03-13T11:45:00",
    "link": ""
  },
  {
    "id": 43597,
    "lat": 31.9006391,
    "lon": 35.0078202,
    "label": "סופר פארם קניון עזריאלי מודיעין",
    "text": "",
    "stayTimes": "11:30-12:00",
    "t_start": "2020-03-13T09:30:00",
    "t_end": "2020-03-13T10:00:00",
    "link": ""
  },
  {
    "id": 43598,
    "lat": 31.8898011000001,
    "lon": 34.9628105,
    "label": " חנות \"מגה ספורט\" ישפרו מודיעין",
    "text": "",
    "stayTimes": "11:30-11:40",
    "t_start": "2020-03-13T09:30:00",
    "t_end": "2020-03-13T09:40:00",
    "link": ""
  },
  {
    "id": 43599,
    "lat": 31.2450371730001,
    "lon": 34.783172415,
    "label": "הולמס פליס - באר שבע",
    "text": "",
    "stayTimes": "11:30 - 12:30",
    "t_start": "2020-03-13T09:30:00",
    "t_end": "2020-03-13T10:30:00",
    "link": ""
  },
  {
    "id": 43600,
    "lat": 32.0861406000001,
    "lon": 34.7790996000001,
    "label": "שופרסל, רחוב ארלוזורוב 53, תל אביב",
    "text": "",
    "stayTimes": "12:00-13:00",
    "t_start": "2020-03-13T10:00:00",
    "t_end": "2020-03-13T11:00:00",
    "link": ""
  },
  {
    "id": 43601,
    "lat": 31.7713271000001,
    "lon": 35.2984768000001,
    "label": "קניון מעלה אדומים, שופרסל ודלתא - מעלה אדומים",
    "text": "",
    "stayTimes": "12:00 - 13:30",
    "t_start": "2020-03-13T10:00:00",
    "t_end": "2020-03-13T11:30:00",
    "link": ""
  },
  {
    "id": 43602,
    "lat": 32.0371900000001,
    "lon": 34.89205,
    "label": "בית כנסת \"אור לשבים\" יהוד",
    "text": "",
    "stayTimes": "12:30-13:00",
    "t_start": "2020-03-13T10:30:00",
    "t_end": "2020-03-13T11:00:00",
    "link": ""
  },
  {
    "id": 43603,
    "lat": 32.0787578000001,
    "lon": 34.7741486,
    "label": "חנות BO-E , דיזנגוף 96 תל אביב",
    "text": "",
    "stayTimes": "13:00-13:30",
    "t_start": "2020-03-13T11:00:00",
    "t_end": "2020-03-13T11:30:00",
    "link": ""
  },
  {
    "id": 43604,
    "lat": 32.0787578000001,
    "lon": 34.7741486,
    "label": "חנות BO-E , דיזנגוף 96 תל אביב",
    "text": "",
    "stayTimes": "13:00-13:30",
    "t_start": "2020-03-13T11:00:00",
    "t_end": "2020-03-13T11:30:00",
    "link": ""
  },
  {
    "id": 43605,
    "lat": 32.0924884,
    "lon": 34.8379598000001,
    "label": "מוקד טרם, רחוב ז’בוטינסקי 160, בני ברק",
    "text": "",
    "stayTimes": "13:00-13:30",
    "t_start": "2020-03-13T11:00:00",
    "t_end": "2020-03-13T11:30:00",
    "link": ""
  },
  {
    "id": 43606,
    "lat": 32.8187756,
    "lon": 34.9940907000001,
    "label": "מסעדת \"שווארמה אמיל\", דרך אלנבי 33, חיפה",
    "text": "",
    "stayTimes": "13:00-14:00",
    "t_start": "2020-03-13T11:00:00",
    "t_end": "2020-03-13T12:00:00",
    "link": ""
  },
  {
    "id": 43607,
    "lat": 32.0703564,
    "lon": 34.7697756000001,
    "label": "בר \"סלון ברלין\", רחוב נג'רה 15, תל אביב",
    "text": "",
    "stayTimes": "13:30-17:30",
    "t_start": "2020-03-13T11:30:00",
    "t_end": "2020-03-13T15:30:00",
    "link": ""
  },
  {
    "id": 43608,
    "lat": 32.0808965000001,
    "lon": 34.7815399,
    "label": "ארקפה רח' אבן גבירול 70 תל אביב",
    "text": "",
    "stayTimes": "13:30-13:40",
    "t_start": "2020-03-13T11:30:00",
    "t_end": "2020-03-13T11:40:00",
    "link": ""
  },
  {
    "id": 43609,
    "lat": 32.0804173000001,
    "lon": 34.7817415000001,
    "label": "בר המשבצת - תל אביב - יפו",
    "text": "",
    "stayTimes": "13:45 - 16:00",
    "t_start": "2020-03-13T11:45:00",
    "t_end": "2020-03-13T14:00:00",
    "link": ""
  },
  {
    "id": 43610,
    "lat": 32.0915515,
    "lon": 34.8247563,
    "label": "סופר פארם, רחוב ז’בוטינסקי 7, בני ברק",
    "text": "",
    "stayTimes": "14:00-15:00",
    "t_start": "2020-03-13T12:00:00",
    "t_end": "2020-03-13T13:00:00",
    "link": ""
  },
  {
    "id": 43611,
    "lat": 32.4383146000001,
    "lon": 34.9286490000001,
    "label": "יינות ביתן מתחם mix חדרה",
    "text": "",
    "stayTimes": "14:00-15:00",
    "t_start": "2020-03-13T12:00:00",
    "t_end": "2020-03-13T13:00:00",
    "link": ""
  },
  {
    "id": 43612,
    "lat": 32.4383146000001,
    "lon": 34.9286490000001,
    "label": "סופר יינון ביתן מתחם מיקס חדרה - חדרה",
    "text": "",
    "stayTimes": "14:00 - 15:00",
    "t_start": "2020-03-13T12:00:00",
    "t_end": "2020-03-13T13:00:00",
    "link": ""
  },
  {
    "id": 43613,
    "lat": 32.6957333,
    "lon": 35.3003855000001,
    "label": "מתחם ביג פאשן - נצרת",
    "text": "",
    "stayTimes": "15:00 - 16:00",
    "t_start": "2020-03-13T13:00:00",
    "t_end": "2020-03-13T14:00:00",
    "link": ""
  },
  {
    "id": 43614,
    "lat": 31.2384220000001,
    "lon": 34.7737270000001,
    "label": "משביר מחסני הצרכן מרכז מסחרי מבנה ב\"ש - באר שבע",
    "text": "",
    "stayTimes": "15:00 - 15:30",
    "t_start": "2020-03-13T13:00:00",
    "t_end": "2020-03-13T13:30:00",
    "link": ""
  },
  {
    "id": 43615,
    "lat": 31.2417806,
    "lon": 34.8106661,
    "label": "H&O מרכז ביג - באר שבע",
    "text": "",
    "stayTimes": "15:00 - 16:00",
    "t_start": "2020-03-13T13:00:00",
    "t_end": "2020-03-13T14:00:00",
    "link": ""
  },
  {
    "id": 43616,
    "lat": 32.0779264,
    "lon": 34.8398083000001,
    "label": "\"כולל אדרת אליהו\", רח' בן יעקב 17, בני ברק",
    "text": "",
    "stayTimes": "15:45-16:10",
    "t_start": "2020-03-13T13:45:00",
    "t_end": "2020-03-13T14:10:00",
    "link": ""
  },
  {
    "id": 43617,
    "lat": 31.773572825,
    "lon": 35.1654302380001,
    "label": "קבלת פנים באירוע משפחתי במרכז ציפורי יער ירושלים",
    "text": "",
    "stayTimes": "16:00-16:30",
    "t_start": "2020-03-13T14:00:00",
    "t_end": "2020-03-13T14:30:00",
    "link": ""
  },
  {
    "id": 43618,
    "lat": 31.772660725,
    "lon": 35.1662027140001,
    "label": "קבלת פנים באירוע משפחתי במרכז ציפורי יער ירושלים",
    "text": "",
    "stayTimes": "16:00-16:30",
    "t_start": "2020-03-13T14:00:00",
    "t_end": "2020-03-13T14:30:00",
    "link": ""
  },
  {
    "id": 43619,
    "lat": 31.243825218,
    "lon": 34.7953814590001,
    "label": "חנות בלונים תחנה מרכזית ב\"ש ליד חנות סטימצקי - באר שבע",
    "text": "",
    "stayTimes": "16:00 - 16:30",
    "t_start": "2020-03-13T14:00:00",
    "t_end": "2020-03-13T14:30:00",
    "link": ""
  },
  {
    "id": 43620,
    "lat": 32.6208532000001,
    "lon": 35.3160576000001,
    "label": "מיון ביח' העמק - עפולה",
    "text": "",
    "stayTimes": "16:00 - 18:00",
    "t_start": "2020-03-13T14:00:00",
    "t_end": "2020-03-13T16:00:00",
    "link": ""
  },
  {
    "id": 43621,
    "lat": 31.9880811,
    "lon": 34.8516028000001,
    "label": "מקווה מרכזי כפר חב''ד",
    "text": "",
    "stayTimes": "16:15-17:15",
    "t_start": "2020-03-13T14:15:00",
    "t_end": "2020-03-13T15:15:00",
    "link": ""
  },
  {
    "id": 43622,
    "lat": 32.0943643530001,
    "lon": 34.835152426,
    "label": "בית כנסת \"היכל מאיר\", רח' נורדאו 35, בני ברק",
    "text": "",
    "stayTimes": "16:30-17:30",
    "t_start": "2020-03-13T14:30:00",
    "t_end": "2020-03-13T15:30:00",
    "link": ""
  },
  {
    "id": 43623,
    "lat": 31.2441962,
    "lon": 34.7961416000001,
    "label": "חנות פרחי טיב תחנה מרכזית - באר שבע",
    "text": "",
    "stayTimes": "16:30 - 17:00",
    "t_start": "2020-03-13T14:30:00",
    "t_end": "2020-03-13T15:00:00",
    "link": ""
  },
  {
    "id": 43624,
    "lat": 32.6210762000001,
    "lon": 35.3165964,
    "label": "מלר\"ד נשים מרכז רפואי העמק",
    "text": "",
    "stayTimes": "17:00-17:45",
    "t_start": "2020-03-13T15:00:00",
    "t_end": "2020-03-13T15:45:00",
    "link": ""
  },
  {
    "id": 43625,
    "lat": 31.8035901000001,
    "lon": 35.1032978000001,
    "label": "בית הכנסת \"דרכי אבותינו\" רחוב גורדון 1 קריית יערים",
    "text": "",
    "stayTimes": "17:00-18:30",
    "t_start": "2020-03-13T15:00:00",
    "t_end": "2020-03-13T16:30:00",
    "link": ""
  },
  {
    "id": 43626,
    "lat": 31.8035901000001,
    "lon": 35.1032978000001,
    "label": "בית הכנסת \"דרכי אבותינו\" רחוב גורדון 1 קריית יערים",
    "text": "",
    "stayTimes": "17:00-18:30",
    "t_start": "2020-03-13T15:00:00",
    "t_end": "2020-03-13T16:30:00",
    "link": ""
  },
  {
    "id": 43627,
    "lat": 32.0794765090001,
    "lon": 34.8358719070001,
    "label": "בית כנסת - בני ברק",
    "text": "",
    "stayTimes": "17:00 - 19:00",
    "t_start": "2020-03-13T15:00:00",
    "t_end": "2020-03-13T17:00:00",
    "link": ""
  },
  {
    "id": 43628,
    "lat": 32.079458328,
    "lon": 34.8358719070001,
    "label": "בית כנסת - בני ברק",
    "text": "",
    "stayTimes": "17:00 - 19:00",
    "t_start": "2020-03-13T15:00:00",
    "t_end": "2020-03-13T17:00:00",
    "link": ""
  },
  {
    "id": 43629,
    "lat": 31.8195152000001,
    "lon": 35.2533911,
    "label": "בית הכנסת 'אוהלי יוסף ושרה'  יצחק טוניק בירושלים",
    "text": "",
    "stayTimes": "17:15-18:30",
    "t_start": "2020-03-13T15:15:00",
    "t_end": "2020-03-13T16:30:00",
    "link": ""
  },
  {
    "id": 43630,
    "lat": 31.819480099,
    "lon": 35.2534051390001,
    "label": "בית כנסת \"אוהלי יוסף ושרה\", רחוב יצחק טוניק, ירושלים",
    "text": "",
    "stayTimes": "17:15-18:00",
    "t_start": "2020-03-13T15:15:00",
    "t_end": "2020-03-13T16:00:00",
    "link": ""
  },
  {
    "id": 43631,
    "lat": 31.8195667050001,
    "lon": 35.2536411730001,
    "label": "בית כנסת \"אוהלי יוסף ושרה\", רחוב יצחק טוניק, ירושלים",
    "text": "",
    "stayTimes": "17:15-18:30",
    "t_start": "2020-03-13T15:15:00",
    "t_end": "2020-03-13T16:30:00",
    "link": ""
  },
  {
    "id": 43632,
    "lat": 32.0901985,
    "lon": 34.8366309,
    "label": "בית כנסת \"ישועה ליהודה\", רח' יואל 16, בני ברק",
    "text": "",
    "stayTimes": "17:15-18:30",
    "t_start": "2020-03-13T15:15:00",
    "t_end": "2020-03-13T16:30:00",
    "link": ""
  },
  {
    "id": 43633,
    "lat": 32.0354600000001,
    "lon": 34.88104,
    "label": "בית כנסת \"אור אבנר\", יהוד",
    "text": "",
    "stayTimes": "17:30-19:00",
    "t_start": "2020-03-13T15:30:00",
    "t_end": "2020-03-13T17:00:00",
    "link": ""
  },
  {
    "id": 43634,
    "lat": 32.6778114000001,
    "lon": 35.2417497000001,
    "label": "שיבה מתיבתא מגדל העמק",
    "text": "",
    "stayTimes": "17:30-19:00",
    "t_start": "2020-03-13T15:30:00",
    "t_end": "2020-03-13T17:00:00",
    "link": ""
  },
  {
    "id": 43635,
    "lat": 31.937594,
    "lon": 34.8465110000001,
    "label": "ית הכנסת 'קדושי פולין' ברח' ז'בוטינסקי, מושב נווה דורון",
    "text": "",
    "stayTimes": "17:30-19:00",
    "t_start": "2020-03-13T15:30:00",
    "t_end": "2020-03-13T17:00:00",
    "link": ""
  },
  {
    "id": 43636,
    "lat": 31.937594,
    "lon": 34.8465110000001,
    "label": "בית הכנסת 'קדושי פולין' ברח' ז'בוטינסקי, מושב נווה דורון",
    "text": "",
    "stayTimes": "17:30-19:00",
    "t_start": "2020-03-13T15:30:00",
    "t_end": "2020-03-13T17:00:00",
    "link": ""
  },
  {
    "id": 43637,
    "lat": 32.6348649,
    "lon": 35.3245400000001,
    "label": "רחוב וינגייט עפולה",
    "text": "",
    "stayTimes": "17:30-19:00",
    "t_start": "2020-03-13T15:30:00",
    "t_end": "2020-03-13T17:00:00",
    "link": ""
  },
  {
    "id": 43638,
    "lat": 32.0972214,
    "lon": 34.84142,
    "label": "בית כנסת הרב שחף - אולם פנימי, רח' הרב נויפלד 10 בני ברק",
    "text": "",
    "stayTimes": "17:30-19:00",
    "t_start": "2020-03-13T15:30:00",
    "t_end": "2020-03-13T17:00:00",
    "link": ""
  },
  {
    "id": 43639,
    "lat": 31.8087788,
    "lon": 34.78599,
    "label": "בית כנסת \"בית חב\"ד\" רחוב היסמין 24 גדרה",
    "text": "",
    "stayTimes": "17:30-18:00",
    "t_start": "2020-03-13T15:30:00",
    "t_end": "2020-03-13T16:00:00",
    "link": ""
  },
  {
    "id": 43640,
    "lat": 31.3263210000001,
    "lon": 34.6489340000001,
    "label": "בית כנסת מגן שלמה, מושב גילת",
    "text": "",
    "stayTimes": "17:30-19:00",
    "t_start": "2020-03-13T15:30:00",
    "t_end": "2020-03-13T17:00:00",
    "link": ""
  },
  {
    "id": 43641,
    "lat": 31.4220945000001,
    "lon": 34.7863414,
    "label": "סי קפה צומת דבירה - דבירה",
    "text": "",
    "stayTimes": "17:30 - 18:00",
    "t_start": "2020-03-13T15:30:00",
    "t_end": "2020-03-13T16:00:00",
    "link": ""
  },
  {
    "id": 43642,
    "lat": 31.7876648000001,
    "lon": 35.2191968000001,
    "label": "בית כנסת אהבת שלום - ירושלים",
    "text": "",
    "stayTimes": "17:30 - 18:30",
    "t_start": "2020-03-13T15:30:00",
    "t_end": "2020-03-13T16:30:00",
    "link": ""
  },
  {
    "id": 43643,
    "lat": 32.0160555000001,
    "lon": 34.7467473,
    "label": "בית כנסת בית אל - בת ים",
    "text": "",
    "stayTimes": "17:30 - 18:30",
    "t_start": "2020-03-13T15:30:00",
    "t_end": "2020-03-13T16:30:00",
    "link": ""
  },
  {
    "id": 43644,
    "lat": 32.0800752000001,
    "lon": 34.9019874000001,
    "label": "רחוב אלעזר פתח תקווה",
    "text": "",
    "stayTimes": "17:45-19:30",
    "t_start": "2020-03-13T15:45:00",
    "t_end": "2020-03-13T17:30:00",
    "link": ""
  },
  {
    "id": 43645,
    "lat": 31.0684946000001,
    "lon": 35.0410436000001,
    "label": "בית הכנסת \"שלום המלכה \" ברחוב נצרים, דימונה",
    "text": "",
    "stayTimes": "18:00-19:00",
    "t_start": "2020-03-13T16:00:00",
    "t_end": "2020-03-13T17:00:00",
    "link": ""
  },
  {
    "id": 43646,
    "lat": 32.7857036,
    "lon": 35.0173118000001,
    "label": "בית הכנסת 'אור וישועה', רח' טרומפלדור, חיפה",
    "text": "",
    "stayTimes": "18:00-19:00",
    "t_start": "2020-03-13T16:00:00",
    "t_end": "2020-03-13T17:00:00",
    "link": ""
  },
  {
    "id": 43647,
    "lat": 31.7856547000001,
    "lon": 35.2250446,
    "label": "ישיבת \"תולדות אהרון\", ירושלים",
    "text": "",
    "stayTimes": "18:00-18:15",
    "t_start": "2020-03-13T16:00:00",
    "t_end": "2020-03-13T16:15:00",
    "link": ""
  },
  {
    "id": 43648,
    "lat": 32.7857036,
    "lon": 35.0173118000001,
    "label": "בית כנסת 'אור וישועה' - חיפה",
    "text": "",
    "stayTimes": "18:00 - 19:00",
    "t_start": "2020-03-13T16:00:00",
    "t_end": "2020-03-13T17:00:00",
    "link": ""
  },
  {
    "id": 43649,
    "lat": 32.0354635,
    "lon": 34.8810490000001,
    "label": "בית כנסת אור אבנר, יהוד",
    "text": "",
    "stayTimes": "18:20-19:30",
    "t_start": "2020-03-13T16:20:00",
    "t_end": "2020-03-13T17:30:00",
    "link": ""
  },
  {
    "id": 43650,
    "lat": 32.7866310000001,
    "lon": 34.9984804000001,
    "label": "מסעדת ויוינו (Vivino) חוצות המפרץ אאוטלט, חיפה",
    "text": "",
    "stayTimes": "18:45-20:00",
    "t_start": "2020-03-13T16:45:00",
    "t_end": "2020-03-13T18:00:00",
    "link": ""
  },
  {
    "id": 43651,
    "lat": 32.0775921000001,
    "lon": 34.7682231000001,
    "label": "הבית התיילנדי - תל אביב - יפו",
    "text": "",
    "stayTimes": "19:00 - 21:45",
    "t_start": "2020-03-13T17:00:00",
    "t_end": "2020-03-13T19:45:00",
    "link": ""
  },
  {
    "id": 43652,
    "lat": 32.0779264,
    "lon": 34.8398083000001,
    "label": "\"כולל אדרת אליהו\", רח' בן יעקב 17, בני ברק",
    "text": "",
    "stayTimes": "19:15-19:40",
    "t_start": "2020-03-13T17:15:00",
    "t_end": "2020-03-13T17:40:00",
    "link": ""
  },
  {
    "id": 43653,
    "lat": 32.6210762000001,
    "lon": 35.3165964,
    "label": "מלר\"ד פנימי מרכז רפואי העמק",
    "text": "",
    "stayTimes": "20:30-21:50",
    "t_start": "2020-03-13T18:30:00",
    "t_end": "2020-03-13T19:50:00",
    "link": ""
  },
  {
    "id": 43654,
    "lat": 32.6210762000001,
    "lon": 35.3165964,
    "label": "מלר\"ד פנימי כללי מרכז רפואי העמק",
    "text": "",
    "stayTimes": "20:30-22:00",
    "t_start": "2020-03-13T18:30:00",
    "t_end": "2020-03-13T20:00:00",
    "link": ""
  },
  {
    "id": 43655,
    "lat": 31.785402531,
    "lon": 34.664427495,
    "label": "ביהכ\"נ אור החיים - אשדוד",
    "text": "",
    "stayTimes": "21:30 - 22:00",
    "t_start": "2020-03-13T19:30:00",
    "t_end": "2020-03-13T20:00:00",
    "link": ""
  },
  {
    "id": 43656,
    "lat": 32.097205574,
    "lon": 34.8376757870001,
    "label": "טיש אצל האדמור +פגישה עם הבחורים בישיבה הגדולה - בני ברק",
    "text": "",
    "stayTimes": "21:30 - 00:30",
    "t_start": "2020-03-13T19:30:00",
    "t_end": "2020-03-13T22:30:00",
    "link": ""
  },
  {
    "id": 43657,
    "lat": 32.074701481,
    "lon": 34.7833701230001,
    "label": "בר FRIENDS - תל אביב - יפו",
    "text": "",
    "stayTimes": "22:30 - 00:00",
    "t_start": "2020-03-13T20:30:00",
    "t_end": "2020-03-13T22:00:00",
    "link": ""
  },
  {
    "id": 43658,
    "lat": 32.0360309000001,
    "lon": 34.7627074000001,
    "label": "בית חולים וולפסון",
    "text": "",
    "stayTimes": "00:00-23:59",
    "t_start": "2020-03-13T22:00:00",
    "t_end": "2020-03-14T21:59:00",
    "link": ""
  },
  {
    "id": 43659,
    "lat": 32.6210762000001,
    "lon": 35.3165964,
    "label": "מלר\"ד פנימי כללי מרכז רפואי העמק",
    "text": "",
    "stayTimes": "00:00-04:30",
    "t_start": "2020-03-13T22:00:00",
    "t_end": "2020-03-14T02:30:00",
    "link": ""
  },
  {
    "id": 43660,
    "lat": 32.9584609,
    "lon": 35.4991753,
    "label": "ישיבת חינוך לנער, צפת",
    "text": "",
    "stayTimes": "00:00-23:59",
    "t_start": "2020-03-13T22:00:00",
    "t_end": "2020-03-14T21:59:00",
    "link": ""
  },
  {
    "id": 43661,
    "lat": 31.6111480000001,
    "lon": 34.7684590000001,
    "label": "בית הכנסת חסדי ישי, קרית גת",
    "text": "",
    "stayTimes": "10:30-14:30",
    "t_start": "2020-03-14T08:30:00",
    "t_end": "2020-03-14T12:30:00",
    "link": ""
  },
  {
    "id": 43662,
    "lat": 32.143400414,
    "lon": 34.803112044,
    "label": "סינמה סיטי גלילות",
    "text": "",
    "stayTimes": "19:00-21:10",
    "t_start": "2020-03-14T17:00:00",
    "t_end": "2020-03-14T19:10:00",
    "link": ""
  },
  {
    "id": 43663,
    "lat": 32.6813385,
    "lon": 35.2325949,
    "label": "בית כנסת חב\"ד מגדל העמק",
    "text": "",
    "stayTimes": "09:00-11:00",
    "t_start": "2020-03-14T07:00:00",
    "t_end": "2020-03-14T09:00:00",
    "link": ""
  },
  {
    "id": 43664,
    "lat": 32.6813385,
    "lon": 35.2325949,
    "label": "בית כנסת חב\"ד מגדל העמק",
    "text": "",
    "stayTimes": "16:00-19:00",
    "t_start": "2020-03-14T14:00:00",
    "t_end": "2020-03-14T17:00:00",
    "link": ""
  },
  {
    "id": 43665,
    "lat": 32.7844835000001,
    "lon": 35.4986223000001,
    "label": "סופרמרקט \"רמי לוי\", מתחם ביג, פוריה",
    "text": "",
    "stayTimes": "19:00-21:30",
    "t_start": "2020-03-14T17:00:00",
    "t_end": "2020-03-14T19:30:00",
    "link": ""
  },
  {
    "id": 43666,
    "lat": 31.808802659,
    "lon": 34.786002909,
    "label": "בית כנסת חב\"ד ברחוב יסמין, רחובות",
    "text": "",
    "stayTimes": "08:00-11:00",
    "t_start": "2020-03-14T06:00:00",
    "t_end": "2020-03-14T09:00:00",
    "link": ""
  },
  {
    "id": 43667,
    "lat": 32.2692212000001,
    "lon": 34.8906791000001,
    "label": "בית חב\"ד, רחוב המייסדים 41, אבן יהודה",
    "text": "",
    "stayTimes": "17:00-20:00",
    "t_start": "2020-03-14T15:00:00",
    "t_end": "2020-03-14T18:00:00",
    "link": ""
  },
  {
    "id": 43668,
    "lat": 32.049606383,
    "lon": 34.956674019,
    "label": "בית כנסת \"שערי לוחמים\", אלעד",
    "text": "",
    "stayTimes": "08:00-10:00",
    "t_start": "2020-03-14T06:00:00",
    "t_end": "2020-03-14T08:00:00",
    "link": ""
  },
  {
    "id": 43669,
    "lat": 32.0891370000001,
    "lon": 34.9072570000001,
    "label": "בית כנסת \"שערי לוחמים\", אלעד",
    "text": "",
    "stayTimes": "17:00-18:00",
    "t_start": "2020-03-14T15:00:00",
    "t_end": "2020-03-14T16:00:00",
    "link": ""
  },
  {
    "id": 43670,
    "lat": 32.7848330190001,
    "lon": 35.4989683050001,
    "label": "סופרמרקט \"רמי לוי\", מתחם ביג, פוריה",
    "text": "",
    "stayTimes": "19:00-21:30",
    "t_start": "2020-03-14T17:00:00",
    "t_end": "2020-03-14T19:30:00",
    "link": ""
  },
  {
    "id": 43671,
    "lat": 31.6790119,
    "lon": 35.1636353000001,
    "label": "רחוב הדבש 13, אפרת",
    "text": "",
    "stayTimes": "לא ידוע",
    "t_start": "2020-03-13T22:00:00",
    "t_end": "2020-03-13T22:00:00",
    "link": ""
  },
  {
    "id": 43672,
    "lat": 31.6568936620001,
    "lon": 35.1504848700001,
    "label": "בית הכנסת המרכזי באפרת\"",
    "text": "",
    "stayTimes": "19:20-19:50",
    "t_start": "2020-03-14T17:20:00",
    "t_end": "2020-03-14T17:50:00",
    "link": ""
  },
  {
    "id": 43673,
    "lat": 32.1147789,
    "lon": 34.8263634,
    "label": "סופר טיב טעם שיכון דן, רחוב רוזן פנחס 72, תל אביב",
    "text": "",
    "stayTimes": "20:00-20:20",
    "t_start": "2020-03-14T18:00:00",
    "t_end": "2020-03-14T18:20:00",
    "link": ""
  },
  {
    "id": 43674,
    "lat": 31.87904,
    "lon": 35.248254,
    "label": "בית כנסת בבית מדרש \"אוהלי שם\" רח' נהר שלום כוכב יעקב",
    "text": "",
    "stayTimes": "07:45-10:15",
    "t_start": "2020-03-14T05:45:00",
    "t_end": "2020-03-14T08:15:00",
    "link": ""
  },
  {
    "id": 43675,
    "lat": 31.87904,
    "lon": 35.248254,
    "label": "בית כנסת בבית מדרש \"אוהלי שם\" רח' נהר שלום כוכב יעקב",
    "text": "",
    "stayTimes": "17:00-17:30",
    "t_start": "2020-03-14T15:00:00",
    "t_end": "2020-03-14T15:30:00",
    "link": ""
  },
  {
    "id": 43676,
    "lat": 31.87904,
    "lon": 35.248254,
    "label": "בית כנסת בבית מדרש \"אוהלי שם\" רח' נהר שלום כוכב יעקב",
    "text": "",
    "stayTimes": "18:30-18:45",
    "t_start": "2020-03-14T16:30:00",
    "t_end": "2020-03-14T16:45:00",
    "link": ""
  },
  {
    "id": 43677,
    "lat": 31.7896423,
    "lon": 35.1739899,
    "label": "בית כנסת אמרי שפר, רח' קצנלבוגן 1, הר נוף, ירושלים",
    "text": "",
    "stayTimes": "10:45-12:15",
    "t_start": "2020-03-14T08:45:00",
    "t_end": "2020-03-14T10:15:00",
    "link": ""
  },
  {
    "id": 43678,
    "lat": 32.0330968000001,
    "lon": 34.8788612000001,
    "label": "בית הכנסת ״שארית הפליטה״, יהוד",
    "text": "",
    "stayTimes": "10:30-11:00",
    "t_start": "2020-03-14T08:30:00",
    "t_end": "2020-03-14T09:00:00",
    "link": ""
  },
  {
    "id": 43679,
    "lat": 32.0781428,
    "lon": 34.8297768,
    "label": "בית כנסת קהל חסידים, רח' חולדה הנביאה 10, בני ברק",
    "text": "",
    "stayTimes": "07:00-10:00",
    "t_start": "2020-03-14T05:00:00",
    "t_end": "2020-03-14T08:00:00",
    "link": ""
  },
  {
    "id": 43680,
    "lat": 32.0908013000001,
    "lon": 34.8389312,
    "label": "סופרמרקט \"יש חסד\" מרכז רימונים, רח' אהרונוביץ 10, בני ברק",
    "text": "",
    "stayTimes": "23:00-00:30",
    "t_start": "2020-03-14T21:00:00",
    "t_end": "2020-03-13T22:30:00",
    "link": ""
  },
  {
    "id": 43681,
    "lat": 31.7896423,
    "lon": 35.1739899,
    "label": "בית כנסת אמרי שפר, רח' קצנלבוגן 1, הר נוף, ירושלים",
    "text": "",
    "stayTimes": "17:40-19:00",
    "t_start": "2020-03-14T15:40:00",
    "t_end": "2020-03-14T17:00:00",
    "link": ""
  },
  {
    "id": 43682,
    "lat": 31.6535890000001,
    "lon": 35.149934,
    "label": "בית כנסת מרכזי התמר, אפרת",
    "text": "",
    "stayTimes": "00:02-23:58",
    "t_start": "2020-03-13T22:02:00",
    "t_end": "2020-03-14T21:58:00",
    "link": ""
  },
  {
    "id": 43683,
    "lat": 32.0792696,
    "lon": 34.7811299000001,
    "label": "המבורגריה \"המוסד\" אבן גבירול 67, תל אביב",
    "text": "",
    "stayTimes": "00:15-01:45",
    "t_start": "2020-03-13T22:15:00",
    "t_end": "2020-03-13T23:45:00",
    "link": ""
  },
  {
    "id": 43684,
    "lat": 32.0792503000001,
    "lon": 34.7811531,
    "label": "המבורגריית \"המוסד\" - תל אביב - יפו",
    "text": "",
    "stayTimes": "00:15 - 01:45",
    "t_start": "2020-03-13T22:15:00",
    "t_end": "2020-03-13T23:45:00",
    "link": ""
  },
  {
    "id": 43685,
    "lat": 32.6778114000001,
    "lon": 35.2417497000001,
    "label": "בית כנסת מעלות ניסים מגדל העמק",
    "text": "",
    "stayTimes": "05:00-07:00",
    "t_start": "2020-03-14T03:00:00",
    "t_end": "2020-03-14T05:00:00",
    "link": ""
  },
  {
    "id": 43686,
    "lat": 32.0831374000001,
    "lon": 34.8379287000001,
    "label": "בית כנסת דרכי אי\"ש, האדמו\"ר מגור 16, בני ברק",
    "text": "",
    "stayTimes": "07:00-10:00",
    "t_start": "2020-03-14T05:00:00",
    "t_end": "2020-03-14T08:00:00",
    "link": ""
  },
  {
    "id": 43687,
    "lat": 32.4469793750001,
    "lon": 34.9233983130001,
    "label": "בית הכנסת חפץ השם - חדרה",
    "text": "",
    "stayTimes": "07:00 - 09:30",
    "t_start": "2020-03-14T05:00:00",
    "t_end": "2020-03-14T07:30:00",
    "link": ""
  },
  {
    "id": 43688,
    "lat": 31.8195667050001,
    "lon": 35.253469512,
    "label": "בית כנסת \"אוהלי יוסף ושרה\", רחוב יצחק טוניק, ירושלים",
    "text": "",
    "stayTimes": "07:30-10:00",
    "t_start": "2020-03-14T05:30:00",
    "t_end": "2020-03-14T08:00:00",
    "link": ""
  },
  {
    "id": 43689,
    "lat": 32.0943643530001,
    "lon": 34.835152426,
    "label": "בית כנסת \"היכל מאיר\", רח' נורדאו 35, בני ברק",
    "text": "",
    "stayTimes": "07:30-10:30",
    "t_start": "2020-03-14T05:30:00",
    "t_end": "2020-03-14T08:30:00",
    "link": ""
  },
  {
    "id": 43690,
    "lat": 31.3263210000001,
    "lon": 34.6489340000001,
    "label": "בית כנסת מגן שלמה, מושב גילת",
    "text": "",
    "stayTimes": "07:30-10:30",
    "t_start": "2020-03-14T05:30:00",
    "t_end": "2020-03-14T08:30:00",
    "link": ""
  },
  {
    "id": 43691,
    "lat": 32.0972669000001,
    "lon": 34.8379174,
    "label": "בית כנסת \"זיו יהודה\" ושטיבלאך, שד' אריה לוין בבני ברק",
    "text": "",
    "stayTimes": "07:30-08:00",
    "t_start": "2020-03-14T05:30:00",
    "t_end": "2020-03-14T06:00:00",
    "link": ""
  },
  {
    "id": 43692,
    "lat": 32.0972214,
    "lon": 34.84142,
    "label": "בית כנסת הרב שחף, רח' הרב נויפלד 10 בבני ברק",
    "text": "",
    "stayTimes": "07:30-08:00",
    "t_start": "2020-03-14T05:30:00",
    "t_end": "2020-03-14T06:00:00",
    "link": ""
  },
  {
    "id": 43693,
    "lat": 32.7857036,
    "lon": 35.0173118000001,
    "label": "בית הכנסת 'אור וישועה', רח' טרומפלדור, חיפה",
    "text": "",
    "stayTimes": "08:00-11:00",
    "t_start": "2020-03-14T06:00:00",
    "t_end": "2020-03-14T09:00:00",
    "link": ""
  },
  {
    "id": 43694,
    "lat": 32.0695727,
    "lon": 34.9087876,
    "label": "בן אליעזר 18 פתח תקווה",
    "text": "",
    "stayTimes": "08:00-10:00",
    "t_start": "2020-03-14T06:00:00",
    "t_end": "2020-03-14T08:00:00",
    "link": ""
  },
  {
    "id": 43695,
    "lat": 32.0901985,
    "lon": 34.8366309,
    "label": "בית כנסת \"ישועה ליהודה\", רח' יואל 16, בני ברק",
    "text": "",
    "stayTimes": "08:00-10:30",
    "t_start": "2020-03-14T06:00:00",
    "t_end": "2020-03-14T08:30:00",
    "link": ""
  },
  {
    "id": 43696,
    "lat": 31.8087788,
    "lon": 34.78599,
    "label": "בית כנסת \"בית חב\"ד\" רחוב היסמין 24 גדרה",
    "text": "",
    "stayTimes": "08:00-10:00",
    "t_start": "2020-03-14T06:00:00",
    "t_end": "2020-03-14T08:00:00",
    "link": ""
  },
  {
    "id": 43697,
    "lat": 31.935647944,
    "lon": 34.847648819,
    "label": "בית כנסת \" קדושי פולין\" - באר יעקב",
    "text": "",
    "stayTimes": "08:00 - 10:00",
    "t_start": "2020-03-14T06:00:00",
    "t_end": "2020-03-14T08:00:00",
    "link": ""
  },
  {
    "id": 43698,
    "lat": 32.084988364,
    "lon": 34.8321457210001,
    "label": "בית מדרש - בני ברק",
    "text": "",
    "stayTimes": "08:00 - 10:30",
    "t_start": "2020-03-14T06:00:00",
    "t_end": "2020-03-14T08:30:00",
    "link": ""
  },
  {
    "id": 43699,
    "lat": 31.7607104000001,
    "lon": 35.1978111,
    "label": "בית כנסת אהל משה - ירושלים",
    "text": "",
    "stayTimes": "08:00 - 08:00",
    "t_start": "2020-03-14T06:00:00",
    "t_end": "2020-03-14T06:00:00",
    "link": ""
  },
  {
    "id": 43700,
    "lat": 31.721891688,
    "lon": 35.2248635070001,
    "label": "בית כנסת- כל תפילות השבת - ירושלים",
    "text": "",
    "stayTimes": "08:00 - 18:30",
    "t_start": "2020-03-14T06:00:00",
    "t_end": "2020-03-14T16:30:00",
    "link": ""
  },
  {
    "id": 43701,
    "lat": 32.7857036,
    "lon": 35.0173118000001,
    "label": "בית כנסת 'אור וישועה' - חיפה",
    "text": "",
    "stayTimes": "08:00 - 11:00",
    "t_start": "2020-03-14T06:00:00",
    "t_end": "2020-03-14T09:00:00",
    "link": ""
  },
  {
    "id": 43702,
    "lat": 31.7683190000001,
    "lon": 35.21371,
    "label": "בית כנסת \"כתר לדוד\" - ירושלים",
    "text": "",
    "stayTimes": "08:00 - 09:00",
    "t_start": "2020-03-14T06:00:00",
    "t_end": "2020-03-14T07:00:00",
    "link": ""
  },
  {
    "id": 43703,
    "lat": 31.79076767,
    "lon": 35.208753738,
    "label": "קופ\"ח כללית - ירושלים",
    "text": "",
    "stayTimes": "08:00 - 08:00",
    "t_start": "2020-03-14T06:00:00",
    "t_end": "2020-03-14T06:00:00",
    "link": ""
  },
  {
    "id": 43704,
    "lat": 32.6803305620001,
    "lon": 35.2342582310001,
    "label": "בית כנסת מעלות ניסים מגדל העמק",
    "text": "",
    "stayTimes": "08:30-09:30",
    "t_start": "2020-03-14T06:30:00",
    "t_end": "2020-03-14T07:30:00",
    "link": ""
  },
  {
    "id": 43705,
    "lat": 32.6803305620001,
    "lon": 35.2342582310001,
    "label": "בית כנסת מעלות ניסים מגדל העמק",
    "text": "",
    "stayTimes": "08:30-09:30",
    "t_start": "2020-03-14T06:30:00",
    "t_end": "2020-03-14T07:30:00",
    "link": ""
  },
  {
    "id": 43706,
    "lat": 32.0330968000001,
    "lon": 34.8788612000001,
    "label": "בית כנסת של כולם, רחוב החורש יהוד",
    "text": "",
    "stayTimes": "08:30-11:00",
    "t_start": "2020-03-14T06:30:00",
    "t_end": "2020-03-14T09:00:00",
    "link": ""
  },
  {
    "id": 43707,
    "lat": 31.6535564640001,
    "lon": 35.150846379,
    "label": "בית הכנסת גבעת התמר, אפרת",
    "text": "",
    "stayTimes": "08:30-10:00",
    "t_start": "2020-03-14T06:30:00",
    "t_end": "2020-03-14T08:00:00",
    "link": ""
  },
  {
    "id": 43708,
    "lat": 31.0684946000001,
    "lon": 35.0410436000001,
    "label": "בית הכנסת \"שלום המלכה \" ברחוב נצרים, דימונה",
    "text": "",
    "stayTimes": "08:45-10:30",
    "t_start": "2020-03-14T06:45:00",
    "t_end": "2020-03-14T08:30:00",
    "link": ""
  },
  {
    "id": 43709,
    "lat": 32.086465339,
    "lon": 34.832410714,
    "label": "מקוה צאנז - בני ברק",
    "text": "",
    "stayTimes": "08:45 - 09:15",
    "t_start": "2020-03-14T06:45:00",
    "t_end": "2020-03-14T07:15:00",
    "link": ""
  },
  {
    "id": 43710,
    "lat": 31.8026394450001,
    "lon": 35.099022694,
    "label": "בית הכנסת 'היכל נתן צבי' קרית יערים (טלז סטון)",
    "text": "",
    "stayTimes": "08:50-07:00",
    "t_start": "2020-03-14T06:50:00",
    "t_end": "2020-03-14T05:00:00",
    "link": ""
  },
  {
    "id": 43711,
    "lat": 32.0858079000001,
    "lon": 34.7791748000001,
    "label": "בית קפה איזי קפה, רחוב ארלוזורוב 76, תל אביב",
    "text": "",
    "stayTimes": "09:00-10:00",
    "t_start": "2020-03-14T07:00:00",
    "t_end": "2020-03-14T08:00:00",
    "link": ""
  },
  {
    "id": 43712,
    "lat": 31.7856547000001,
    "lon": 35.2250446,
    "label": "ישיבת \"תולדות אהרון\", ירושלים",
    "text": "",
    "stayTimes": "09:00-09:40",
    "t_start": "2020-03-14T07:00:00",
    "t_end": "2020-03-14T07:40:00",
    "link": ""
  },
  {
    "id": 43713,
    "lat": 31.6535890000001,
    "lon": 35.149934,
    "label": "בית כנסת שירת התמר- תפילת שחרית - אפרת",
    "text": "",
    "stayTimes": "09:00 - 11:00",
    "t_start": "2020-03-14T07:00:00",
    "t_end": "2020-03-14T09:00:00",
    "link": ""
  },
  {
    "id": 43714,
    "lat": 31.7943975920001,
    "lon": 35.211625256,
    "label": "בית כנסת \"חסידי דיאלא\" - ירושלים",
    "text": "",
    "stayTimes": "09:00 - 11:30",
    "t_start": "2020-03-14T07:00:00",
    "t_end": "2020-03-14T09:30:00",
    "link": ""
  },
  {
    "id": 43715,
    "lat": 31.8026394450001,
    "lon": 35.099022694,
    "label": "בית הכנסת 'הקריה' קרית יערים (טלז סטון)",
    "text": "",
    "stayTimes": "09:30-08:50",
    "t_start": "2020-03-14T07:30:00",
    "t_end": "2020-03-14T06:50:00",
    "link": ""
  },
  {
    "id": 43716,
    "lat": 32.0779264,
    "lon": 34.8398083000001,
    "label": "\"כולל אדרת אליהו\", רח' בן יעקב 17, בני ברק",
    "text": "",
    "stayTimes": "09:30-13:00",
    "t_start": "2020-03-14T07:30:00",
    "t_end": "2020-03-14T11:00:00",
    "link": ""
  },
  {
    "id": 43717,
    "lat": 31.7851095,
    "lon": 35.1748198000001,
    "label": "בית כנסת אור חנניה - ירושלים",
    "text": "",
    "stayTimes": "09:30 - 11:30",
    "t_start": "2020-03-14T07:30:00",
    "t_end": "2020-03-14T09:30:00",
    "link": ""
  },
  {
    "id": 43718,
    "lat": 32.1004684120001,
    "lon": 34.775716591,
    "label": "Training Tel Aviv Port מכון כושר F45",
    "text": "",
    "stayTimes": "10:10-11:20",
    "t_start": "2020-03-14T08:10:00",
    "t_end": "2020-03-14T09:20:00",
    "link": ""
  },
  {
    "id": 43719,
    "lat": 31.612332,
    "lon": 34.7659800000001,
    "label": "מקווה יחזקאל, קרית גת",
    "text": "",
    "stayTimes": "10:15-10:30",
    "t_start": "2020-03-14T08:15:00",
    "t_end": "2020-03-14T08:30:00",
    "link": ""
  },
  {
    "id": 43720,
    "lat": 32.6330779130001,
    "lon": 35.3207236280001,
    "label": "בית כנסת חניכי הישיבות יצחק שדה עפולה",
    "text": "",
    "stayTimes": "10:30-14:00",
    "t_start": "2020-03-14T08:30:00",
    "t_end": "2020-03-14T12:00:00",
    "link": ""
  },
  {
    "id": 43721,
    "lat": 32.7897693,
    "lon": 35.0080075000001,
    "label": "גרנד קניון, דרך שמחה גולן 54, חיפה",
    "text": "",
    "stayTimes": "10:30-12:30",
    "t_start": "2020-03-14T08:30:00",
    "t_end": "2020-03-14T10:30:00",
    "link": ""
  },
  {
    "id": 43722,
    "lat": 32.1482618000001,
    "lon": 34.8397356,
    "label": "חדר כושר ספייס פיקס, רח' סוקולוב 90, רמת השרון",
    "text": "",
    "stayTimes": "12:00-13:00",
    "t_start": "2020-03-14T10:00:00",
    "t_end": "2020-03-14T11:00:00",
    "link": ""
  },
  {
    "id": 43723,
    "lat": 32.1482618000001,
    "lon": 34.8397356,
    "label": "חדר כושר ספייס פיקס - רמת השרון",
    "text": "",
    "stayTimes": "12:00 - 13:00",
    "t_start": "2020-03-14T10:00:00",
    "t_end": "2020-03-14T11:00:00",
    "link": ""
  },
  {
    "id": 43724,
    "lat": 32.1650615,
    "lon": 34.8239528,
    "label": "קניון שבעת הכוכבים חנות WeShoes - רעננה",
    "text": "",
    "stayTimes": "12:15 - 12:45",
    "t_start": "2020-03-14T10:15:00",
    "t_end": "2020-03-14T10:45:00",
    "link": ""
  },
  {
    "id": 43725,
    "lat": 32.291499376,
    "lon": 34.863017617,
    "label": "סינמה סיטי נתניה",
    "text": "",
    "stayTimes": "15:00-17:00",
    "t_start": "2020-03-14T13:00:00",
    "t_end": "2020-03-14T15:00:00",
    "link": ""
  },
  {
    "id": 43726,
    "lat": 32.6799407,
    "lon": 35.246158,
    "label": "בית כנסת שער שמעון מגדל העמק",
    "text": "",
    "stayTimes": "15:30-19:30",
    "t_start": "2020-03-14T13:30:00",
    "t_end": "2020-03-14T17:30:00",
    "link": ""
  },
  {
    "id": 43727,
    "lat": 31.8942296760001,
    "lon": 34.7741629940001,
    "label": "גן משחקים, בן גוריון 3, כפר גבירול רחובות",
    "text": "",
    "stayTimes": "15:45-16:30",
    "t_start": "2020-03-14T13:45:00",
    "t_end": "2020-03-14T14:30:00",
    "link": ""
  },
  {
    "id": 43728,
    "lat": 32.0779264,
    "lon": 34.8398083000001,
    "label": "\"כולל אדרת אליהו\", רח' בן יעקב 17, בני ברק",
    "text": "",
    "stayTimes": "15:45-16:10",
    "t_start": "2020-03-14T13:45:00",
    "t_end": "2020-03-14T14:10:00",
    "link": ""
  },
  {
    "id": 43729,
    "lat": 31.8035901000001,
    "lon": 35.1032978000001,
    "label": "בית הכנסת \"דרכי אבותינו\" רחוב גורדון 1 קריית יערים",
    "text": "",
    "stayTimes": "16:00-18:00",
    "t_start": "2020-03-14T14:00:00",
    "t_end": "2020-03-14T16:00:00",
    "link": ""
  },
  {
    "id": 43730,
    "lat": 31.8035901000001,
    "lon": 35.1032978000001,
    "label": "בית הכנסת \"דרכי אבותינו\" רחוב גורדון 1 קריית יערים",
    "text": "",
    "stayTimes": "16:00-18:00",
    "t_start": "2020-03-14T14:00:00",
    "t_end": "2020-03-14T16:00:00",
    "link": ""
  },
  {
    "id": 43731,
    "lat": 31.8026394450001,
    "lon": 35.099022694,
    "label": "בית הכנסת 'בני ישיבות' קרית יערים (טלז סטון)",
    "text": "",
    "stayTimes": "16:00-16:45",
    "t_start": "2020-03-14T14:00:00",
    "t_end": "2020-03-14T14:45:00",
    "link": ""
  },
  {
    "id": 43732,
    "lat": 31.0684946000001,
    "lon": 35.0410436000001,
    "label": "בית הכנסת \"שלום המלכה \" ברחוב נצרים, דימונה",
    "text": "",
    "stayTimes": "16:30-17:00",
    "t_start": "2020-03-14T14:30:00",
    "t_end": "2020-03-14T15:00:00",
    "link": ""
  },
  {
    "id": 43733,
    "lat": 32.0330968000001,
    "lon": 34.8788612000001,
    "label": "בית כנסת של כולם, רחוב החורש יהוד",
    "text": "",
    "stayTimes": "16:30-18:30",
    "t_start": "2020-03-14T14:30:00",
    "t_end": "2020-03-14T16:30:00",
    "link": ""
  },
  {
    "id": 43734,
    "lat": 32.097205574,
    "lon": 34.8376757870001,
    "label": "סעודה שלישית אצל האדמו\"ר מויזניץ' - בני ברק",
    "text": "",
    "stayTimes": "16:30 - 19:00",
    "t_start": "2020-03-14T14:30:00",
    "t_end": "2020-03-14T17:00:00",
    "link": ""
  },
  {
    "id": 43735,
    "lat": 32.6346123770001,
    "lon": 35.332704162,
    "label": "בית כנסת ויזניץ רחב זית 1 עפולה",
    "text": "",
    "stayTimes": "17:00-19:00",
    "t_start": "2020-03-14T15:00:00",
    "t_end": "2020-03-14T17:00:00",
    "link": ""
  },
  {
    "id": 43736,
    "lat": 32.0800752000001,
    "lon": 34.9019874000001,
    "label": "רחוב אלעזר פתח תקווה",
    "text": "",
    "stayTimes": "17:00-17:20",
    "t_start": "2020-03-14T15:00:00",
    "t_end": "2020-03-14T15:20:00",
    "link": ""
  },
  {
    "id": 43737,
    "lat": 31.3263210000001,
    "lon": 34.6489340000001,
    "label": "בית כנסת מגן שלמה, מושב גילת",
    "text": "",
    "stayTimes": "17:00-18:30",
    "t_start": "2020-03-14T15:00:00",
    "t_end": "2020-03-14T16:30:00",
    "link": ""
  },
  {
    "id": 43738,
    "lat": 32.2915084460001,
    "lon": 34.8630283460001,
    "label": "סינמה סיטי נתניה",
    "text": "",
    "stayTimes": "17:15-18:15",
    "t_start": "2020-03-14T15:15:00",
    "t_end": "2020-03-14T16:15:00",
    "link": ""
  },
  {
    "id": 43739,
    "lat": 32.0855984240001,
    "lon": 34.8392532120001,
    "label": "בית כנסת צ'רנוביל - בני ברק",
    "text": "",
    "stayTimes": "17:30 - 19:00",
    "t_start": "2020-03-14T15:30:00",
    "t_end": "2020-03-14T17:00:00",
    "link": ""
  },
  {
    "id": 43740,
    "lat": 31.7856547000001,
    "lon": 35.2250446,
    "label": "ישיבת \"תולדות אהרון\", ירושלים",
    "text": "",
    "stayTimes": "18:00-18:15",
    "t_start": "2020-03-14T16:00:00",
    "t_end": "2020-03-14T16:15:00",
    "link": ""
  },
  {
    "id": 43741,
    "lat": 32.0998254680001,
    "lon": 34.820579175,
    "label": "בית כנסת \"משכן שמעון\" - ירושלים",
    "text": "",
    "stayTimes": "18:00 - 18:45",
    "t_start": "2020-03-14T16:00:00",
    "t_end": "2020-03-14T16:45:00",
    "link": ""
  },
  {
    "id": 43742,
    "lat": 31.0684946000001,
    "lon": 35.0410436000001,
    "label": "בית הכנסת \"שלום המלכה \" ברחוב נצרים, דימונה",
    "text": "",
    "stayTimes": "18:15-18:45",
    "t_start": "2020-03-14T16:15:00",
    "t_end": "2020-03-14T16:45:00",
    "link": ""
  },
  {
    "id": 43743,
    "lat": 32.0800752000001,
    "lon": 34.9019874000001,
    "label": "רחוב אלעזר פתח תקווה",
    "text": "",
    "stayTimes": "18:20-18:40",
    "t_start": "2020-03-14T16:20:00",
    "t_end": "2020-03-14T16:40:00",
    "link": ""
  },
  {
    "id": 43744,
    "lat": 31.8026394450001,
    "lon": 35.099022694,
    "label": "בית הכנסת 'בני ישיבות' קרית יערים (טלז סטון)",
    "text": "",
    "stayTimes": "18:20-18:45",
    "t_start": "2020-03-14T16:20:00",
    "t_end": "2020-03-14T16:45:00",
    "link": ""
  },
  {
    "id": 43745,
    "lat": 31.766282,
    "lon": 35.2107333000001,
    "label": "בית כנסת יקר - ירושלים",
    "text": "",
    "stayTimes": "18:30 - 20:00",
    "t_start": "2020-03-14T16:30:00",
    "t_end": "2020-03-14T18:00:00",
    "link": ""
  },
  {
    "id": 43746,
    "lat": 32.0972669000001,
    "lon": 34.8379174,
    "label": "בית כנסת \"זיו יהודה\" ושטיבלאך, שד' אריה לוין, בני ברק",
    "text": "",
    "stayTimes": "19:00-20:00",
    "t_start": "2020-03-14T17:00:00",
    "t_end": "2020-03-14T18:00:00",
    "link": ""
  },
  {
    "id": 43747,
    "lat": 32.0779264,
    "lon": 34.8398083000001,
    "label": "\"כולל אדרת אליהו\", רח' בן יעקב 17, בני ברק",
    "text": "",
    "stayTimes": "19:15-19:40",
    "t_start": "2020-03-14T17:15:00",
    "t_end": "2020-03-14T17:40:00",
    "link": ""
  },
  {
    "id": 43748,
    "lat": 31.9633949990001,
    "lon": 34.801571439,
    "label": "חנות אייבורי - ראשון לציון",
    "text": "",
    "stayTimes": "19:15 - 20:15",
    "t_start": "2020-03-14T17:15:00",
    "t_end": "2020-03-14T18:15:00",
    "link": ""
  },
  {
    "id": 43749,
    "lat": 31.6535890000001,
    "lon": 35.149934,
    "label": "בית כנסת המרכזי- לימוד אבות ובנים - אפרת",
    "text": "",
    "stayTimes": "19:20 - 19:50",
    "t_start": "2020-03-14T17:20:00",
    "t_end": "2020-03-14T17:50:00",
    "link": ""
  },
  {
    "id": 43750,
    "lat": 31.730265,
    "lon": 34.747124,
    "label": "מוקד רפואה דחופה - קרית מלאכי",
    "text": "",
    "stayTimes": "19:30-20:00",
    "t_start": "2020-03-14T17:30:00",
    "t_end": "2020-03-14T18:00:00",
    "link": ""
  },
  {
    "id": 43751,
    "lat": 31.987387574,
    "lon": 34.7652374260001,
    "label": "חנות דקתלון רחוב הלחי 4, בראשון לציון",
    "text": "",
    "stayTimes": "19:30-19:45",
    "t_start": "2020-03-14T17:30:00",
    "t_end": "2020-03-14T17:45:00",
    "link": ""
  },
  {
    "id": 43752,
    "lat": 32.0279138000001,
    "lon": 34.8860497000001,
    "label": "דרך העצמאות 16, יהוד",
    "text": "",
    "stayTimes": "20:00-23:00",
    "t_start": "2020-03-14T18:00:00",
    "t_end": "2020-03-14T21:00:00",
    "link": ""
  },
  {
    "id": 43753,
    "lat": 31.8182763,
    "lon": 34.6623673,
    "label": "סופרמרקט שופרסל דיל - אשדוד",
    "text": "",
    "stayTimes": "20:00 - 21:30",
    "t_start": "2020-03-14T18:00:00",
    "t_end": "2020-03-14T19:30:00",
    "link": ""
  },
  {
    "id": 43754,
    "lat": 32.0998254680001,
    "lon": 34.820579175,
    "label": "סופר קופיקס - חדרה",
    "text": "",
    "stayTimes": "20:00 - 20:30",
    "t_start": "2020-03-14T18:00:00",
    "t_end": "2020-03-14T18:30:00",
    "link": ""
  },
  {
    "id": 43755,
    "lat": 31.7579284,
    "lon": 35.1645604,
    "label": "אולם בית ספר \"גואטמלה\" - ירושלים",
    "text": "",
    "stayTimes": "20:00 - 21:30",
    "t_start": "2020-03-14T18:00:00",
    "t_end": "2020-03-14T19:30:00",
    "link": ""
  },
  {
    "id": 43756,
    "lat": 32.1609773000001,
    "lon": 34.8430575,
    "label": "סופר \"אחלה סופרמרקט\"",
    "text": "",
    "stayTimes": "20:30-21:00",
    "t_start": "2020-03-14T18:30:00",
    "t_end": "2020-03-14T19:00:00",
    "link": ""
  },
  {
    "id": 43757,
    "lat": 32.0998254680001,
    "lon": 34.820579175,
    "label": "בית כנסת שטיבלך היכל שמואל סמי לוי - חדרה",
    "text": "",
    "stayTimes": "20:30 - 21:30",
    "t_start": "2020-03-14T18:30:00",
    "t_end": "2020-03-14T19:30:00",
    "link": ""
  },
  {
    "id": 43758,
    "lat": 31.8642389,
    "lon": 34.7414761000001,
    "label": "חדר כושר \"לזוז\" - יבנה",
    "text": "",
    "stayTimes": "20:45 - 21:45",
    "t_start": "2020-03-14T18:45:00",
    "t_end": "2020-03-14T19:45:00",
    "link": ""
  },
  {
    "id": 43759,
    "lat": 32.0796020230001,
    "lon": 34.8406953420001,
    "label": "סופרמרקט \"בר כל\", שלמה המלך 6, בני ברק",
    "text": "",
    "stayTimes": "21:00-22:00",
    "t_start": "2020-03-14T19:00:00",
    "t_end": "2020-03-14T20:00:00",
    "link": ""
  },
  {
    "id": 43760,
    "lat": 32.6624940620001,
    "lon": 35.236016211,
    "label": "מחסן באזור תעשיה - מגדל העמק",
    "text": "",
    "stayTimes": "21:00 - 23:00",
    "t_start": "2020-03-14T19:00:00",
    "t_end": "2020-03-14T21:00:00",
    "link": ""
  },
  {
    "id": 43761,
    "lat": 31.9834939,
    "lon": 34.7710435000001,
    "label": "מסעדת ג'ירף - ראשון לציון",
    "text": "",
    "stayTimes": "21:15 - 22:30",
    "t_start": "2020-03-14T19:15:00",
    "t_end": "2020-03-14T20:30:00",
    "link": ""
  },
  {
    "id": 43762,
    "lat": 32.0998254680001,
    "lon": 34.820579175,
    "label": "סופר אושר עד - אשדוד",
    "text": "",
    "stayTimes": "21:30 - 23:00",
    "t_start": "2020-03-14T19:30:00",
    "t_end": "2020-03-14T21:00:00",
    "link": ""
  },
  {
    "id": 43763,
    "lat": 32.0862991000001,
    "lon": 34.8348894000001,
    "label": "נתיב החסד - בני ברק",
    "text": "",
    "stayTimes": "22:00 - 22:30",
    "t_start": "2020-03-14T20:00:00",
    "t_end": "2020-03-14T20:30:00",
    "link": ""
  },
  {
    "id": 43764,
    "lat": 32.0873107,
    "lon": 34.7748221000001,
    "label": "טיב טעם רח' דיזינגוף 197 תל אביב",
    "text": "",
    "stayTimes": "22:15-22:30",
    "t_start": "2020-03-14T20:15:00",
    "t_end": "2020-03-14T20:30:00",
    "link": ""
  },
  {
    "id": 43765,
    "lat": 32.0750804,
    "lon": 34.7820685,
    "label": "מועדון FRIENDS אבן גבירול 30, תל אביב",
    "text": "",
    "stayTimes": "22:30-00:00",
    "t_start": "2020-03-14T20:30:00",
    "t_end": "2020-03-13T22:00:00",
    "link": ""
  },
  {
    "id": 43766,
    "lat": 32.097205574,
    "lon": 34.8376757870001,
    "label": "נתיב החסד הגדול - בני ברק",
    "text": "",
    "stayTimes": "23:00 - 23:30",
    "t_start": "2020-03-14T21:00:00",
    "t_end": "2020-03-14T21:30:00",
    "link": ""
  },
  {
    "id": 43767,
    "lat": 31.9132859000001,
    "lon": 34.8036944,
    "label": "מסעדת BBB - רחובות",
    "text": "",
    "stayTimes": "23:30 - 01:00",
    "t_start": "2020-03-14T21:30:00",
    "t_end": "2020-03-14T23:00:00",
    "link": ""
  },
  {
    "id": 43768,
    "lat": 32.6210762000001,
    "lon": 35.3165964,
    "label": "מלר\"ד פנימי מרכז רפואי העמק",
    "text": "",
    "stayTimes": "23:55-23:59",
    "t_start": "2020-03-14T21:55:00",
    "t_end": "2020-03-14T21:59:00",
    "link": ""
  },
  {
    "id": 43769,
    "lat": 32.6210762000001,
    "lon": 35.3165964,
    "label": "מלר\"ד פנימי מרכז רפואי העמק",
    "text": "",
    "stayTimes": "00:00-04:30",
    "t_start": "2020-03-14T22:00:00",
    "t_end": "2020-03-15T02:30:00",
    "link": ""
  },
  {
    "id": 43770,
    "lat": 32.0360309000001,
    "lon": 34.7627074000001,
    "label": "בית חולים וולפסון",
    "text": "",
    "stayTimes": "00:00-23:59",
    "t_start": "2020-03-14T22:00:00",
    "t_end": "2020-03-15T21:59:00",
    "link": ""
  },
  {
    "id": 43771,
    "lat": 31.7720994000001,
    "lon": 35.2126628,
    "label": "מרפאת מטודלה של קופת חולים כללית ירושלים",
    "text": "",
    "stayTimes": "00:00-23:59",
    "t_start": "2020-03-14T22:00:00",
    "t_end": "2020-03-15T21:59:00",
    "link": ""
  },
  {
    "id": 43772,
    "lat": 32.2509263000001,
    "lon": 34.9119805,
    "label": "רחוב הנוטע, תל מונד",
    "text": "",
    "stayTimes": "11:20-12:15",
    "t_start": "2020-03-15T09:20:00",
    "t_end": "2020-03-15T10:15:00",
    "link": ""
  },
  {
    "id": 43773,
    "lat": 32.6773627000001,
    "lon": 35.2521039000001,
    "label": "בית כנסת ברסלב מגדל העמק",
    "text": "",
    "stayTimes": "05:00-07:00",
    "t_start": "2020-03-15T03:00:00",
    "t_end": "2020-03-15T05:00:00",
    "link": ""
  },
  {
    "id": 43774,
    "lat": 32.7811637,
    "lon": 35.5001409000001,
    "label": "מאפיית עלית, רח' המשור 23, א.ת. שיכון ד', טבריה",
    "text": "",
    "stayTimes": "16:30-16:45",
    "t_start": "2020-03-15T14:30:00",
    "t_end": "2020-03-15T14:45:00",
    "link": ""
  },
  {
    "id": 43775,
    "lat": 32.2692212000001,
    "lon": 34.8906791000001,
    "label": "בית חב\"ד, רחוב המייסדים 41, אבן יהודה",
    "text": "",
    "stayTimes": "07:00-10:20",
    "t_start": "2020-03-15T05:00:00",
    "t_end": "2020-03-15T08:20:00",
    "link": ""
  },
  {
    "id": 43776,
    "lat": 32.2692212000001,
    "lon": 34.8906791000001,
    "label": "מרכול \"מגה בעיר\" ברחוב ההדרים פינת המייסדים, אבן יהודה",
    "text": "",
    "stayTimes": "10:30-11:00",
    "t_start": "2020-03-15T08:30:00",
    "t_end": "2020-03-15T09:00:00",
    "link": ""
  },
  {
    "id": 43777,
    "lat": 31.249581,
    "lon": 35.0828680000001,
    "label": "קופת חולים כללית, כסיפה א'",
    "text": "",
    "stayTimes": "08:00-16:00",
    "t_start": "2020-03-15T06:00:00",
    "t_end": "2020-03-15T14:00:00",
    "link": ""
  },
  {
    "id": 43778,
    "lat": 32.0495300000001,
    "lon": 34.95075,
    "label": "בית כנסת \"משכנות נריה\", אלעד",
    "text": "",
    "stayTimes": "05:45-06:20",
    "t_start": "2020-03-15T03:45:00",
    "t_end": "2020-03-15T04:20:00",
    "link": ""
  },
  {
    "id": 43779,
    "lat": 32.053904,
    "lon": 34.9597296000001,
    "label": "בית כנסת \"מאור שרגא\", אלעד",
    "text": "",
    "stayTimes": "19:30-20:00",
    "t_start": "2020-03-15T17:30:00",
    "t_end": "2020-03-15T18:00:00",
    "link": ""
  },
  {
    "id": 43780,
    "lat": 32.7811637,
    "lon": 35.5001409000001,
    "label": "מאפיית עלית, רח' המשור 23, א.ת. שיכון ד', טבריה",
    "text": "",
    "stayTimes": "16:30-16:45",
    "t_start": "2020-03-15T14:30:00",
    "t_end": "2020-03-15T14:45:00",
    "link": ""
  },
  {
    "id": 43781,
    "lat": 31.2462193000001,
    "lon": 34.7987613,
    "label": "בית המשפט המחוזי באר שבע",
    "text": "",
    "stayTimes": "07:30-16:00",
    "t_start": "2020-03-15T05:30:00",
    "t_end": "2020-03-15T14:00:00",
    "link": ""
  },
  {
    "id": 43782,
    "lat": 32.0865637000001,
    "lon": 34.8295180000001,
    "label": "חנות פעמית סטור, רבי עקיבא 74, בני ברק",
    "text": "",
    "stayTimes": "16:00-16:30",
    "t_start": "2020-03-15T14:00:00",
    "t_end": "2020-03-15T14:30:00",
    "link": ""
  },
  {
    "id": 43783,
    "lat": 31.87904,
    "lon": 35.248254,
    "label": "בית כנסת בבית מדרש \"אוהלי שם\" רח' נהר שלום כוכב יעקב",
    "text": "",
    "stayTimes": "05:15-06:15",
    "t_start": "2020-03-15T03:15:00",
    "t_end": "2020-03-15T04:15:00",
    "link": ""
  },
  {
    "id": 43784,
    "lat": 31.87904,
    "lon": 35.248254,
    "label": "בית כנסת בבית מדרש \"אוהלי שם\" רח' נהר שלום כוכב יעקב",
    "text": "",
    "stayTimes": "08:15-08:30",
    "t_start": "2020-03-15T06:15:00",
    "t_end": "2020-03-15T06:30:00",
    "link": ""
  },
  {
    "id": 43785,
    "lat": 31.865575,
    "lon": 35.261645,
    "label": "\"זולסטוק\" אזור תעשיה שער בנימין",
    "text": "",
    "stayTimes": "12:00-12:10",
    "t_start": "2020-03-15T10:00:00",
    "t_end": "2020-03-15T10:10:00",
    "link": ""
  },
  {
    "id": 43786,
    "lat": 31.87904,
    "lon": 35.248254,
    "label": "בית כנסת בבית מדרש \"אוהלי שם\" רח' נהר שלום כוכב יעקב",
    "text": "",
    "stayTimes": "17:30-18:15",
    "t_start": "2020-03-15T15:30:00",
    "t_end": "2020-03-15T16:15:00",
    "link": ""
  },
  {
    "id": 43787,
    "lat": 31.7861401000001,
    "lon": 35.1737005000001,
    "label": "סופר יש, רח' שאולזון, הר נוף, ירושלים",
    "text": "",
    "stayTimes": "09:00-09:30",
    "t_start": "2020-03-15T07:00:00",
    "t_end": "2020-03-15T07:30:00",
    "link": ""
  },
  {
    "id": 43788,
    "lat": 31.7858765,
    "lon": 35.1756528000001,
    "label": "מסעדת דבש, רח' קצנלבוגן, הר נוף, ירושלים",
    "text": "",
    "stayTimes": "21:30-23:00",
    "t_start": "2020-03-15T19:30:00",
    "t_end": "2020-03-15T21:00:00",
    "link": ""
  },
  {
    "id": 43789,
    "lat": 31.6535890000001,
    "lon": 35.149934,
    "label": "בית כנסת מרכזי התמר, אפרת",
    "text": "",
    "stayTimes": "00:02-23:58",
    "t_start": "2020-03-14T22:02:00",
    "t_end": "2020-03-15T21:58:00",
    "link": ""
  },
  {
    "id": 43790,
    "lat": 32.0871060540001,
    "lon": 34.8309407720001,
    "label": "אולם בית אשר - בני ברק",
    "text": "",
    "stayTimes": "00:20 - 01:00",
    "t_start": "2020-03-14T22:20:00",
    "t_end": "2020-03-14T23:00:00",
    "link": ""
  },
  {
    "id": 43791,
    "lat": 31.8026394450001,
    "lon": 35.099022694,
    "label": "בית כנסת 'בני ישיבות' קרית יערים (טלז סטון)",
    "text": "",
    "stayTimes": "05:20-06:30",
    "t_start": "2020-03-15T03:20:00",
    "t_end": "2020-03-15T04:30:00",
    "link": ""
  },
  {
    "id": 43792,
    "lat": 31.3263210000001,
    "lon": 34.6489340000001,
    "label": "בית כנסת מגן שלמה, מושב גילת",
    "text": "",
    "stayTimes": "05:45-06:30",
    "t_start": "2020-03-15T03:45:00",
    "t_end": "2020-03-15T04:30:00",
    "link": ""
  },
  {
    "id": 43793,
    "lat": 32.8040049050001,
    "lon": 35.0002236830001,
    "label": "בית כנסת מורשה - רח' השילוח 6 חיפה",
    "text": "",
    "stayTimes": "05:45-06:30",
    "t_start": "2020-03-15T03:45:00",
    "t_end": "2020-03-15T04:30:00",
    "link": ""
  },
  {
    "id": 43794,
    "lat": 32.0812337,
    "lon": 34.8342639000001,
    "label": "\"כולל ברסלב\" רח' אלשיך 5, בני ברק",
    "text": "",
    "stayTimes": "06:00-09:00",
    "t_start": "2020-03-15T04:00:00",
    "t_end": "2020-03-15T07:00:00",
    "link": ""
  },
  {
    "id": 43795,
    "lat": 31.6310856000001,
    "lon": 34.5260912000001,
    "label": "בהיכ\"נ תפעול חברת החשמל אתר רוטנברג - אשקלון",
    "text": "",
    "stayTimes": "06:50 - 07:30",
    "t_start": "2020-03-15T04:50:00",
    "t_end": "2020-03-15T05:30:00",
    "link": ""
  },
  {
    "id": 43796,
    "lat": 31.8026394450001,
    "lon": 35.099022694,
    "label": "כולל 'נחלי דעת' קרית יערים (טלז סטון)",
    "text": "",
    "stayTimes": "07:00-13:00",
    "t_start": "2020-03-15T05:00:00",
    "t_end": "2020-03-15T11:00:00",
    "link": ""
  },
  {
    "id": 43797,
    "lat": 32.0972669000001,
    "lon": 34.8379174,
    "label": "בית כנסת \"זיו יהודה\" ושטיבלאך, שד' אריה לוין בבני ברק",
    "text": "",
    "stayTimes": "07:30-08:00",
    "t_start": "2020-03-15T05:30:00",
    "t_end": "2020-03-15T06:00:00",
    "link": ""
  },
  {
    "id": 43798,
    "lat": 32.0972214,
    "lon": 34.84142,
    "label": "בית כנסת הרב שחף, רח' הרב נויפלד 10 בבני ברק",
    "text": "",
    "stayTimes": "07:30-08:00",
    "t_start": "2020-03-15T05:30:00",
    "t_end": "2020-03-15T06:00:00",
    "link": ""
  },
  {
    "id": 43799,
    "lat": 32.086465339,
    "lon": 34.832410714,
    "label": "מקוה צאנז - בני ברק",
    "text": "",
    "stayTimes": "07:30 - 07:50",
    "t_start": "2020-03-15T05:30:00",
    "t_end": "2020-03-15T05:50:00",
    "link": ""
  },
  {
    "id": 43800,
    "lat": 32.0849847280001,
    "lon": 34.8320942180001,
    "label": "בית מדרש - בני ברק",
    "text": "",
    "stayTimes": "08:00 - 10:30",
    "t_start": "2020-03-15T06:00:00",
    "t_end": "2020-03-15T08:30:00",
    "link": ""
  },
  {
    "id": 43801,
    "lat": 32.0316651740001,
    "lon": 34.8871308940001,
    "label": "בית כנסת ברסלב, רחוב סעדיה יהוד",
    "text": "",
    "stayTimes": "08:20-09:30",
    "t_start": "2020-03-15T06:20:00",
    "t_end": "2020-03-15T07:30:00",
    "link": ""
  },
  {
    "id": 43802,
    "lat": 31.6179695000001,
    "lon": 34.7537336,
    "label": "קופת חולים מכבי, נתיבות השלום, קרית גת",
    "text": "",
    "stayTimes": "08:30-09:30",
    "t_start": "2020-03-15T06:30:00",
    "t_end": "2020-03-15T07:30:00",
    "link": ""
  },
  {
    "id": 43803,
    "lat": 32.675579,
    "lon": 35.233303,
    "label": "בית כנסת אוהל רות מגדל העמק",
    "text": "",
    "stayTimes": "08:30-09:15",
    "t_start": "2020-03-15T06:30:00",
    "t_end": "2020-03-15T07:15:00",
    "link": ""
  },
  {
    "id": 43804,
    "lat": 31.310954,
    "lon": 34.6126154,
    "label": "מרפאת כללית בסניף מישור הגפן, אופקים",
    "text": "",
    "stayTimes": "08:30-09:00",
    "t_start": "2020-03-15T06:30:00",
    "t_end": "2020-03-15T07:00:00",
    "link": ""
  },
  {
    "id": 43805,
    "lat": 32.4727015,
    "lon": 34.9723571000001,
    "label": "סופר ספיר - פרדס חנה-כרכור",
    "text": "",
    "stayTimes": "08:30 - 12:30",
    "t_start": "2020-03-15T06:30:00",
    "t_end": "2020-03-15T10:30:00",
    "link": ""
  },
  {
    "id": 43806,
    "lat": 31.7856547000001,
    "lon": 35.2250446,
    "label": "ישיבת \"תולדות אהרון\", ירושלים",
    "text": "",
    "stayTimes": "09:00-09:40",
    "t_start": "2020-03-15T07:00:00",
    "t_end": "2020-03-15T07:40:00",
    "link": ""
  },
  {
    "id": 43807,
    "lat": 32.0824425000001,
    "lon": 34.8408932,
    "label": "בית מרקחת \"מכבי\", רח' כהנמן 64, בני ברק",
    "text": "",
    "stayTimes": "09:00-10:00",
    "t_start": "2020-03-15T07:00:00",
    "t_end": "2020-03-15T08:00:00",
    "link": ""
  },
  {
    "id": 43808,
    "lat": 32.6778114000001,
    "lon": 35.2417497000001,
    "label": "ישיבה מתיבתא מגדל העמק",
    "text": "",
    "stayTimes": "09:30-13:00",
    "t_start": "2020-03-15T07:30:00",
    "t_end": "2020-03-15T11:00:00",
    "link": ""
  },
  {
    "id": 43809,
    "lat": 32.3191479000001,
    "lon": 34.9336595,
    "label": "קופת חולים כללית, הרצל 7 כפר יונה",
    "text": "",
    "stayTimes": "09:30-09:50",
    "t_start": "2020-03-15T07:30:00",
    "t_end": "2020-03-15T07:50:00",
    "link": ""
  },
  {
    "id": 43810,
    "lat": 32.0779264,
    "lon": 34.8398083000001,
    "label": "\"כולל אדרת אליהו\", רח' בן יעקב 17, בני ברק",
    "text": "",
    "stayTimes": "09:30-13:00",
    "t_start": "2020-03-15T07:30:00",
    "t_end": "2020-03-15T11:00:00",
    "link": ""
  },
  {
    "id": 43811,
    "lat": 31.7998277,
    "lon": 34.6623938000001,
    "label": "סופר יש חסד- מחלקת דגים - אשדוד",
    "text": "",
    "stayTimes": "09:40 - 11:30",
    "t_start": "2020-03-15T07:40:00",
    "t_end": "2020-03-15T09:30:00",
    "link": ""
  },
  {
    "id": 43812,
    "lat": 32.1616778000001,
    "lon": 34.7953764000001,
    "label": "בית קפה \"קפה קפה\", רחוב יורדי ים 1, הרצליה",
    "text": "",
    "stayTimes": "09:45-18:00",
    "t_start": "2020-03-15T07:45:00",
    "t_end": "2020-03-15T16:00:00",
    "link": ""
  },
  {
    "id": 43813,
    "lat": 32.6750960000001,
    "lon": 35.2498850000001,
    "label": "מרפאה של קופ\"ח כללית נוף העמק, מגדל העמק",
    "text": "",
    "stayTimes": "10:00-11:00",
    "t_start": "2020-03-15T08:00:00",
    "t_end": "2020-03-15T09:00:00",
    "link": ""
  },
  {
    "id": 43814,
    "lat": 32.6750960000001,
    "lon": 35.2498850000001,
    "label": "מרפאה של קופ\"ח כללית נוף העמק, מגדל העמק",
    "text": "",
    "stayTimes": "10:00-11:00",
    "t_start": "2020-03-15T08:00:00",
    "t_end": "2020-03-15T09:00:00",
    "link": ""
  },
  {
    "id": 43815,
    "lat": 32.3112272000001,
    "lon": 34.9365342,
    "label": "סופר מגה בעיר מנחם בגין 44 כפר יונה",
    "text": "",
    "stayTimes": "10:00-10:20",
    "t_start": "2020-03-15T08:00:00",
    "t_end": "2020-03-15T08:20:00",
    "link": ""
  },
  {
    "id": 43816,
    "lat": 31.9632295000001,
    "lon": 34.7787836000001,
    "label": "מרפאת נשים מכבי, רחוב נגבה 24 ראשון לציון",
    "text": "",
    "stayTimes": "10:00-11:25",
    "t_start": "2020-03-15T08:00:00",
    "t_end": "2020-03-15T09:25:00",
    "link": ""
  },
  {
    "id": 43817,
    "lat": 32.0901366890001,
    "lon": 34.8348957160001,
    "label": "\"ברכל מעיין 2000\", סמטת אז\"ר 3, בני ברק",
    "text": "",
    "stayTimes": "10:00-15:00",
    "t_start": "2020-03-15T08:00:00",
    "t_end": "2020-03-15T13:00:00",
    "link": ""
  },
  {
    "id": 43818,
    "lat": 32.6782684,
    "lon": 35.2433929000001,
    "label": "שופרסל הראשי באזור תעשייה מגדל העמק",
    "text": "",
    "stayTimes": "10:00-11:30",
    "t_start": "2020-03-15T08:00:00",
    "t_end": "2020-03-15T09:30:00",
    "link": ""
  },
  {
    "id": 43819,
    "lat": 31.2499308000001,
    "lon": 34.7892860000001,
    "label": "סמי שמעון - באר שבע",
    "text": "",
    "stayTimes": "10:30 - 19:00",
    "t_start": "2020-03-15T08:30:00",
    "t_end": "2020-03-15T17:00:00",
    "link": ""
  },
  {
    "id": 43820,
    "lat": 32.0858474,
    "lon": 34.8312082,
    "label": "חנות לבני נשים \"ג'ודי אקסלוסיב\" ברחובות רבי עקיבא 90 ורבי עקיבא 134 בבני ברק",
    "text": "",
    "stayTimes": "11:00-15:00",
    "t_start": "2020-03-15T09:00:00",
    "t_end": "2020-03-15T13:00:00",
    "link": ""
  },
  {
    "id": 43821,
    "lat": 31.943031875,
    "lon": 34.8897946980001,
    "label": "קיוסק - לוד",
    "text": "",
    "stayTimes": "11:00 - 11:30",
    "t_start": "2020-03-15T09:00:00",
    "t_end": "2020-03-15T09:30:00",
    "link": ""
  },
  {
    "id": 43822,
    "lat": 31.9739880000001,
    "lon": 34.7793259000001,
    "label": "מרכז רפואי היקב כרמים של  מכבי רחוב היקב  10 ראשון לציון",
    "text": "",
    "stayTimes": "11:28-11:40",
    "t_start": "2020-03-15T09:28:00",
    "t_end": "2020-03-15T09:40:00",
    "link": ""
  },
  {
    "id": 43823,
    "lat": 32.0467100000001,
    "lon": 34.8428520000001,
    "label": "מרפאת אף אוזן גרון, בית חולים תל השומר, בניין מרפאות חוץ",
    "text": "",
    "stayTimes": "11:45-12:30",
    "t_start": "2020-03-15T09:45:00",
    "t_end": "2020-03-15T10:30:00",
    "link": ""
  },
  {
    "id": 43824,
    "lat": 31.9603890510001,
    "lon": 34.899491916,
    "label": "בנק מזרחי טפחות - לוד",
    "text": "",
    "stayTimes": "12:00 - 12:15",
    "t_start": "2020-03-15T10:00:00",
    "t_end": "2020-03-15T10:15:00",
    "link": ""
  },
  {
    "id": 43825,
    "lat": 32.064462846,
    "lon": 34.770152346,
    "label": "מגדל שלום + רו\"ח נתי קיסר - תל אביב - יפו",
    "text": "",
    "stayTimes": "12:15 - 15:00",
    "t_start": "2020-03-15T10:15:00",
    "t_end": "2020-03-15T13:00:00",
    "link": ""
  },
  {
    "id": 43826,
    "lat": 31.6104185040001,
    "lon": 34.754575247,
    "label": "קופת חולים מאוחדת בקרית גת",
    "text": "",
    "stayTimes": "12:30-13:30",
    "t_start": "2020-03-15T10:30:00",
    "t_end": "2020-03-15T11:30:00",
    "link": ""
  },
  {
    "id": 43827,
    "lat": 32.8040049050001,
    "lon": 35.0002236830001,
    "label": "בית כנסת מורשה -רח' השילוח 6 חיפה",
    "text": "",
    "stayTimes": "12:30-13:00",
    "t_start": "2020-03-15T10:30:00",
    "t_end": "2020-03-15T11:00:00",
    "link": ""
  },
  {
    "id": 43828,
    "lat": 32.612033072,
    "lon": 35.290316676,
    "label": "קופ\"ח עומר - בדיקת צפיפות העצם - עפולה",
    "text": "",
    "stayTimes": "12:30 - 13:30",
    "t_start": "2020-03-15T10:30:00",
    "t_end": "2020-03-15T11:30:00",
    "link": ""
  },
  {
    "id": 43829,
    "lat": 31.6310856000001,
    "lon": 34.5260912000001,
    "label": "בהיכ\"נ תפעול חברת החשמל אתר רוטנברג - אשקלון",
    "text": "",
    "stayTimes": "12:30 - 13:00",
    "t_start": "2020-03-15T10:30:00",
    "t_end": "2020-03-15T11:00:00",
    "link": ""
  },
  {
    "id": 43830,
    "lat": 31.809015,
    "lon": 34.6555060000001,
    "label": "מתחם סטאר סנטר אשדוד",
    "text": "",
    "stayTimes": "13:00-13:30",
    "t_start": "2020-03-15T11:00:00",
    "t_end": "2020-03-15T11:30:00",
    "link": ""
  },
  {
    "id": 43831,
    "lat": 32.6190608000001,
    "lon": 35.3125407000001,
    "label": "מרכז קניות \"פרנדלי\" בעמק, עפולה",
    "text": "",
    "stayTimes": "13:00-14:30",
    "t_start": "2020-03-15T11:00:00",
    "t_end": "2020-03-15T12:30:00",
    "link": ""
  },
  {
    "id": 43832,
    "lat": 31.9740224,
    "lon": 34.7794211,
    "label": "סופר כרמים ,רחוב היקב 12 ראשון לציון",
    "text": "",
    "stayTimes": "14:00-17:15",
    "t_start": "2020-03-15T12:00:00",
    "t_end": "2020-03-15T15:15:00",
    "link": ""
  },
  {
    "id": 43833,
    "lat": 32.7004369000001,
    "lon": 35.2244473000001,
    "label": "טיפת חלב מרכז בריאות הילד - מגדל העמק",
    "text": "",
    "stayTimes": "14:00 - 15:00",
    "t_start": "2020-03-15T12:00:00",
    "t_end": "2020-03-15T13:00:00",
    "link": ""
  },
  {
    "id": 43834,
    "lat": 32.7004369000001,
    "lon": 35.2244473000001,
    "label": "טיפת חלב מרכז בריאות הילד - מגדל העמק",
    "text": "",
    "stayTimes": "14:00 - 15:00",
    "t_start": "2020-03-15T12:00:00",
    "t_end": "2020-03-15T13:00:00",
    "link": ""
  },
  {
    "id": 43835,
    "lat": 32.0779264,
    "lon": 34.8398083000001,
    "label": "\"כולל אדרת אליהו\", רח' בן יעקב 17, בני ברק",
    "text": "",
    "stayTimes": "15:45-16:10",
    "t_start": "2020-03-15T13:45:00",
    "t_end": "2020-03-15T14:10:00",
    "link": ""
  },
  {
    "id": 43836,
    "lat": 32.0825908,
    "lon": 34.797059,
    "label": "מתחנת \"על פרשת דרכים\" – רכבת ארלוזרוב מס' 14,ת\"א עד לתחנת עד\"ש שפיק מס' 46 פ\"ת",
    "text": "",
    "stayTimes": "16:00-16:45",
    "t_start": "2020-03-15T14:00:00",
    "t_end": "2020-03-15T14:45:00",
    "link": ""
  },
  {
    "id": 43837,
    "lat": 32.1947648,
    "lon": 34.8811251000001,
    "label": "סופר \"רמי לוי\"- איזור התעשיה - רעננה",
    "text": "",
    "stayTimes": "16:30 - 17:00",
    "t_start": "2020-03-15T14:30:00",
    "t_end": "2020-03-15T15:00:00",
    "link": ""
  },
  {
    "id": 43838,
    "lat": 32.8040049050001,
    "lon": 35.0002236830001,
    "label": "בית כנסת מורשה -רח' השילוח 6 חיפה",
    "text": "",
    "stayTimes": "17:00-19:00",
    "t_start": "2020-03-15T15:00:00",
    "t_end": "2020-03-15T17:00:00",
    "link": ""
  },
  {
    "id": 43839,
    "lat": 31.934462431,
    "lon": 34.88877446,
    "label": "מכולת - לוד",
    "text": "",
    "stayTimes": "17:00 - 17:30",
    "t_start": "2020-03-15T15:00:00",
    "t_end": "2020-03-15T15:30:00",
    "link": ""
  },
  {
    "id": 43840,
    "lat": 31.9738819,
    "lon": 34.7792824000001,
    "label": "בית מרקחת כרמית פארם רחוב היקב 12 ראשון לציון",
    "text": "",
    "stayTimes": "17:15-17:30",
    "t_start": "2020-03-15T15:15:00",
    "t_end": "2020-03-15T15:30:00",
    "link": ""
  },
  {
    "id": 43841,
    "lat": 32.6783988,
    "lon": 35.2434477,
    "label": "סופר פארם פרץ סנטר, מגדל העמק",
    "text": "",
    "stayTimes": "17:15-18:00",
    "t_start": "2020-03-15T15:15:00",
    "t_end": "2020-03-15T16:00:00",
    "link": ""
  },
  {
    "id": 43842,
    "lat": 31.9740224,
    "lon": 34.7794211,
    "label": "סופר כרמים ,רחוב היקב 12 ראשון לציון",
    "text": "",
    "stayTimes": "17:30-20:00",
    "t_start": "2020-03-15T15:30:00",
    "t_end": "2020-03-15T18:00:00",
    "link": ""
  },
  {
    "id": 43843,
    "lat": 32.084980178,
    "lon": 34.832100693,
    "label": "בית כנסת צ'רנוביל - בני ברק",
    "text": "",
    "stayTimes": "17:30 - 19:00",
    "t_start": "2020-03-15T15:30:00",
    "t_end": "2020-03-15T17:00:00",
    "link": ""
  },
  {
    "id": 43844,
    "lat": 31.7856547000001,
    "lon": 35.2250446,
    "label": "ישיבת \"תולדות אהרון\", ירושלים",
    "text": "",
    "stayTimes": "18:00-18:15",
    "t_start": "2020-03-15T16:00:00",
    "t_end": "2020-03-15T16:15:00",
    "link": ""
  },
  {
    "id": 43845,
    "lat": 32.0813099000001,
    "lon": 34.7704736000001,
    "label": "סופר \"שופרסל שלי\", רחוב בן יהודה 79, תל אביב",
    "text": "",
    "stayTimes": "18:45-19:15",
    "t_start": "2020-03-15T16:45:00",
    "t_end": "2020-03-15T17:15:00",
    "link": ""
  },
  {
    "id": 43846,
    "lat": 31.361765,
    "lon": 34.9010030000001,
    "label": "סופר מחסני השוק מיתרים - סנסנה",
    "text": "",
    "stayTimes": "19:00 - 19:30",
    "t_start": "2020-03-15T17:00:00",
    "t_end": "2020-03-15T17:30:00",
    "link": ""
  },
  {
    "id": 43847,
    "lat": 32.0779264,
    "lon": 34.8398083000001,
    "label": "\"כולל אדרת אליהו\", רח' בן יעקב 17, בני ברק",
    "text": "",
    "stayTimes": "19:15-19:40",
    "t_start": "2020-03-15T17:15:00",
    "t_end": "2020-03-15T17:40:00",
    "link": ""
  },
  {
    "id": 43848,
    "lat": 32.6694444,
    "lon": 35.2375000000001,
    "label": "אושר עד מגדל העמק",
    "text": "",
    "stayTimes": "19:30-21:00",
    "t_start": "2020-03-15T17:30:00",
    "t_end": "2020-03-15T19:00:00",
    "link": ""
  },
  {
    "id": 43849,
    "lat": 31.7998277,
    "lon": 34.6623938000001,
    "label": "סופר יש חסד מחלקת דגים - אשדוד",
    "text": "",
    "stayTimes": "19:45 - 20:15",
    "t_start": "2020-03-15T17:45:00",
    "t_end": "2020-03-15T18:15:00",
    "link": ""
  },
  {
    "id": 43850,
    "lat": 32.4490906,
    "lon": 34.9147627,
    "label": "סופר אושר עד אזור התעשייה - חדרה",
    "text": "",
    "stayTimes": "20:00 - 21:00",
    "t_start": "2020-03-15T18:00:00",
    "t_end": "2020-03-15T19:00:00",
    "link": ""
  },
  {
    "id": 43851,
    "lat": 32.6778114000001,
    "lon": 35.2417497000001,
    "label": "שארה מוקד רפואה דחופה במגדל העמק",
    "text": "",
    "stayTimes": "20:30-20:40",
    "t_start": "2020-03-15T18:30:00",
    "t_end": "2020-03-15T18:40:00",
    "link": ""
  },
  {
    "id": 43852,
    "lat": 32.6778114000001,
    "lon": 35.2417497000001,
    "label": "שארה מוקד רפואה דחופה במגדל העמק",
    "text": "",
    "stayTimes": "20:30-20:40",
    "t_start": "2020-03-15T18:30:00",
    "t_end": "2020-03-15T18:40:00",
    "link": ""
  },
  {
    "id": 43853,
    "lat": 32.0360309000001,
    "lon": 34.7627074000001,
    "label": "בית חולים וולפסון",
    "text": "",
    "stayTimes": "00:00-23:59",
    "t_start": "2020-03-15T22:00:00",
    "t_end": "2020-03-16T21:59:00",
    "link": ""
  },
  {
    "id": 43854,
    "lat": 31.7720994000001,
    "lon": 35.2126628,
    "label": "מרפאת מטודלה של קופת חולים כללית ירושלים",
    "text": "",
    "stayTimes": "00:00-23:59",
    "t_start": "2020-03-15T22:00:00",
    "t_end": "2020-03-16T21:59:00",
    "link": ""
  },
  {
    "id": 43855,
    "lat": 32.2577256000001,
    "lon": 34.9185161,
    "label": "סופר ויקטורי רח' השקד 4, תל מונד ב",
    "text": "",
    "stayTimes": "12:45-13:00",
    "t_start": "2020-03-16T10:45:00",
    "t_end": "2020-03-16T11:00:00",
    "link": ""
  },
  {
    "id": 43856,
    "lat": 32.2577256000001,
    "lon": 34.9185161,
    "label": "סופר ויקטורי רח' השקד 4, תל מונד ב",
    "text": "",
    "stayTimes": "18:00-18:15",
    "t_start": "2020-03-16T16:00:00",
    "t_end": "2020-03-16T16:15:00",
    "link": ""
  },
  {
    "id": 43857,
    "lat": 32.8206833,
    "lon": 34.991142,
    "label": "אטליז אייזן, בן גוריון, חיפה",
    "text": "",
    "stayTimes": "16:15-16:35",
    "t_start": "2020-03-16T14:15:00",
    "t_end": "2020-03-16T14:35:00",
    "link": ""
  },
  {
    "id": 43858,
    "lat": 31.249581,
    "lon": 35.0828680000001,
    "label": "קופת חולים כללית, כסיפה א'",
    "text": "",
    "stayTimes": "08:00-13:00",
    "t_start": "2020-03-16T06:00:00",
    "t_end": "2020-03-16T11:00:00",
    "link": ""
  },
  {
    "id": 43859,
    "lat": 32.0495300000001,
    "lon": 34.95075,
    "label": "בית כנסת \"משכנות נריה\", אלעד",
    "text": "",
    "stayTimes": "05:45-06:20",
    "t_start": "2020-03-16T03:45:00",
    "t_end": "2020-03-16T04:20:00",
    "link": ""
  },
  {
    "id": 43860,
    "lat": 32.053904,
    "lon": 34.9597296000001,
    "label": "בית כנסת \"מאור שרגא\", אלעד",
    "text": "",
    "stayTimes": "19:30-20:00",
    "t_start": "2020-03-16T17:30:00",
    "t_end": "2020-03-16T18:00:00",
    "link": ""
  },
  {
    "id": 43861,
    "lat": 31.2462193000001,
    "lon": 34.7987613,
    "label": "בית המשפט המחוזי באר שבע",
    "text": "",
    "stayTimes": "07:30-16:00",
    "t_start": "2020-03-16T05:30:00",
    "t_end": "2020-03-16T14:00:00",
    "link": ""
  },
  {
    "id": 43862,
    "lat": 31.3153017000001,
    "lon": 34.6192879000001,
    "label": "סניף דואר מרכזי באופקים",
    "text": "",
    "stayTimes": "11:30-12:30",
    "t_start": "2020-03-16T09:30:00",
    "t_end": "2020-03-16T10:30:00",
    "link": ""
  },
  {
    "id": 43863,
    "lat": 31.87904,
    "lon": 35.248254,
    "label": "בית כנסת בבית מדרש \"אוהלי שם\" רח' נהר שלום כוכב יעקב",
    "text": "",
    "stayTimes": "05:15-06:15",
    "t_start": "2020-03-16T03:15:00",
    "t_end": "2020-03-16T04:15:00",
    "link": ""
  },
  {
    "id": 43864,
    "lat": 31.8808463,
    "lon": 35.2450398,
    "label": "סופרמרקט יינות ביתן רח' טירת כסף כוכב יעקב",
    "text": "",
    "stayTimes": "07:40-07:55",
    "t_start": "2020-03-16T05:40:00",
    "t_end": "2020-03-16T05:55:00",
    "link": ""
  },
  {
    "id": 43865,
    "lat": 31.8808463,
    "lon": 35.2450398,
    "label": "סופרמרקט יינות ביתן רח' טירת כסף כוכב יעקב",
    "text": "",
    "stayTimes": "12:15-12:30",
    "t_start": "2020-03-16T10:15:00",
    "t_end": "2020-03-16T10:30:00",
    "link": ""
  },
  {
    "id": 43866,
    "lat": 31.87904,
    "lon": 35.248254,
    "label": "בית כנסת בבית מדרש \"אוהלי שם\" רח' נהר שלום כוכב יעקב",
    "text": "",
    "stayTimes": "17:30-18:15",
    "t_start": "2020-03-16T15:30:00",
    "t_end": "2020-03-16T16:15:00",
    "link": ""
  },
  {
    "id": 43867,
    "lat": 31.8026394450001,
    "lon": 35.099022694,
    "label": "בית כנסת 'בני ישיבות' קרית יערים (טלז סטון)",
    "text": "",
    "stayTimes": "05:20-06:30",
    "t_start": "2020-03-16T03:20:00",
    "t_end": "2020-03-16T04:30:00",
    "link": ""
  },
  {
    "id": 43868,
    "lat": 31.3263210000001,
    "lon": 34.6489340000001,
    "label": "בית כנסת מגן שלמה, מושב גילת",
    "text": "",
    "stayTimes": "05:45-06:30",
    "t_start": "2020-03-16T03:45:00",
    "t_end": "2020-03-16T04:30:00",
    "link": ""
  },
  {
    "id": 43869,
    "lat": 32.8040049050001,
    "lon": 35.0002236830001,
    "label": "בית כנסת מורשה - רח' השילוח 6 חיפה",
    "text": "",
    "stayTimes": "05:45-06:30",
    "t_start": "2020-03-16T03:45:00",
    "t_end": "2020-03-16T04:30:00",
    "link": ""
  },
  {
    "id": 43870,
    "lat": 32.0800752000001,
    "lon": 34.9019874000001,
    "label": "רחוב אלעזר פתח תקווה",
    "text": "",
    "stayTimes": "06:00-06:30",
    "t_start": "2020-03-16T04:00:00",
    "t_end": "2020-03-16T04:30:00",
    "link": ""
  },