[
  {
    "id": 54109,
    "lat": 32.0360309000001,
    "lon": 34.7627074000001,
    "label": "בית חולים וולפסון",
    "text": "",
    "stayTimes": "00:00-23:59",
    "t_start": "2020-03-15T22:00:00",
    "t_end": "2020-03-16T21:59:00",
    "link": ""
  },
  {
    "id": 54110,
    "lat": 31.7720994000001,
    "lon": 35.2126628,
    "label": "מרפאת מטודלה של קופת חולים כללית ירושלים",
    "text": "",
    "stayTimes": "00:00-23:59",
    "t_start": "2020-03-15T22:00:00",
    "t_end": "2020-03-16T21:59:00",
    "link": ""
  },
  {
    "id": 54111,
    "lat": 32.2577256000001,
    "lon": 34.9185161,
    "label": "סופר ויקטורי רח' השקד 4, תל מונד ב",
    "text": "",
    "stayTimes": "12:45-13:00",
    "t_start": "2020-03-16T10:45:00",
    "t_end": "2020-03-16T11:00:00",
    "link": ""
  },
  {
    "id": 54112,
    "lat": 32.2577256000001,
    "lon": 34.9185161,
    "label": "סופר ויקטורי רח' השקד 4, תל מונד ב",
    "text": "",
    "stayTimes": "18:00-18:15",
    "t_start": "2020-03-16T16:00:00",
    "t_end": "2020-03-16T16:15:00",
    "link": ""
  },
  {
    "id": 54113,
    "lat": 32.8206833,
    "lon": 34.991142,
    "label": "אטליז אייזן, בן גוריון, חיפה",
    "text": "",
    "stayTimes": "16:15-16:35",
    "t_start": "2020-03-16T14:15:00",
    "t_end": "2020-03-16T14:35:00",
    "link": ""
  },
  {
    "id": 54114,
    "lat": 31.249581,
    "lon": 35.0828680000001,
    "label": "קופת חולים כללית, כסיפה א'",
    "text": "",
    "stayTimes": "08:00-13:00",
    "t_start": "2020-03-16T06:00:00",
    "t_end": "2020-03-16T11:00:00",
    "link": ""
  },
  {
    "id": 54115,
    "lat": 32.0495300000001,
    "lon": 34.95075,
    "label": "בית כנסת \"משכנות נריה\", אלעד",
    "text": "",
    "stayTimes": "05:45-06:20",
    "t_start": "2020-03-16T03:45:00",
    "t_end": "2020-03-16T04:20:00",
    "link": ""
  },
  {
    "id": 54116,
    "lat": 32.053904,
    "lon": 34.9597296000001,
    "label": "בית כנסת \"מאור שרגא\", אלעד",
    "text": "",
    "stayTimes": "19:30-20:00",
    "t_start": "2020-03-16T17:30:00",
    "t_end": "2020-03-16T18:00:00",
    "link": ""
  },
  {
    "id": 54117,
    "lat": 31.2462193000001,
    "lon": 34.7987613,
    "label": "בית המשפט המחוזי באר שבע",
    "text": "",
    "stayTimes": "07:30-16:00",
    "t_start": "2020-03-16T05:30:00",
    "t_end": "2020-03-16T14:00:00",
    "link": ""
  },
  {
    "id": 54118,
    "lat": 31.3153017000001,
    "lon": 34.6192879000001,
    "label": "סניף דואר מרכזי באופקים",
    "text": "",
    "stayTimes": "11:30-12:30",
    "t_start": "2020-03-16T09:30:00",
    "t_end": "2020-03-16T10:30:00",
    "link": ""
  },
  {
    "id": 54119,
    "lat": 31.87904,
    "lon": 35.248254,
    "label": "בית כנסת בבית מדרש \"אוהלי שם\" רח' נהר שלום כוכב יעקב",
    "text": "",
    "stayTimes": "05:15-06:15",
    "t_start": "2020-03-16T03:15:00",
    "t_end": "2020-03-16T04:15:00",
    "link": ""
  },
  {
    "id": 54120,
    "lat": 31.8808463,
    "lon": 35.2450398,
    "label": "סופרמרקט יינות ביתן רח' טירת כסף כוכב יעקב",
    "text": "",
    "stayTimes": "07:40-07:55",
    "t_start": "2020-03-16T05:40:00",
    "t_end": "2020-03-16T05:55:00",
    "link": ""
  },
  {
    "id": 54121,
    "lat": 31.8808463,
    "lon": 35.2450398,
    "label": "סופרמרקט יינות ביתן רח' טירת כסף כוכב יעקב",
    "text": "",
    "stayTimes": "12:15-12:30",
    "t_start": "2020-03-16T10:15:00",
    "t_end": "2020-03-16T10:30:00",
    "link": ""
  },
  {
    "id": 54122,
    "lat": 31.87904,
    "lon": 35.248254,
    "label": "בית כנסת בבית מדרש \"אוהלי שם\" רח' נהר שלום כוכב יעקב",
    "text": "",
    "stayTimes": "17:30-18:15",
    "t_start": "2020-03-16T15:30:00",
    "t_end": "2020-03-16T16:15:00",
    "link": ""
  },
  {
    "id": 54123,
    "lat": 31.8026394450001,
    "lon": 35.099022694,
    "label": "בית כנסת 'בני ישיבות' קרית יערים (טלז סטון)",
    "text": "",
    "stayTimes": "05:20-06:30",
    "t_start": "2020-03-16T03:20:00",
    "t_end": "2020-03-16T04:30:00",
    "link": ""
  },
  {
    "id": 54124,
    "lat": 31.3263210000001,
    "lon": 34.6489340000001,
    "label": "בית כנסת מגן שלמה, מושב גילת",
    "text": "",
    "stayTimes": "05:45-06:30",
    "t_start": "2020-03-16T03:45:00",
    "t_end": "2020-03-16T04:30:00",
    "link": ""
  },
  {
    "id": 54125,
    "lat": 32.8040049050001,
    "lon": 35.0002236830001,
    "label": "בית כנסת מורשה - רח' השילוח 6 חיפה",
    "text": "",
    "stayTimes": "05:45-06:30",
    "t_start": "2020-03-16T03:45:00",
    "t_end": "2020-03-16T04:30:00",
    "link": ""
  },
  {
    "id": 54126,
    "lat": 32.0800752000001,
    "lon": 34.9019874000001,
    "label": "רחוב אלעזר פתח תקווה",
    "text": "",
    "stayTimes": "06:00-06:30",
    "t_start": "2020-03-16T04:00:00",
    "t_end": "2020-03-16T04:30:00",
    "link": ""
  },
  {
    "id": 54127,
    "lat": 32.0736917,
    "lon": 34.9110693000001,
    "label": "מתחנת עד\"ש שפיק  מס' 10 פ\"ת לת\"א – \"על פרשת דרכים\"-רכבת מס' 38.",
    "text": "",
    "stayTimes": "07:00-08:00",
    "t_start": "2020-03-16T05:00:00",
    "t_end": "2020-03-16T06:00:00",
    "link": ""
  },
  {
    "id": 54128,
    "lat": 31.8026394450001,
    "lon": 35.099022694,
    "label": "כולל 'נחלי דעת' קרית יערים (טלז סטון)",
    "text": "",
    "stayTimes": "07:00-13:00",
    "t_start": "2020-03-16T05:00:00",
    "t_end": "2020-03-16T11:00:00",
    "link": ""
  },
  {
    "id": 54129,
    "lat": 32.086465339,
    "lon": 34.832410714,
    "label": "מקוה צאנז - בני ברק",
    "text": "",
    "stayTimes": "07:30 - 07:50",
    "t_start": "2020-03-16T05:30:00",
    "t_end": "2020-03-16T05:50:00",
    "link": ""
  },
  {
    "id": 54130,
    "lat": 31.797230724,
    "lon": 35.2076101490001,
    "label": "בניין בעלז, רח' קדושת אהרון, ירושלים",
    "text": "",
    "stayTimes": "08:00-12:15",
    "t_start": "2020-03-16T06:00:00",
    "t_end": "2020-03-16T10:15:00",
    "link": ""
  },
  {
    "id": 54131,
    "lat": 32.6037908000001,
    "lon": 35.2940938,
    "label": "בנק יהב עפולה",
    "text": "",
    "stayTimes": "08:00-20:00",
    "t_start": "2020-03-16T06:00:00",
    "t_end": "2020-03-16T18:00:00",
    "link": ""
  },
  {
    "id": 54132,
    "lat": 32.6729819,
    "lon": 35.2336535000001,
    "label": "בית כנסת מצפה העמק מאור החיים מגדל העמק",
    "text": "",
    "stayTimes": "08:15-09:15",
    "t_start": "2020-03-16T06:15:00",
    "t_end": "2020-03-16T07:15:00",
    "link": ""
  },
  {
    "id": 54133,
    "lat": 32.0849756000001,
    "lon": 34.8930748000001,
    "label": "סטודיו דור רחוב רשיש חדוה 6, בפתח תקווה",
    "text": "",
    "stayTimes": "09:00-10:00",
    "t_start": "2020-03-16T07:00:00",
    "t_end": "2020-03-16T08:00:00",
    "link": ""
  },
  {
    "id": 54134,
    "lat": 31.7741936,
    "lon": 35.1753018000001,
    "label": "יד ושם - ירושלים",
    "text": "",
    "stayTimes": "10:00 - 13:00",
    "t_start": "2020-03-16T08:00:00",
    "t_end": "2020-03-16T11:00:00",
    "link": ""
  },
  {
    "id": 54135,
    "lat": 31.934456971,
    "lon": 34.888789477,
    "label": "מכולת - לוד",
    "text": "",
    "stayTimes": "10:00 - 11:00",
    "t_start": "2020-03-16T08:00:00",
    "t_end": "2020-03-16T09:00:00",
    "link": ""
  },
  {
    "id": 54136,
    "lat": 31.6543446100001,
    "lon": 35.1174724370001,
    "label": "חנות סטוק בכפר עציון - כפר עציון",
    "text": "",
    "stayTimes": "10:00 - 10:30",
    "t_start": "2020-03-16T08:00:00",
    "t_end": "2020-03-16T08:30:00",
    "link": ""
  },
  {
    "id": 54137,
    "lat": 32.6778114000001,
    "lon": 35.2417497000001,
    "label": "ישיבה מתיבתא מגדל העמק",
    "text": "",
    "stayTimes": "11:30-13:00",
    "t_start": "2020-03-16T09:30:00",
    "t_end": "2020-03-16T11:00:00",
    "link": ""
  },
  {
    "id": 54138,
    "lat": 31.9738819,
    "lon": 34.7792824000001,
    "label": "בית מרקחת \"כרמית פארם\", רחוב היקב 12, ראשון לציון",
    "text": "",
    "stayTimes": "12:00-12:15",
    "t_start": "2020-03-16T10:00:00",
    "t_end": "2020-03-16T10:15:00",
    "link": ""
  },
  {
    "id": 54139,
    "lat": 32.8040049050001,
    "lon": 35.0002236830001,
    "label": "בית כנסת מורשה -רח' השילוח 6 חיפה",
    "text": "",
    "stayTimes": "12:30-13:00",
    "t_start": "2020-03-16T10:30:00",
    "t_end": "2020-03-16T11:00:00",
    "link": ""
  },
  {
    "id": 54140,
    "lat": 32.31582,
    "lon": 34.9393200000001,
    "label": "החרצית כפר יונה",
    "text": "",
    "stayTimes": "13:15-13:30",
    "t_start": "2020-03-16T11:15:00",
    "t_end": "2020-03-16T11:30:00",
    "link": ""
  },
  {
    "id": 54141,
    "lat": 31.4246155000001,
    "lon": 34.5987464,
    "label": "משרד הפנים - נתיבות",
    "text": "",
    "stayTimes": "13:30 - 13:30",
    "t_start": "2020-03-16T11:30:00",
    "t_end": "2020-03-16T11:30:00",
    "link": ""
  },
  {
    "id": 54142,
    "lat": 32.3191479000001,
    "lon": 34.9336595,
    "label": "קופת חולים כללית, הרצל 7 כפר יונה",
    "text": "",
    "stayTimes": "13:40-14:00",
    "t_start": "2020-03-16T11:40:00",
    "t_end": "2020-03-16T12:00:00",
    "link": ""
  },
  {
    "id": 54143,
    "lat": 32.3191522180001,
    "lon": 34.9336528270001,
    "label": "קופת חולים כללי, רזיאל כפר יונה",
    "text": "",
    "stayTimes": "14:00-14:30",
    "t_start": "2020-03-16T12:00:00",
    "t_end": "2020-03-16T12:30:00",
    "link": ""
  },
  {
    "id": 54144,
    "lat": 31.4160092000001,
    "lon": 34.5790162000001,
    "label": "סופר ח כהן נתיבות ברחוב המלאכה - נתיבות",
    "text": "",
    "stayTimes": "14:00 - 16:00",
    "t_start": "2020-03-16T12:00:00",
    "t_end": "2020-03-16T14:00:00",
    "link": ""
  },
  {
    "id": 54145,
    "lat": 32.1632900000001,
    "lon": 34.8082355,
    "label": "חנות פרקטים רחוב גלגלי הפלדה 7, בהרצליה",
    "text": "",
    "stayTimes": "15:00-16:45",
    "t_start": "2020-03-16T13:00:00",
    "t_end": "2020-03-16T14:45:00",
    "link": ""
  },
  {
    "id": 54146,
    "lat": 32.1621834870001,
    "lon": 34.810407045,
    "label": "מוצרי חשמל מילר גלרי רחוב המוסקט 33, בהרצליה",
    "text": "",
    "stayTimes": "17:00-17:20",
    "t_start": "2020-03-16T15:00:00",
    "t_end": "2020-03-16T15:20:00",
    "link": ""
  },
  {
    "id": 54147,
    "lat": 32.8040049050001,
    "lon": 35.0002236830001,
    "label": "בית כנסת מורשה -רח' השילוח 6 חיפה",
    "text": "",
    "stayTimes": "17:00-19:00",
    "t_start": "2020-03-16T15:00:00",
    "t_end": "2020-03-16T17:00:00",
    "link": ""
  },
  {
    "id": 54148,
    "lat": 32.160744648,
    "lon": 34.8066672840001,
    "label": "חנות מוצרי חשמל רחוב המנופים 2, בהרצליה",
    "text": "",
    "stayTimes": "17:30-18:20",
    "t_start": "2020-03-16T15:30:00",
    "t_end": "2020-03-16T16:20:00",
    "link": ""
  },
  {
    "id": 54149,
    "lat": 31.7998277,
    "lon": 34.6623938000001,
    "label": "סופר יש חסד מחלקת דגים - אשדוד",
    "text": "",
    "stayTimes": "17:30 - 18:30",
    "t_start": "2020-03-16T15:30:00",
    "t_end": "2020-03-16T16:30:00",
    "link": ""
  },
  {
    "id": 54150,
    "lat": 31.2529730000001,
    "lon": 34.791462,
    "label": "חנות פעמי רון - באר שבע",
    "text": "",
    "stayTimes": "18:00 - 18:30",
    "t_start": "2020-03-16T16:00:00",
    "t_end": "2020-03-16T16:30:00",
    "link": ""
  },
  {
    "id": 54151,
    "lat": 32.0856600000001,
    "lon": 34.8102500000001,
    "label": "\"שוויצריה הקטנה\" ברחוב ביאליק 79 רמת גן",
    "text": "",
    "stayTimes": "19:00-19:30",
    "t_start": "2020-03-16T17:00:00",
    "t_end": "2020-03-16T17:30:00",
    "link": ""
  },
  {
    "id": 54152,
    "lat": 32.0857300000001,
    "lon": 34.81161,
    "label": "סופר פארם בקניון ביאליק , רחוב ביאליק 79 רמת גן",
    "text": "",
    "stayTimes": "19:00-20:00",
    "t_start": "2020-03-16T17:00:00",
    "t_end": "2020-03-16T18:00:00",
    "link": ""
  },
  {
    "id": 54153,
    "lat": 32.0856600000001,
    "lon": 34.8102500000001,
    "label": "\"שוויצריה הקטנה\" ברחוב ביאליק 79 רמת גן",
    "text": "",
    "stayTimes": "19:00-19:30",
    "t_start": "2020-03-16T17:00:00",
    "t_end": "2020-03-16T17:30:00",
    "link": ""
  },
  {
    "id": 54154,
    "lat": 32.0857300000001,
    "lon": 34.81161,
    "label": "סופר פארם בקניון ביאליק , רחוב ביאליק 79 רמת גן",
    "text": "",
    "stayTimes": "19:00-20:00",
    "t_start": "2020-03-16T17:00:00",
    "t_end": "2020-03-16T18:00:00",
    "link": ""
  },
  {
    "id": 54155,
    "lat": 32.0908013000001,
    "lon": 34.8389312,
    "label": "סופר יש רימונים - בני ברק",
    "text": "",
    "stayTimes": "20:00 - 21:30",
    "t_start": "2020-03-16T18:00:00",
    "t_end": "2020-03-16T19:30:00",
    "link": ""
  },
  {
    "id": 54156,
    "lat": 32.0360309000001,
    "lon": 34.7627074000001,
    "label": "בית חולים וולפסון",
    "text": "",
    "stayTimes": "00:00-23:59",
    "t_start": "2020-03-16T22:00:00",
    "t_end": "2020-03-17T21:59:00",
    "link": ""
  },
  {
    "id": 54157,
    "lat": 32.7795991,
    "lon": 35.5169531000001,
    "label": "סופרמרקט \"יש חסד\" , הנשיא ויצמן 1117, א.ת. שיכון ד', טבריה",
    "text": "",
    "stayTimes": "19:00-21:00",
    "t_start": "2020-03-17T17:00:00",
    "t_end": "2020-03-17T19:00:00",
    "link": ""
  },
  {
    "id": 54158,
    "lat": 32.0495300000001,
    "lon": 34.95075,
    "label": "בית כנסת \"משכנות נריה\", אלעד",
    "text": "",
    "stayTimes": "05:45-06:20",
    "t_start": "2020-03-17T03:45:00",
    "t_end": "2020-03-17T04:20:00",
    "link": ""
  },
  {
    "id": 54159,
    "lat": 32.053904,
    "lon": 34.9597296000001,
    "label": "בית כנסת \"מאור שרגא\", אלעד",
    "text": "",
    "stayTimes": "19:30-20:00",
    "t_start": "2020-03-17T17:30:00",
    "t_end": "2020-03-17T18:00:00",
    "link": ""
  },
  {
    "id": 54160,
    "lat": 32.7795991,
    "lon": 35.5169531000001,
    "label": "סופרמרקט \"יש חסד\", הנשיא ויצמן 1117, א.ת. שיכון ד', טבריה",
    "text": "",
    "stayTimes": "19:00-21:00",
    "t_start": "2020-03-17T17:00:00",
    "t_end": "2020-03-17T19:00:00",
    "link": ""
  },
  {
    "id": 54161,
    "lat": 31.2462193000001,
    "lon": 34.7987613,
    "label": "בית המשפט המחוזי באר שבע",
    "text": "",
    "stayTimes": "07:30-16:00",
    "t_start": "2020-03-17T05:30:00",
    "t_end": "2020-03-17T14:00:00",
    "link": ""
  },
  {
    "id": 54162,
    "lat": 31.87904,
    "lon": 35.248254,
    "label": "בית כנסת בבית מדרש \"אוהלי שם\" רח' נהר שלום כוכב יעקב",
    "text": "",
    "stayTimes": "05:15-06:15",
    "t_start": "2020-03-17T03:15:00",
    "t_end": "2020-03-17T04:15:00",
    "link": ""
  },
  {
    "id": 54163,
    "lat": 31.87904,
    "lon": 35.248254,
    "label": "בית כנסת בבית מדרש \"אוהלי שם\" רח' נהר שלום כוכב יעקב",
    "text": "",
    "stayTimes": "11:00-11:45",
    "t_start": "2020-03-17T09:00:00",
    "t_end": "2020-03-17T09:45:00",
    "link": ""
  },
  {
    "id": 54164,
    "lat": 31.87904,
    "lon": 35.248254,
    "label": "בית כנסת בבית מדרש \"אוהלי שם\" רח' נהר שלום כוכב יעקב",
    "text": "",
    "stayTimes": "17:30-18:15",
    "t_start": "2020-03-17T15:30:00",
    "t_end": "2020-03-17T16:15:00",
    "link": ""
  },
  {
    "id": 54166,
    "lat": 31.3263210000001,
    "lon": 34.6489340000001,
    "label": "בית כנסת מגן שלמה, מושב גילת",
    "text": "",
    "stayTimes": "05:45-06:30",
    "t_start": "2020-03-17T03:45:00",
    "t_end": "2020-03-17T04:30:00",
    "link": ""
  },
  {
    "id": 54167,
    "lat": 32.8040049050001,
    "lon": 35.0002236830001,
    "label": "בית כנסת מורשה - רח' השילוח 6 חיפה",
    "text": "",
    "stayTimes": "05:45-06:30",
    "t_start": "2020-03-17T03:45:00",
    "t_end": "2020-03-17T04:30:00",
    "link": ""
  },
  {
    "id": 54168,
    "lat": 32.6037908000001,
    "lon": 35.2940938,
    "label": "בנק יהב עפולה",
    "text": "",
    "stayTimes": "08:00-15:00",
    "t_start": "2020-03-17T06:00:00",
    "t_end": "2020-03-17T13:00:00",
    "link": ""
  },
  {
    "id": 54169,
    "lat": 32.0599305000001,
    "lon": 34.7736875000001,
    "label": "אופנת סגל - תל אביב - יפו",
    "text": "",
    "stayTimes": "09:30 - 18:00",
    "t_start": "2020-03-17T07:30:00",
    "t_end": "2020-03-17T16:00:00",
    "link": ""
  },
  {
    "id": 54170,
    "lat": 32.0856982,
    "lon": 34.8301849000001,
    "label": "קופת חולים מאוחדת, רחוב ירושלים 17, בני ברק",
    "text": "",
    "stayTimes": "10:00-10:30",
    "t_start": "2020-03-17T08:00:00",
    "t_end": "2020-03-17T08:30:00",
    "link": ""
  },
  {
    "id": 54171,
    "lat": 31.942192462,
    "lon": 34.8910049130001,
    "label": "קיוסק - לוד",
    "text": "",
    "stayTimes": "11:00 - 13:00",
    "t_start": "2020-03-17T09:00:00",
    "t_end": "2020-03-17T11:00:00",
    "link": ""
  },
  {
    "id": 54172,
    "lat": 32.0814278,
    "lon": 34.7898728000001,
    "label": "שופרסל איכילוב, ויצמן - תל אביב - יפו",
    "text": "",
    "stayTimes": "12:00 - 12:20",
    "t_start": "2020-03-17T10:00:00",
    "t_end": "2020-03-17T10:20:00",
    "link": ""
  },
  {
    "id": 54173,
    "lat": 32.1246945240001,
    "lon": 34.804384584,
    "label": "מגה בעיר - תל אביב - יפו",
    "text": "",
    "stayTimes": "12:00 - 12:00",
    "t_start": "2020-03-17T10:00:00",
    "t_end": "2020-03-17T10:00:00",
    "link": ""
  },
  {
    "id": 54174,
    "lat": 32.8040049050001,
    "lon": 35.0002236830001,
    "label": "בית כנסת מורשה -רח' השילוח 6 חיפה",
    "text": "",
    "stayTimes": "12:30-13:00",
    "t_start": "2020-03-17T10:30:00",
    "t_end": "2020-03-17T11:00:00",
    "link": ""
  },
  {
    "id": 54175,
    "lat": 32.022775,
    "lon": 34.7728470000001,
    "label": "חנות טלפונים-  מובייל תקשורת למהדרין - חולון",
    "text": "",
    "stayTimes": "13:00 - 13:30",
    "t_start": "2020-03-17T11:00:00",
    "t_end": "2020-03-17T11:30:00",
    "link": ""
  },
  {
    "id": 54176,
    "lat": 31.9881107320001,
    "lon": 34.9388925000001,
    "label": "אוסם - שוהם",
    "text": "",
    "stayTimes": "14:00 - 17:00",
    "t_start": "2020-03-17T12:00:00",
    "t_end": "2020-03-17T15:00:00",
    "link": ""
  },
  {
    "id": 54177,
    "lat": 32.0998254680001,
    "lon": 34.820579175,
    "label": "חנות טרקלין חשמל - לוד",
    "text": "",
    "stayTimes": "15:00 - 15:20",
    "t_start": "2020-03-17T13:00:00",
    "t_end": "2020-03-17T13:20:00",
    "link": ""
  },
  {
    "id": 54178,
    "lat": 31.9421141650001,
    "lon": 34.891043536,
    "label": "קיוסק - לוד",
    "text": "",
    "stayTimes": "15:30 - 17:00",
    "t_start": "2020-03-17T13:30:00",
    "t_end": "2020-03-17T15:00:00",
    "link": ""
  },
  {
    "id": 54179,
    "lat": 31.2453590000001,
    "lon": 34.8128496000001,
    "label": "אווז הזהב אקספרס במתחם ביג בבאר שבע",
    "text": "",
    "stayTimes": "15:45-16:15",
    "t_start": "2020-03-17T13:45:00",
    "t_end": "2020-03-17T14:15:00",
    "link": ""
  },
  {
    "id": 54180,
    "lat": 31.6535890000001,
    "lon": 35.149934,
    "label": "סופר קואופ - אפרת",
    "text": "",
    "stayTimes": "16:30 - 17:00",
    "t_start": "2020-03-17T14:30:00",
    "t_end": "2020-03-17T15:00:00",
    "link": ""
  },
  {
    "id": 54181,
    "lat": 32.8040049050001,
    "lon": 35.0002236830001,
    "label": "בית כנסת מורשה -רח' השילוח 6 חיפה",
    "text": "",
    "stayTimes": "17:00-19:00",
    "t_start": "2020-03-17T15:00:00",
    "t_end": "2020-03-17T17:00:00",
    "link": ""
  },
  {
    "id": 54182,
    "lat": 31.310954,
    "lon": 34.6126154,
    "label": "מרפאת כללית בסניף מישור הגפן, אופקים",
    "text": "",
    "stayTimes": "17:15-17:45",
    "t_start": "2020-03-17T15:15:00",
    "t_end": "2020-03-17T15:45:00",
    "link": ""
  },
  {
    "id": 54183,
    "lat": 32.0908013000001,
    "lon": 34.8389312,
    "label": "צרכניית \"יש חסד\", אהרונוביץ' 10 בני ברק",
    "text": "",
    "stayTimes": "18:00-22:00",
    "t_start": "2020-03-17T16:00:00",
    "t_end": "2020-03-17T20:00:00",
    "link": ""
  },
  {
    "id": 54184,
    "lat": 31.8011869900001,
    "lon": 35.211924723,
    "label": "AVX מעבדות - ירושלים",
    "text": "",
    "stayTimes": "18:00 - 19:00",
    "t_start": "2020-03-17T16:00:00",
    "t_end": "2020-03-17T17:00:00",
    "link": ""
  },
  {
    "id": 54185,
    "lat": 32.6346199070001,
    "lon": 35.332688068,
    "label": "בית כנסת ויזניץ רחב זית 1 עפולה",
    "text": "",
    "stayTimes": "18:30-19:00",
    "t_start": "2020-03-17T16:30:00",
    "t_end": "2020-03-17T17:00:00",
    "link": ""
  },
  {
    "id": 54186,
    "lat": 32.0835600620001,
    "lon": 34.7892091590001,
    "label": "מארלוזורוב ת\"א עד לחיים עוזר פ\"ת",
    "text": "",
    "stayTimes": "19:30-19:50",
    "t_start": "2020-03-17T17:30:00",
    "t_end": "2020-03-17T17:50:00",
    "link": ""
  },
  {
    "id": 54187,
    "lat": 32.0474520000001,
    "lon": 34.7582999000001,
    "label": "סופר שוק - תל אביב - יפו",
    "text": "",
    "stayTimes": "21:00 - 21:20",
    "t_start": "2020-03-17T19:00:00",
    "t_end": "2020-03-17T19:20:00",
    "link": ""
  },
  {
    "id": 54188,
    "lat": 31.8007536000001,
    "lon": 34.6627421000001,
    "label": "נעלי שילת - אשדוד",
    "text": "",
    "stayTimes": "21:20 - 21:30",
    "t_start": "2020-03-17T19:20:00",
    "t_end": "2020-03-17T19:30:00",
    "link": ""
  },
  {
    "id": 54189,
    "lat": 31.7938924000001,
    "lon": 34.6616336000001,
    "label": "חנות נעליים שוזים - אשדוד",
    "text": "",
    "stayTimes": "21:50 - 22:00",
    "t_start": "2020-03-17T19:50:00",
    "t_end": "2020-03-17T20:00:00",
    "link": ""
  },
  {
    "id": 54190,
    "lat": 32.6038847,
    "lon": 35.2930428000001,
    "label": "סופר רמי לוי עפול",
    "text": "",
    "stayTimes": "22:30-23:30",
    "t_start": "2020-03-17T20:30:00",
    "t_end": "2020-03-17T21:30:00",
    "link": ""
  },
  {
    "id": 54191,
    "lat": 32.0360309000001,
    "lon": 34.7627074000001,
    "label": "בית חולים וולפסון",
    "text": "",
    "stayTimes": "00:00-23:59",
    "t_start": "2020-03-17T22:00:00",
    "t_end": "2020-03-18T21:59:00",
    "link": ""
  },
  {
    "id": 54192,
    "lat": 32.0495300000001,
    "lon": 34.95075,
    "label": "בית כנסת \"משכנות נריה\", אלעד",
    "text": "",
    "stayTimes": "05:45-06:20",
    "t_start": "2020-03-18T03:45:00",
    "t_end": "2020-03-18T04:20:00",
    "link": ""
  },
  {
    "id": 54193,
    "lat": 31.87904,
    "lon": 35.248254,
    "label": "בית כנסת בבית מדרש \"אוהלי שם\" רח' נהר שלום כוכב יעקב",
    "text": "",
    "stayTimes": "05:15-06:15",
    "t_start": "2020-03-18T03:15:00",
    "t_end": "2020-03-18T04:15:00",
    "link": ""
  },
  {
    "id": 54194,
    "lat": 31.87904,
    "lon": 35.248254,
    "label": "בית כנסת בבית מדרש \"אוהלי שם\" רח' נהר שלום כוכב יעקב",
    "text": "",
    "stayTimes": "11:00-11:45",
    "t_start": "2020-03-18T09:00:00",
    "t_end": "2020-03-18T09:45:00",
    "link": ""
  },
  {
    "id": 54195,
    "lat": 31.87904,
    "lon": 35.248254,
    "label": "בית כנסת בבית מדרש \"אוהלי שם\" רח' נהר שלום כוכב יעקב",
    "text": "",
    "stayTimes": "17:30-18:15",
    "t_start": "2020-03-18T15:30:00",
    "t_end": "2020-03-18T16:15:00",
    "link": ""
  },
  {
    "id": 54196,
    "lat": 32.8040049050001,
    "lon": 35.0002236830001,
    "label": "בית כנסת מורשה - רח' השילוח 6 חיפה",
    "text": "",
    "stayTimes": "05:45-06:30",
    "t_start": "2020-03-18T03:45:00",
    "t_end": "2020-03-18T04:30:00",
    "link": ""
  },
  {
    "id": 54197,
    "lat": 31.6310856000001,
    "lon": 34.5260912000001,
    "label": "ביהכ\"נ תפעול חברת חשמל אתר רוטברג - אשקלון",
    "text": "",
    "stayTimes": "06:50 - 07:30",
    "t_start": "2020-03-18T04:50:00",
    "t_end": "2020-03-18T05:30:00",
    "link": ""
  },
  {
    "id": 54198,
    "lat": 32.1636519,
    "lon": 34.8428755,
    "label": "מכון דימות שללית שירותי בריאות, רמב\"ם 1, הרצליה",
    "text": "",
    "stayTimes": "09:00-11:00",
    "t_start": "2020-03-18T07:00:00",
    "t_end": "2020-03-18T09:00:00",
    "link": ""
  },
  {
    "id": 54199,
    "lat": 31.7954250000001,
    "lon": 34.662694,
    "label": "מרפאת \"ד\"ר בראון\", רחוב כיכר אלתא, רובע ז",
    "text": "",
    "stayTimes": "09:30-10:30",
    "t_start": "2020-03-18T07:30:00",
    "t_end": "2020-03-18T08:30:00",
    "link": ""
  },
  {
    "id": 54200,
    "lat": 32.0126802,
    "lon": 34.8054303000001,
    "label": "בנק מזרחי טפחות קומת כניסה - חולון",
    "text": "",
    "stayTimes": "10:30 - 11:30",
    "t_start": "2020-03-18T08:30:00",
    "t_end": "2020-03-18T09:30:00",
    "link": ""
  },
  {
    "id": 54201,
    "lat": 32.8040049050001,
    "lon": 35.0002236830001,
    "label": "בית כנסת מורשה -רח' השילוח 6 חיפה",
    "text": "",
    "stayTimes": "12:30-13:00",
    "t_start": "2020-03-18T10:30:00",
    "t_end": "2020-03-18T11:00:00",
    "link": ""
  },
  {
    "id": 54202,
    "lat": 31.6310856000001,
    "lon": 34.5260912000001,
    "label": "ביהכ\"נ תפעול חברת החשמל אתר רוטברג - אשקלון",
    "text": "",
    "stayTimes": "12:30 - 13:00",
    "t_start": "2020-03-18T10:30:00",
    "t_end": "2020-03-18T11:00:00",
    "link": ""
  },
  {
    "id": 54203,
    "lat": 32.097205574,
    "lon": 34.8376757870001,
    "label": "אשפוז יום - בני ברק",
    "text": "",
    "stayTimes": "13:00 - 14:00",
    "t_start": "2020-03-18T11:00:00",
    "t_end": "2020-03-18T12:00:00",
    "link": ""
  },
  {
    "id": 54204,
    "lat": 32.0100150000001,
    "lon": 34.8097050000001,
    "label": "סופר חצי חינם - חולון",
    "text": "",
    "stayTimes": "13:00 - 15:00",
    "t_start": "2020-03-18T11:00:00",
    "t_end": "2020-03-18T13:00:00",
    "link": ""
  },
  {
    "id": 54205,
    "lat": 31.7954250000001,
    "lon": 34.662694,
    "label": "מרפאת \"ד\"ר בראון\", רחוב כיכר אלתא, רובע ז",
    "text": "",
    "stayTimes": "17:00-17:30",
    "t_start": "2020-03-18T15:00:00",
    "t_end": "2020-03-18T15:30:00",
    "link": ""
  },
  {
    "id": 54206,
    "lat": 32.8040049050001,
    "lon": 35.0002236830001,
    "label": "בית כנסת מורשה -רח' השילוח 6 חיפה",
    "text": "",
    "stayTimes": "17:00-19:00",
    "t_start": "2020-03-18T15:00:00",
    "t_end": "2020-03-18T17:00:00",
    "link": ""
  },
  {
    "id": 54207,
    "lat": 31.2416998,
    "lon": 34.7925212000001,
    "label": "חנות תבלינים כוכב התבלינים עיר העתיקה ב\"ש - באר שבע",
    "text": "",
    "stayTimes": "20:00 - 20:30",
    "t_start": "2020-03-18T18:00:00",
    "t_end": "2020-03-18T18:30:00",
    "link": ""
  },
  {
    "id": 54208,
    "lat": 31.9421178060001,
    "lon": 34.8910435340001,
    "label": "קיוסק - לוד",
    "text": "",
    "stayTimes": "20:00 - 23:30",
    "t_start": "2020-03-18T18:00:00",
    "t_end": "2020-03-18T21:30:00",
    "link": ""
  },
  {
    "id": 54209,
    "lat": 32.036229468,
    "lon": 34.76199145,
    "label": "שופרסל  אקספרס מרכס מסחרי  בה\"ח וולפסון - חולון",
    "text": "",
    "stayTimes": "21:00 - 21:15",
    "t_start": "2020-03-18T19:00:00",
    "t_end": "2020-03-18T19:15:00",
    "link": ""
  },
  {
    "id": 54210,
    "lat": 32.1018083000001,
    "lon": 34.8298623000001,
    "label": "רמי לוי - בני ברק",
    "text": "",
    "stayTimes": "21:30 - 23:00",
    "t_start": "2020-03-18T19:30:00",
    "t_end": "2020-03-18T21:00:00",
    "link": ""
  },
  {
    "id": 54211,
    "lat": 32.8040049050001,
    "lon": 35.0002236830001,
    "label": "בית כנסת מורשה - רח' השילוח 6 חיפה",
    "text": "",
    "stayTimes": "05:45-06:30",
    "t_start": "2020-03-19T03:45:00",
    "t_end": "2020-03-19T04:30:00",
    "link": ""
  },
  {
    "id": 54212,
    "lat": 31.763070988,
    "lon": 35.2075006810001,
    "label": "בית כנסת \"שטיבלח\" - ירושלים",
    "text": "",
    "stayTimes": "07:00 - 10:00",
    "t_start": "2020-03-19T05:00:00",
    "t_end": "2020-03-19T08:00:00",
    "link": ""
  },
  {
    "id": 54213,
    "lat": 32.0126802,
    "lon": 34.8054303000001,
    "label": "בנק מזרחי טפחות קומת כניסה - חולון",
    "text": "",
    "stayTimes": "10:30 - 11:30",
    "t_start": "2020-03-19T08:30:00",
    "t_end": "2020-03-19T09:30:00",
    "link": ""
  },
  {
    "id": 54214,
    "lat": 31.9430537260001,
    "lon": 34.889790406,
    "label": "קיוסק - לוד",
    "text": "",
    "stayTimes": "12:00 - 16:00",
    "t_start": "2020-03-19T10:00:00",
    "t_end": "2020-03-19T14:00:00",
    "link": ""
  },
  {
    "id": 54215,
    "lat": 32.8040049050001,
    "lon": 35.0002236830001,
    "label": "בית כנסת מורשה -רח' השילוח 6 חיפה",
    "text": "",
    "stayTimes": "12:30-13:00",
    "t_start": "2020-03-19T10:30:00",
    "t_end": "2020-03-19T11:00:00",
    "link": ""
  },
  {
    "id": 54216,
    "lat": 32.0873548000001,
    "lon": 34.8289585000001,
    "label": "בית הכנסת הגדול - בני ברק",
    "text": "",
    "stayTimes": "14:30 - 15:00",
    "t_start": "2020-03-19T12:30:00",
    "t_end": "2020-03-19T13:00:00",
    "link": ""
  },
  {
    "id": 54217,
    "lat": 31.9093954000001,
    "lon": 34.805436,
    "label": "חנות אופיס דיפו צומת בילו - רחובות",
    "text": "",
    "stayTimes": "16:30 - 17:00",
    "t_start": "2020-03-19T14:30:00",
    "t_end": "2020-03-19T15:00:00",
    "link": ""
  },
  {
    "id": 54218,
    "lat": 32.8040049050001,
    "lon": 35.0002236830001,
    "label": "בית כנסת מורשה -רח' השילוח 6 חיפה",
    "text": "",
    "stayTimes": "17:00-19:00",
    "t_start": "2020-03-19T15:00:00",
    "t_end": "2020-03-19T17:00:00",
    "link": ""
  },
  {
    "id": 54219,
    "lat": 31.310954,
    "lon": 34.6126154,
    "label": "מרפאת כללית בסניף מישור הגפן, אופקים",
    "text": "",
    "stayTimes": "18:00-18:30",
    "t_start": "2020-03-19T16:00:00",
    "t_end": "2020-03-19T16:30:00",
    "link": ""
  },
  {
    "id": 54220,
    "lat": 31.243507102,
    "lon": 34.810619413,
    "label": "B7 שופרסל בי (סופרפארם של שופרסל) - באר שבע",
    "text": "",
    "stayTimes": "19:00 - 19:30",
    "t_start": "2020-03-19T17:00:00",
    "t_end": "2020-03-19T17:30:00",
    "link": ""
  },
  {
    "id": 54221,
    "lat": 32.8040049050001,
    "lon": 35.0002236830001,
    "label": "בית כנסת מורשה - רח' השילוח 6 חיפה",
    "text": "",
    "stayTimes": "05:45-06:30",
    "t_start": "2020-03-20T03:45:00",
    "t_end": "2020-03-20T04:30:00",
    "link": ""
  },
  {
    "id": 54222,
    "lat": 32.8040049050001,
    "lon": 35.0002236830001,
    "label": "בית כנסת מורשה -רח' השילוח 6 חיפה",
    "text": "",
    "stayTimes": "12:30-13:00",
    "t_start": "2020-03-20T10:30:00",
    "t_end": "2020-03-20T11:00:00",
    "link": ""
  },
  {
    "id": 54223,
    "lat": 32.7694308550001,
    "lon": 35.4759519740001,
    "label": "מאפית אליס - טבריה",
    "text": "",
    "stayTimes": "12:30 - 13:00",
    "t_start": "2020-03-20T10:30:00",
    "t_end": "2020-03-20T11:00:00",
    "link": ""
  },
  {
    "id": 54224,
    "lat": 29.5542451860001,
    "lon": 34.940702039,
    "label": "מלר\"ד קורונה/מחלות זיהומיות יוספטל",
    "text": "",
    "stayTimes": "16:00-18:30",
    "t_start": "2020-03-20T14:00:00",
    "t_end": "2020-03-20T16:30:00",
    "link": ""
  },
  {
    "id": 54225,
    "lat": 32.8040049050001,
    "lon": 35.0002236830001,
    "label": "בית כנסת מורשה -רח' השילוח 6 חיפה",
    "text": "",
    "stayTimes": "17:00-19:00",
    "t_start": "2020-03-20T15:00:00",
    "t_end": "2020-03-20T17:00:00",
    "link": ""
  },
  {
    "id": 54226,
    "lat": 32.8040049050001,
    "lon": 35.0002236830001,
    "label": "בית כנסת מורשה - רח' השילוח 6 חיפה",
    "text": "",
    "stayTimes": "05:45-06:30",
    "t_start": "2020-03-21T03:45:00",
    "t_end": "2020-03-21T04:30:00",
    "link": ""
  },
  {
    "id": 54227,
    "lat": 32.086465339,
    "lon": 34.832410714,
    "label": "מקוה צאנז - בני ברק",
    "text": "",
    "stayTimes": "06:00 - 06:10",
    "t_start": "2020-03-21T04:00:00",
    "t_end": "2020-03-21T04:10:00",
    "link": ""
  },
  {
    "id": 54228,
    "lat": 32.8040049050001,
    "lon": 35.0002236830001,
    "label": "בית כנסת מורשה -רח' השילוח 6 חיפה",
    "text": "",
    "stayTimes": "12:30-13:00",
    "t_start": "2020-03-21T10:30:00",
    "t_end": "2020-03-21T11:00:00",
    "link": ""
  },
  {
    "id": 54229,
    "lat": 32.8040049050001,
    "lon": 35.0002236830001,
    "label": "בית כנסת מורשה -רח' השילוח 6 חיפה",
    "text": "",
    "stayTimes": "17:00-19:00",
    "t_start": "2020-03-21T15:00:00",
    "t_end": "2020-03-21T17:00:00",
    "link": ""
  },
  {
    "id": 54230,
    "lat": 32.0998254680001,
    "lon": 34.820579175,
    "label": "אושר עד - בני ברק",
    "text": "",
    "stayTimes": "19:50 - 20:30",
    "t_start": "2020-03-21T17:50:00",
    "t_end": "2020-03-21T18:30:00",
    "link": ""
  },
  {
    "id": 54231,
    "lat": 32.0998254680001,
    "lon": 34.820579175,
    "label": "עזר מציון - בני ברק",
    "text": "",
    "stayTimes": "23:00 - 00:00",
    "t_start": "2020-03-21T21:00:00",
    "t_end": "2020-03-21T22:00:00",
    "link": ""
  },
  {
    "id": 54232,
    "lat": 32.8040049050001,
    "lon": 35.0002236830001,
    "label": "בית כנסת מורשה - רח' השילוח 6 חיפה",
    "text": "",
    "stayTimes": "05:45-06:30",
    "t_start": "2020-03-22T03:45:00",
    "t_end": "2020-03-22T04:30:00",
    "link": ""
  },
  {
    "id": 54233,
    "lat": 32.4747429,
    "lon": 34.9978065,
    "label": "סופר סל שלי כרכור - פרדס חנה-כרכור",
    "text": "",
    "stayTimes": "08:30 - 12:30",
    "t_start": "2020-03-22T06:30:00",
    "t_end": "2020-03-22T10:30:00",
    "link": ""
  },
  {
    "id": 54234,
    "lat": 32.8040049050001,
    "lon": 35.0002236830001,
    "label": "בית כנסת מורשה -רח' השילוח 6 חיפה",
    "text": "",
    "stayTimes": "12:30-13:00",
    "t_start": "2020-03-22T10:30:00",
    "t_end": "2020-03-22T11:00:00",
    "link": ""
  },
  {
    "id": 54235,
    "lat": 32.0860237000001,
    "lon": 34.8303992,
    "label": "קופת חולים מכבי - בני ברק",
    "text": "",
    "stayTimes": "14:15 - 15:45",
    "t_start": "2020-03-22T12:15:00",
    "t_end": "2020-03-22T13:45:00",
    "link": ""
  },
  {
    "id": 54236,
    "lat": 32.8040049050001,
    "lon": 35.0002236830001,
    "label": "בית כנסת מורשה -רח' השילוח 6 חיפה",
    "text": "",
    "stayTimes": "17:00-19:00",
    "t_start": "2020-03-22T15:00:00",
    "t_end": "2020-03-22T17:00:00",
    "link": ""
  },
  {
    "id": 54237,
    "lat": 32.6210762000001,
    "lon": 35.3165964,
    "label": "מיון, בי\"ח העמק - עפולה",
    "text": "",
    "stayTimes": "12:00 - 20:00",
    "t_start": "2020-03-23T10:00:00",
    "t_end": "2020-03-23T18:00:00",
    "link": ""
  },
  {
    "id": 54238,
    "lat": 31.9660531000001,
    "lon": 34.8394177000001,
    "label": "מיון פנימי בית חולים אסף הרופא - ראשון לציון",
    "text": "",
    "stayTimes": "15:30 - 19:00",
    "t_start": "2020-03-17T13:30:00",
    "t_end": "2020-03-17T17:00:00",
    "link": ""
  },
  {
    "id": 54239,
    "lat": 32.080954438,
    "lon": 34.836760031,
    "label": "קיוסק (מכולת) \"השמן והרזה\" - בני ברק",
    "text": "",
    "stayTimes": "00:00 - 00:30",
    "t_start": "2020-03-16T22:00:00",
    "t_end": "2020-03-16T22:30:00",
    "link": ""
  },
  {
    "id": 54240,
    "lat": 31.5526820000001,
    "lon": 34.7701510000001,
    "label": "בית המדרש - אחוזם",
    "text": "",
    "stayTimes": "20:00 - 21:00",
    "t_start": "2020-03-16T18:00:00",
    "t_end": "2020-03-16T19:00:00",
    "link": ""
  },
  {
    "id": 54241,
    "lat": 31.6732514890001,
    "lon": 34.568105486,
    "label": "סופר פארם - אשקלון",
    "text": "",
    "stayTimes": "15:30 - 16:30",
    "t_start": "2020-03-20T13:30:00",
    "t_end": "2020-03-20T14:30:00",
    "link": ""
  },
  {
    "id": 54242,
    "lat": 31.9667644,
    "lon": 34.8398698,
    "label": "מיון אסף הרופא - באר יעקב",
    "text": "",
    "stayTimes": "17:20 - 22:00",
    "t_start": "2020-03-18T15:20:00",
    "t_end": "2020-03-18T20:00:00",
    "link": ""
  },
  {
    "id": 54243,
    "lat": 31.9281699850001,
    "lon": 34.872615744,
    "label": "זול סטוק - רמלה",
    "text": "",
    "stayTimes": "08:45 - 15:30",
    "t_start": "2020-03-17T06:45:00",
    "t_end": "2020-03-17T13:30:00",
    "link": ""
  },
  {
    "id": 54244,
    "lat": 32.0055320000001,
    "lon": 34.8854112000001,
    "label": "נמל תעופה בן גורין לגני תקווה - גני תקווה",
    "text": "",
    "stayTimes": "10:00 - 11:00",
    "t_start": "2020-03-17T08:00:00",
    "t_end": "2020-03-17T09:00:00",
    "link": ""
  },
  {
    "id": 54245,
    "lat": 32.0823722280001,
    "lon": 34.830741097,
    "label": "בית כנסת \"צעירים\" - בני ברק",
    "text": "",
    "stayTimes": "05:45 - 07:30",
    "t_start": "2020-03-18T03:45:00",
    "t_end": "2020-03-18T05:30:00",
    "link": ""
  },
  {
    "id": 54246,
    "lat": 32.0986403000001,
    "lon": 34.8432326000001,
    "label": "בית כנסת חסידי גור - בני ברק",
    "text": "",
    "stayTimes": "08:00 - 09:45",
    "t_start": "2020-03-18T06:00:00",
    "t_end": "2020-03-18T07:45:00",
    "link": ""
  },
  {
    "id": 54247,
    "lat": 31.7937262,
    "lon": 35.3337855,
    "label": "סופרמרקט \"רמי לוי שיווק השקמה\" - מעלה אדומים",
    "text": "",
    "stayTimes": "09:45 - 10:15",
    "t_start": "2020-03-18T07:45:00",
    "t_end": "2020-03-18T08:15:00",
    "link": ""
  },
  {
    "id": 54248,
    "lat": 31.862712,
    "lon": 35.1749548000001,
    "label": "סופר \"שוק העיר\" - גבעת זאב",
    "text": "",
    "stayTimes": "08:30 - 10:30",
    "t_start": "2020-03-24T06:30:00",
    "t_end": "2020-03-24T08:30:00",
    "link": ""
  },
  {
    "id": 54249,
    "lat": 31.862562788,
    "lon": 35.1748595820001,
    "label": "סופר \"שוק העיר\" - גבעת זאב",
    "text": "",
    "stayTimes": "08:00 - 09:15",
    "t_start": "2020-03-20T06:00:00",
    "t_end": "2020-03-20T07:15:00",
    "link": ""
  },
  {
    "id": 54250,
    "lat": 32.2190345000001,
    "lon": 34.981589,
    "label": "קופת חולים כללית סניף כוכב יאיר מרכז מסחרי ספיר - כוכב יאיר",
    "text": "",
    "stayTimes": "15:30 - 15:45",
    "t_start": "2020-03-17T13:30:00",
    "t_end": "2020-03-17T13:45:00",
    "link": ""
  },
  {
    "id": 54251,
    "lat": 32.0830558000001,
    "lon": 34.7892695,
    "label": "סופר מגה בעיר רחוב ויצמן פינת ארלזרוב - תל אביב - יפו",
    "text": "",
    "stayTimes": "12:30 - 13:30",
    "t_start": "2020-03-17T10:30:00",
    "t_end": "2020-03-17T11:30:00",
    "link": ""
  },
  {
    "id": 54252,
    "lat": 32.0468644640001,
    "lon": 34.8450403790001,
    "label": "שיקום לב תל השומר - רמת גן",
    "text": "",
    "stayTimes": "14:00 - 18:00",
    "t_start": "2020-03-18T12:00:00",
    "t_end": "2020-03-18T16:00:00",
    "link": ""
  },
  {
    "id": 54253,
    "lat": 31.8932051,
    "lon": 34.8068646,
    "label": "טויז אר אס צומת בילו - רחובות",
    "text": "",
    "stayTimes": "18:30 - 19:00",
    "t_start": "2020-03-18T16:30:00",
    "t_end": "2020-03-18T17:00:00",
    "link": ""
  },
  {
    "id": 54254,
    "lat": 32.0137930000001,
    "lon": 34.777206,
    "label": "חנות בשר well done במרכז נתנאל בחולון - חולון",
    "text": "",
    "stayTimes": "16:00 - 16:30",
    "t_start": "2020-03-17T14:00:00",
    "t_end": "2020-03-17T14:30:00",
    "link": ""
  },
  {
    "id": 54255,
    "lat": 32.0083771000001,
    "lon": 34.7924128000001,
    "label": "חנות ירקות חגולי - חולון",
    "text": "",
    "stayTimes": "17:00 - 18:00",
    "t_start": "2020-03-16T15:00:00",
    "t_end": "2020-03-16T16:00:00",
    "link": ""
  },
  {
    "id": 54256,
    "lat": 32.013759124,
    "lon": 34.7774217460001,
    "label": "מינימרקט  אלירן מרכז נתנאל - חולון",
    "text": "",
    "stayTimes": "16:30 - 17:00",
    "t_start": "2020-03-17T14:30:00",
    "t_end": "2020-03-17T15:00:00",
    "link": ""
  },
  {
    "id": 54257,
    "lat": 32.0141310000001,
    "lon": 34.7427910000001,
    "label": "בית מרקחת עזרא - בת ים",
    "text": "",
    "stayTimes": "16:30 - 17:10",
    "t_start": "2020-03-18T14:30:00",
    "t_end": "2020-03-18T15:10:00",
    "link": ""
  },
  {
    "id": 54258,
    "lat": 31.7656617000001,
    "lon": 35.1491024000001,
    "label": "מיון ביוליוגי בי\"ח הדסה ע\"כ - ירושלים",
    "text": "",
    "stayTimes": "16:00 - 20:00",
    "t_start": "2020-03-22T14:00:00",
    "t_end": "2020-03-22T18:00:00",
    "link": ""
  },
  {
    "id": 54259,
    "lat": 32.6213325640001,
    "lon": 35.3160931080001,
    "label": "ביח' העמק - עפולה",
    "text": "",
    "stayTimes": "19:00 - 20:00",
    "t_start": "2020-03-23T17:00:00",
    "t_end": "2020-03-23T18:00:00",
    "link": ""
  },
  {
    "id": 54260,
    "lat": 32.0796249000001,
    "lon": 34.8411712000001,
    "label": "סופר בר כל טוב - בני ברק",
    "text": "",
    "stayTimes": "12:00 - 12:30",
    "t_start": "2020-03-16T10:00:00",
    "t_end": "2020-03-16T10:30:00",
    "link": ""
  },
  {
    "id": 54261,
    "lat": 32.084392,
    "lon": 34.843663,
    "label": "עזר מציון - בני ברק",
    "text": "",
    "stayTimes": "13:00 - 14:30",
    "t_start": "2020-03-17T11:00:00",
    "t_end": "2020-03-17T12:30:00",
    "link": ""
  },
  {
    "id": 54262,
    "lat": 32.0836468000001,
    "lon": 34.8544321000001,
    "label": "מרפאה של דר' ברקוביץ - גבעת שמואל",
    "text": "",
    "stayTimes": "09:00 - 10:00",
    "t_start": "2020-03-22T07:00:00",
    "t_end": "2020-03-22T08:00:00",
    "link": ""
  },
  {
    "id": 54263,
    "lat": 32.0862991000001,
    "lon": 34.8348894000001,
    "label": "סופר מרקט נתיב החסד - בני ברק",
    "text": "",
    "stayTimes": "11:00 - 11:15",
    "t_start": "2020-03-20T09:00:00",
    "t_end": "2020-03-20T09:15:00",
    "link": ""
  },
  {
    "id": 54264,
    "lat": 32.0798340000001,
    "lon": 34.841219,
    "label": "בית כנסת מנין אברכים - בני ברק",
    "text": "",
    "stayTimes": "10:10 - 11:00",
    "t_start": "2020-03-19T08:10:00",
    "t_end": "2020-03-19T09:00:00",
    "link": ""
  },
  {
    "id": 54265,
    "lat": 32.084876937,
    "lon": 34.835267199,
    "label": "כולל הרן - בני ברק",
    "text": "",
    "stayTimes": "11:00 - 15:10",
    "t_start": "2020-03-19T09:00:00",
    "t_end": "2020-03-19T13:10:00",
    "link": ""
  },
  {
    "id": 54266,
    "lat": 32.0860280000001,
    "lon": 34.829125,
    "label": "בית כנסת קהל עדת ישורון - בני ברק",
    "text": "",
    "stayTimes": "09:30 - 11:00",
    "t_start": "2020-03-17T07:30:00",
    "t_end": "2020-03-17T09:00:00",
    "link": ""
  },
  {
    "id": 54267,
    "lat": 32.0975030000001,
    "lon": 34.841012,
    "label": "חניכי הישיבות  קרית הרצוג - בני ברק",
    "text": "",
    "stayTimes": "11:00 - 15:30",
    "t_start": "2020-03-17T09:00:00",
    "t_end": "2020-03-17T13:30:00",
    "link": ""
  },
  {
    "id": 54268,
    "lat": 32.6424195000001,
    "lon": 35.0924242,
    "label": "שופרסל דיל בביג - יקנעם (מושבה)",
    "text": "",
    "stayTimes": "14:00 - 15:00",
    "t_start": "2020-03-20T12:00:00",
    "t_end": "2020-03-20T13:00:00",
    "link": ""
  },
  {
    "id": 54269,
    "lat": 32.2886786490001,
    "lon": 34.8636800840001,
    "label": "חברת סונול - נתניה",
    "text": "",
    "stayTimes": "11:00 - 19:00",
    "t_start": "2020-03-19T09:00:00",
    "t_end": "2020-03-19T17:00:00",
    "link": ""
  },
  {
    "id": 54270,
    "lat": 32.2926403000001,
    "lon": 34.8624596000001,
    "label": "רמי לוי שיווק השקמה - נתניה",
    "text": "",
    "stayTimes": "20:00 - 21:00",
    "t_start": "2020-03-19T18:00:00",
    "t_end": "2020-03-19T19:00:00",
    "link": ""
  },
  {
    "id": 54271,
    "lat": 32.7841880240001,
    "lon": 35.4979057420001,
    "label": "חנות \"הסטוק\" - טבריה",
    "text": "",
    "stayTimes": "12:00 - 12:30",
    "t_start": "2020-03-16T10:00:00",
    "t_end": "2020-03-16T10:30:00",
    "link": ""
  },
  {
    "id": 54272,
    "lat": 32.7866325000001,
    "lon": 35.5242448000001,
    "label": "מכולת \"טל מרקט\" - טבריה",
    "text": "",
    "stayTimes": "12:00 - 13:00",
    "t_start": "2020-03-16T10:00:00",
    "t_end": "2020-03-16T11:00:00",
    "link": ""
  },
  {
    "id": 54273,
    "lat": 32.7866325000001,
    "lon": 35.5242448000001,
    "label": "מכולת \"טל מרקט\" - טבריה",
    "text": "",
    "stayTimes": "14:00 - 14:30",
    "t_start": "2020-03-18T12:00:00",
    "t_end": "2020-03-18T12:30:00",
    "link": ""
  },
  {
    "id": 54274,
    "lat": 32.7791922000001,
    "lon": 35.5029054,
    "label": "סופרמרקט \"יוחננוף\" - טבריה",
    "text": "",
    "stayTimes": "15:30 - 17:00",
    "t_start": "2020-03-18T13:30:00",
    "t_end": "2020-03-18T15:00:00",
    "link": ""
  },
  {
    "id": 54275,
    "lat": 32.0757697700001,
    "lon": 34.885473367,
    "label": "סופרפארם - פתח תקווה",
    "text": "",
    "stayTimes": "21:00 - 21:30",
    "t_start": "2020-03-17T19:00:00",
    "t_end": "2020-03-17T19:30:00",
    "link": ""
  },
  {
    "id": 54276,
    "lat": 32.0873548000001,
    "lon": 34.8289585000001,
    "label": "בית הכנסת הגדול - בני ברק",
    "text": "",
    "stayTimes": "07:00 - 08:00",
    "t_start": "2020-03-16T05:00:00",
    "t_end": "2020-03-16T06:00:00",
    "link": ""
  },
  {
    "id": 54277,
    "lat": 32.0873548000001,
    "lon": 34.8289585000001,
    "label": "בית הכנסת הגדול - בני ברק",
    "text": "",
    "stayTimes": "08:00 - 09:00",
    "t_start": "2020-03-17T06:00:00",
    "t_end": "2020-03-17T07:00:00",
    "link": ""
  },
  {
    "id": 54278,
    "lat": 32.0055320000001,
    "lon": 34.8854112000001,
    "label": "נתב\"ג - לוד",
    "text": "",
    "stayTimes": "21:30 - 22:00",
    "t_start": "2020-03-17T19:30:00",
    "t_end": "2020-03-17T20:00:00",
    "link": ""
  },
  {
    "id": 54279,
    "lat": 31.6619693000001,
    "lon": 34.55967,
    "label": "מיון ברזילי - אשקלון",
    "text": "",
    "stayTimes": "20:30 - 23:30",
    "t_start": "2020-03-23T18:30:00",
    "t_end": "2020-03-23T21:30:00",
    "link": ""
  },
  {
    "id": 54280,
    "lat": 32.801459703,
    "lon": 35.6886500730001,
    "label": "בית מרקחת קניון נוף גולן - בני יהודה",
    "text": "",
    "stayTimes": "13:30 - 14:00",
    "t_start": "2020-03-22T11:30:00",
    "t_end": "2020-03-22T12:00:00",
    "link": ""
  },
  {
    "id": 54281,
    "lat": 32.7994380000001,
    "lon": 35.6832441,
    "label": "חנות ביג מוצרי בנין - גבעת יואב",
    "text": "",
    "stayTimes": "14:00 - 14:30",
    "t_start": "2020-03-22T12:00:00",
    "t_end": "2020-03-22T12:30:00",
    "link": ""
  },
  {
    "id": 54282,
    "lat": 31.7974363000001,
    "lon": 35.2422844000001,
    "label": "מחלקה פנימית א הדסה הר הצופים - ירושלים",
    "text": "",
    "stayTimes": "09:00 - 18:00",
    "t_start": "2020-03-16T07:00:00",
    "t_end": "2020-03-16T16:00:00",
    "link": ""
  },
  {
    "id": 54283,
    "lat": 31.7930604000001,
    "lon": 35.2449342,
    "label": "מחלקה פנימית א' הר הצופים - ירושלים",
    "text": "",
    "stayTimes": "01:00 - 09:00",
    "t_start": "2020-03-16T23:00:00",
    "t_end": "2020-03-17T07:00:00",
    "link": ""
  },
  {
    "id": 54284,
    "lat": 31.7974363000001,
    "lon": 35.2422844000001,
    "label": "מחלקה פנימית א' הדסה הר הצופים - ירושלים",
    "text": "",
    "stayTimes": "09:00 - 18:00",
    "t_start": "2020-03-18T07:00:00",
    "t_end": "2020-03-18T16:00:00",
    "link": ""
  },
  {
    "id": 54285,
    "lat": 31.7974363000001,
    "lon": 35.2422844000001,
    "label": "מחלקה פנימית א' הדסה הר הצופים - ירושלים",
    "text": "",
    "stayTimes": "09:00 - 18:00",
    "t_start": "2020-03-19T07:00:00",
    "t_end": "2020-03-19T16:00:00",
    "link": ""
  },
  {
    "id": 54286,
    "lat": 31.8377917,
    "lon": 35.2346190000001,
    "label": "קופ\"ח מאוחדת - ירושלים",
    "text": "",
    "stayTimes": "07:40 - 08:30",
    "t_start": "2020-03-16T05:40:00",
    "t_end": "2020-03-16T06:30:00",
    "link": ""
  },
  {
    "id": 54287,
    "lat": 32.0055320000001,
    "lon": 34.8854112000001,
    "label": "עבודה בנתב\"ג - לוד",
    "text": "",
    "stayTimes": "05:00 - 14:00",
    "t_start": "2020-03-18T03:00:00",
    "t_end": "2020-03-18T12:00:00",
    "link": ""
  },
  {
    "id": 54288,
    "lat": 32.0055320000001,
    "lon": 34.8854112000001,
    "label": "עבודה בנתב\"ג - לוד",
    "text": "",
    "stayTimes": "05:00 - 14:00",
    "t_start": "2020-03-17T03:00:00",
    "t_end": "2020-03-17T12:00:00",
    "link": ""
  },
  {
    "id": 54289,
    "lat": 32.0055320000001,
    "lon": 34.8854112000001,
    "label": "מונית מנמל התעופה בן גוריון - גני תקווה",
    "text": "",
    "stayTimes": "10:00 - 11:00",
    "t_start": "2020-03-17T08:00:00",
    "t_end": "2020-03-17T09:00:00",
    "link": ""
  },
  {
    "id": 54290,
    "lat": 31.772780342,
    "lon": 35.2214729500001,
    "label": "מלון דן פנורמה - ירושלים",
    "text": "",
    "stayTimes": "18:00 - 20:00",
    "t_start": "2020-03-17T16:00:00",
    "t_end": "2020-03-17T18:00:00",
    "link": ""
  },
  {
    "id": 54291,
    "lat": 32.0647449000001,
    "lon": 34.7631837000001,
    "label": "מלון דן פנורמה - תל אביב - יפו",
    "text": "",
    "stayTimes": "18:00 - 20:00",
    "t_start": "2020-03-16T16:00:00",
    "t_end": "2020-03-16T18:00:00",
    "link": ""
  },
  {
    "id": 54292,
    "lat": 32.5685534670001,
    "lon": 34.9548873620001,
    "label": "שופרסל בקניון פסגת זכרון - זכרון יעקב",
    "text": "",
    "stayTimes": "21:30 - 23:00",
    "t_start": "2020-03-21T19:30:00",
    "t_end": "2020-03-21T21:00:00",
    "link": ""
  },
  {
    "id": 54293,
    "lat": 31.7488667000001,
    "lon": 35.2110902000001,
    "label": "סופר יוחננוף - ירושלים",
    "text": "",
    "stayTimes": "08:00 - 08:00",
    "t_start": "2020-03-16T06:00:00",
    "t_end": "2020-03-16T06:00:00",
    "link": ""
  },
  {
    "id": 54294,
    "lat": 31.9685428870001,
    "lon": 34.898571217,
    "label": "סופרמרקט \"ויקטורי\" - לוד",
    "text": "",
    "stayTimes": "19:30 - 20:30",
    "t_start": "2020-03-17T17:30:00",
    "t_end": "2020-03-17T18:30:00",
    "link": ""
  },
  {
    "id": 54295,
    "lat": 31.9539838000001,
    "lon": 34.8904522,
    "label": "סופרמרקט \"אושר עד\" - לוד",
    "text": "",
    "stayTimes": "20:40 - 21:30",
    "t_start": "2020-03-17T18:40:00",
    "t_end": "2020-03-17T19:30:00",
    "link": ""
  },
  {
    "id": 54296,
    "lat": 31.8686612000001,
    "lon": 34.7460415,
    "label": "סופרפארם - יבנה",
    "text": "",
    "stayTimes": "20:30 - 21:00",
    "t_start": "2020-03-23T18:30:00",
    "t_end": "2020-03-23T19:00:00",
    "link": ""
  },
  {
    "id": 54297,
    "lat": 32.0858956000001,
    "lon": 34.8331645000001,
    "label": "מקור הבד פיש - בני ברק",
    "text": "",
    "stayTimes": "10:00 - 13:00",
    "t_start": "2020-03-16T08:00:00",
    "t_end": "2020-03-16T11:00:00",
    "link": ""
  },
  {
    "id": 54298,
    "lat": 32.0858956000001,
    "lon": 34.8331645000001,
    "label": "מקור הבד פיש - בני ברק",
    "text": "",
    "stayTimes": "18:00 - 21:00",
    "t_start": "2020-03-16T16:00:00",
    "t_end": "2020-03-16T19:00:00",
    "link": ""
  },
  {
    "id": 54299,
    "lat": 31.87989,
    "lon": 35.1240970000001,
    "label": "בה\"ד צג\"ב - בית חורון",
    "text": "",
    "stayTimes": "08:30 - 14:15",
    "t_start": "2020-03-16T06:30:00",
    "t_end": "2020-03-16T12:15:00",
    "link": ""
  },
  {
    "id": 54300,
    "lat": 32.456963301,
    "lon": 35.039044647,
    "label": "תחנת משטרה חריש - חריש",
    "text": "",
    "stayTimes": "15:15 - 15:30",
    "t_start": "2020-03-16T13:15:00",
    "t_end": "2020-03-16T13:30:00",
    "link": ""
  },
  {
    "id": 54301,
    "lat": 32.4569632990001,
    "lon": 35.039081126,
    "label": "תחנת המשטרה חריש - חריש",
    "text": "",
    "stayTimes": "08:00 - 08:15",
    "t_start": "2020-03-17T06:00:00",
    "t_end": "2020-03-17T06:15:00",
    "link": ""
  },
  {
    "id": 54302,
    "lat": 32.4576836000001,
    "lon": 35.0574311,
    "label": "משרד טכנולוגיות מג,ב חריש - חריש",
    "text": "",
    "stayTimes": "09:00 - 14:00",
    "t_start": "2020-03-17T07:00:00",
    "t_end": "2020-03-17T12:00:00",
    "link": ""
  },
  {
    "id": 54303,
    "lat": 32.0742335,
    "lon": 34.7819179000001,
    "label": "רולדין - תל אביב - יפו",
    "text": "",
    "stayTimes": "14:00 - 15:00",
    "t_start": "2020-03-17T12:00:00",
    "t_end": "2020-03-17T13:00:00",
    "link": ""
  },
  {
    "id": 54304,
    "lat": 32.1251902000001,
    "lon": 34.8016180000001,
    "label": "חנות אניס  שוסטר - תל אביב - יפו",
    "text": "",
    "stayTimes": "14:30 - 15:00",
    "t_start": "2020-03-17T12:30:00",
    "t_end": "2020-03-17T13:00:00",
    "link": ""
  },
  {
    "id": 54305,
    "lat": 32.1138368000001,
    "lon": 34.8246082000001,
    "label": "מכבי פארם - תל אביב - יפו",
    "text": "",
    "stayTimes": "14:00 - 15:00",
    "t_start": "2020-03-17T12:00:00",
    "t_end": "2020-03-17T13:00:00",
    "link": ""
  },
  {
    "id": 54306,
    "lat": 31.7511267260001,
    "lon": 35.2154339940001,
    "label": "סופר רמי לוי - בר גיורא",
    "text": "",
    "stayTimes": "18:45 - 19:15",
    "t_start": "2020-03-17T16:45:00",
    "t_end": "2020-03-17T17:15:00",
    "link": ""
  },
  {
    "id": 54307,
    "lat": 32.4520147000001,
    "lon": 34.8963615000001,
    "label": "מיון הלל יפה - חדרה",
    "text": "",
    "stayTimes": "22:00 - 00:45",
    "t_start": "2020-03-22T20:00:00",
    "t_end": "2020-03-22T22:45:00",
    "link": ""
  },
  {
    "id": 54308,
    "lat": 32.4382128230001,
    "lon": 34.927502492,
    "label": "בטרם - חדרה - חדרה",
    "text": "",
    "stayTimes": "21:30 - 22:00",
    "t_start": "2020-03-22T19:30:00",
    "t_end": "2020-03-22T20:00:00",
    "link": ""
  },
  {
    "id": 54309,
    "lat": 32.0854192,
    "lon": 34.8384949000001,
    "label": "קומפיוטיק - בני ברק",
    "text": "",
    "stayTimes": "19:45 - 20:15",
    "t_start": "2020-03-18T17:45:00",
    "t_end": "2020-03-18T18:15:00",
    "link": ""
  },
  {
    "id": 54310,
    "lat": 32.0902382100001,
    "lon": 34.836628795,
    "label": "כולל שערי שמעון נאות יוסף - בני ברק",
    "text": "",
    "stayTimes": "09:00 - 13:10",
    "t_start": "2020-03-18T07:00:00",
    "t_end": "2020-03-18T11:10:00",
    "link": ""
  },
  {
    "id": 54311,
    "lat": 32.084932,
    "lon": 34.835226,
    "label": "לוקווא - בני ברק",
    "text": "",
    "stayTimes": "07:15 - 08:30",
    "t_start": "2020-03-18T05:15:00",
    "t_end": "2020-03-18T06:30:00",
    "link": ""
  },
  {
    "id": 54312,
    "lat": 32.091213065,
    "lon": 34.8346251850001,
    "label": "לוקווא - בני ברק",
    "text": "",
    "stayTimes": "07:15 - 08:30",
    "t_start": "2020-03-19T05:15:00",
    "t_end": "2020-03-19T06:30:00",
    "link": ""
  },
  {
    "id": 54313,
    "lat": 32.0476757000001,
    "lon": 34.9633600000001,
    "label": "בית הכנסת רעות - אלעד",
    "text": "",
    "stayTimes": "10:00 - 11:00",
    "t_start": "2020-03-16T08:00:00",
    "t_end": "2020-03-16T09:00:00",
    "link": ""
  },
  {
    "id": 54314,
    "lat": 32.0468535000001,
    "lon": 34.9490425000001,
    "label": "בית הכנסת קול אליהו - אלעד",
    "text": "",
    "stayTimes": "11:00 - 15:20",
    "t_start": "2020-03-16T09:00:00",
    "t_end": "2020-03-16T13:20:00",
    "link": ""
  },
  {
    "id": 54315,
    "lat": 32.0476757000001,
    "lon": 34.9633600000001,
    "label": "בית הכנסת רעות - אלעד",
    "text": "",
    "stayTimes": "23:30 - 00:00",
    "t_start": "2020-03-16T21:30:00",
    "t_end": "2020-03-16T22:00:00",
    "link": ""
  },
  {
    "id": 54316,
    "lat": 32.0476757000001,
    "lon": 34.9633600000001,
    "label": "בית הכנסת רעות - אלעד",
    "text": "",
    "stayTimes": "10:00 - 11:00",
    "t_start": "2020-03-17T08:00:00",
    "t_end": "2020-03-17T09:00:00",
    "link": ""
  },
  {
    "id": 54317,
    "lat": 32.0468535000001,
    "lon": 34.9490425000001,
    "label": "בית הכנסת קול אליהו - אלעד",
    "text": "",
    "stayTimes": "11:00 - 15:20",
    "t_start": "2020-03-17T09:00:00",
    "t_end": "2020-03-17T13:20:00",
    "link": ""
  },
  {
    "id": 54318,
    "lat": 32.0476757000001,
    "lon": 34.9633600000001,
    "label": "בית הכנסת רעות - אלעד",
    "text": "",
    "stayTimes": "20:10 - 20:30",
    "t_start": "2020-03-17T18:10:00",
    "t_end": "2020-03-17T18:30:00",
    "link": ""
  },
  {
    "id": 54319,
    "lat": 32.0476757000001,
    "lon": 34.9633600000001,
    "label": "בית כנסת רעות - אלעד",
    "text": "",
    "stayTimes": "10:00 - 11:00",
    "t_start": "2020-03-18T08:00:00",
    "t_end": "2020-03-18T09:00:00",
    "link": ""
  },
  {
    "id": 54320,
    "lat": 32.0476757000001,
    "lon": 34.9633600000001,
    "label": "בית כנסת רעות - אלעד",
    "text": "",
    "stayTimes": "11:00 - 15:20",
    "t_start": "2020-03-18T09:00:00",
    "t_end": "2020-03-18T13:20:00",
    "link": ""
  },
  {
    "id": 54321,
    "lat": 32.0476757000001,
    "lon": 34.9633600000001,
    "label": "בית כנסת רעות - אלעד",
    "text": "",
    "stayTimes": "10:00 - 11:00",
    "t_start": "2020-03-19T08:00:00",
    "t_end": "2020-03-19T09:00:00",
    "link": ""
  },
  {
    "id": 54322,
    "lat": 32.0468535000001,
    "lon": 34.9490425000001,
    "label": "בית כנסת קול אליהו - אלעד",
    "text": "",
    "stayTimes": "11:00 - 15:30",
    "t_start": "2020-03-19T09:00:00",
    "t_end": "2020-03-19T13:30:00",
    "link": ""
  },
  {
    "id": 54323,
    "lat": 32.0476757000001,
    "lon": 34.9633600000001,
    "label": "בית הכנסת רעות - אלעד",
    "text": "",
    "stayTimes": "20:10 - 20:30",
    "t_start": "2020-03-19T18:10:00",
    "t_end": "2020-03-19T18:30:00",
    "link": ""
  },
  {
    "id": 54324,
    "lat": 32.9162198000001,
    "lon": 35.0943396000001,
    "label": "גן שעשועים - עכו",
    "text": "",
    "stayTimes": "18:00 - 19:30",
    "t_start": "2020-03-16T16:00:00",
    "t_end": "2020-03-16T17:30:00",
    "link": ""
  },
  {
    "id": 54325,
    "lat": 31.748092,
    "lon": 35.0012139,
    "label": "בית כנסת גור שיר ברמה - בית שמש",
    "text": "",
    "stayTimes": "16:15 - 16:35",
    "t_start": "2020-03-16T14:15:00",
    "t_end": "2020-03-16T14:35:00",
    "link": ""
  },
  {
    "id": 54326,
    "lat": 32.0465211810001,
    "lon": 35.3012538770001,
    "label": "סופר מנחם באזור תעשיה - שילה",
    "text": "",
    "stayTimes": "16:43 - 16:55",
    "t_start": "2020-03-19T14:43:00",
    "t_end": "2020-03-19T14:55:00",
    "link": ""
  },
  {
    "id": 54327,
    "lat": 31.790460352,
    "lon": 35.2087794890001,
    "label": "קופ\"ח כללית - ירושלים",
    "text": "",
    "stayTimes": "11:30 - 12:05",
    "t_start": "2020-03-19T09:30:00",
    "t_end": "2020-03-19T10:05:00",
    "link": ""
  },
  {
    "id": 54328,
    "lat": 31.7662134070001,
    "lon": 35.1940274660001,
    "label": "שופרסלדיל - ירושלים",
    "text": "",
    "stayTimes": "15:10 - 16:10",
    "t_start": "2020-03-18T13:10:00",
    "t_end": "2020-03-18T14:10:00",
    "link": ""
  },
  {
    "id": 54329,
    "lat": 32.0891567,
    "lon": 34.8668668,
    "label": "חדר ניתוח בלינסון - פתח תקווה",
    "text": "",
    "stayTimes": "10:00 - 01:00",
    "t_start": "2020-03-16T08:00:00",
    "t_end": "2020-03-16T23:00:00",
    "link": ""
  },
  {
    "id": 54330,
    "lat": 32.0891567,
    "lon": 34.8668668,
    "label": "חדר ניתול בלינסון - פתח תקווה",
    "text": "",
    "stayTimes": "10:00 - 17:30",
    "t_start": "2020-03-17T08:00:00",
    "t_end": "2020-03-17T15:30:00",
    "link": ""
  },
  {
    "id": 54331,
    "lat": 32.0891567,
    "lon": 34.8668668,
    "label": "חדר ניתוח בלינסון - פתח תקווה",
    "text": "",
    "stayTimes": "10:00 - 17:00",
    "t_start": "2020-03-18T08:00:00",
    "t_end": "2020-03-18T15:00:00",
    "link": ""
  },
  {
    "id": 54332,
    "lat": 32.0937292,
    "lon": 34.8895771000001,
    "label": "מגא בעיר - פתח תקווה",
    "text": "",
    "stayTimes": "16:00 - 16:30",
    "t_start": "2020-03-20T14:00:00",
    "t_end": "2020-03-20T14:30:00",
    "link": ""
  },
  {
    "id": 54333,
    "lat": 32.673805691,
    "lon": 35.2328726040001,
    "label": "בית ספר פנינת אור - מגדל העמק",
    "text": "",
    "stayTimes": "11:30 - 14:00",
    "t_start": "2020-03-16T09:30:00",
    "t_end": "2020-03-16T12:00:00",
    "link": ""
  },
  {
    "id": 54334,
    "lat": 32.6782665000001,
    "lon": 35.2435653000001,
    "label": "חנות בגדי ילדים לידר - מגדל העמק",
    "text": "",
    "stayTimes": "18:45 - 19:00",
    "t_start": "2020-03-17T16:45:00",
    "t_end": "2020-03-17T17:00:00",
    "link": ""
  },
  {
    "id": 54335,
    "lat": 32.6782684,
    "lon": 35.2433929000001,
    "label": "שופרסל - פרץ סנטר - מגדל העמק",
    "text": "",
    "stayTimes": "19:00 - 19:10",
    "t_start": "2020-03-17T17:00:00",
    "t_end": "2020-03-17T17:10:00",
    "link": ""
  },
  {
    "id": 54336,
    "lat": 32.6778819830001,
    "lon": 35.2433563650001,
    "label": "בית קליה החמניה פרץ סנטר - מגדל העמק",
    "text": "",
    "stayTimes": "19:00 - 19:30",
    "t_start": "2020-03-17T17:00:00",
    "t_end": "2020-03-17T17:30:00",
    "link": ""
  },
  {
    "id": 54337,
    "lat": 32.087752874,
    "lon": 34.8323685350001,
    "label": "ביה\"כ צורטקוב - בני ברק",
    "text": "",
    "stayTimes": "18:30 - 19:00",
    "t_start": "2020-03-21T16:30:00",
    "t_end": "2020-03-21T17:00:00",
    "link": ""
  },
  {
    "id": 54338,
    "lat": 32.0908013000001,
    "lon": 34.8389312,
    "label": "סופרמרקט יש חסד - בני ברק",
    "text": "",
    "stayTimes": "20:00 - 21:30",
    "t_start": "2020-03-21T18:00:00",
    "t_end": "2020-03-21T19:30:00",
    "link": ""
  },
  {
    "id": 54339,
    "lat": 32.08546833,
    "lon": 34.8335633740001,
    "label": "יוצאי ישיבת חברון - בני ברק",
    "text": "",
    "stayTimes": "17:30 - 17:00",
    "t_start": "2020-03-20T15:30:00",
    "t_end": "2020-03-21T15:00:00",
    "link": ""
  },
  {
    "id": 54340,
    "lat": 32.0689770000001,
    "lon": 34.915514,
    "label": "כולל יוצאי חברון הדר גנים - פתח תקווה",
    "text": "",
    "stayTimes": "09:00 - 12:30",
    "t_start": "2020-03-16T07:00:00",
    "t_end": "2020-03-16T10:30:00",
    "link": ""
  },
  {
    "id": 54341,
    "lat": 32.0689770000001,
    "lon": 34.915514,
    "label": "כולל יוצאי חברון הדר גנים - פתח תקווה",
    "text": "",
    "stayTimes": "09:00 - 12:30",
    "t_start": "2020-03-17T07:00:00",
    "t_end": "2020-03-17T10:30:00",
    "link": ""
  },
  {
    "id": 54342,
    "lat": 32.1136338000001,
    "lon": 34.8414937000001,
    "label": "טיב טעם - רמת החייל - תל אביב - יפו",
    "text": "",
    "stayTimes": "11:30 - 12:00",
    "t_start": "2020-03-17T09:30:00",
    "t_end": "2020-03-17T10:00:00",
    "link": ""
  },
  {
    "id": 54343,
    "lat": 32.7067642000001,
    "lon": 35.1744537000001,
    "label": "חנות חומרי בניין- אלי לבן - רמת ישי",
    "text": "",
    "stayTimes": "14:00 - 14:30",
    "t_start": "2020-03-17T12:00:00",
    "t_end": "2020-03-17T12:30:00",
    "link": ""
  },
  {
    "id": 54344,
    "lat": 32.9328932820001,
    "lon": 35.0913713530001,
    "label": "קופת חולים כללית, עמידר עכו - עכו",
    "text": "",
    "stayTimes": "11:30 - 12:30",
    "t_start": "2020-03-20T09:30:00",
    "t_end": "2020-03-20T10:30:00",
    "link": ""
  },
  {
    "id": 54345,
    "lat": 32.935867466,
    "lon": 35.0890832640001,
    "label": "בית כנסת- אורייתא, סמוך לרחוב נפתלי - עכו",
    "text": "",
    "stayTimes": "10:30 - 11:30",
    "t_start": "2020-03-20T08:30:00",
    "t_end": "2020-03-20T09:30:00",
    "link": ""
  },
  {
    "id": 54346,
    "lat": 32.9250475000001,
    "lon": 35.0828051,
    "label": "שופרסל דיל- עכו - עכו",
    "text": "",
    "stayTimes": "19:30 - 20:30",
    "t_start": "2020-03-19T17:30:00",
    "t_end": "2020-03-19T18:30:00",
    "link": ""
  },
  {
    "id": 54347,
    "lat": 32.8057798290001,
    "lon": 35.1043605840001,
    "label": "התבלינים של הדס - קרית אתא",
    "text": "",
    "stayTimes": "15:25 - 15:45",
    "t_start": "2020-03-18T13:25:00",
    "t_end": "2020-03-18T13:45:00",
    "link": ""
  },
  {
    "id": 54348,
    "lat": 32.4554896000001,
    "lon": 34.9051268000001,
    "label": "סופר \"רמי לוי\" - חדרה",
    "text": "",
    "stayTimes": "21:00 - 21:30",
    "t_start": "2020-03-16T19:00:00",
    "t_end": "2020-03-16T19:30:00",
    "link": ""
  },
  {
    "id": 54349,
    "lat": 31.2286537000001,
    "lon": 34.809427,
    "label": "משתלת כדורי - באר שבע",
    "text": "",
    "stayTimes": "11:00 - 11:30",
    "t_start": "2020-03-18T09:00:00",
    "t_end": "2020-03-18T09:30:00",
    "link": ""
  },
  {
    "id": 54350,
    "lat": 31.2450470000001,
    "lon": 34.7994660000001,
    "label": "קופת חולים מכבי סניף קריית הממשלה - באר שבע",
    "text": "",
    "stayTimes": "11:30 - 12:00",
    "t_start": "2020-03-18T09:30:00",
    "t_end": "2020-03-18T10:00:00",
    "link": ""
  },
  {
    "id": 54351,
    "lat": 31.2133285,
    "lon": 34.8110105000001,
    "label": "ספור אושר עד - באר שבע",
    "text": "",
    "stayTimes": "13:00 - 15:30",
    "t_start": "2020-03-18T11:00:00",
    "t_end": "2020-03-18T13:30:00",
    "link": ""
  },
  {
    "id": 54352,
    "lat": 31.2257532,
    "lon": 34.8081039,
    "label": "מחסן עצים ארזים - באר שבע",
    "text": "",
    "stayTimes": "12:30 - 13:00",
    "t_start": "2020-03-18T10:30:00",
    "t_end": "2020-03-18T11:00:00",
    "link": ""
  },
  {
    "id": 54353,
    "lat": 32.7931494000001,
    "lon": 35.5336308,
    "label": "מולטי סרוויס - טבריה",
    "text": "",
    "stayTimes": "20:00 - 20:30",
    "t_start": "2020-03-17T18:00:00",
    "t_end": "2020-03-17T18:30:00",
    "link": ""
  },
  {
    "id": 54354,
    "lat": 32.7888394,
    "lon": 35.5350300000001,
    "label": "עקנין בע\"מ צרכי בנין - טבריה",
    "text": "",
    "stayTimes": "09:30 - 09:45",
    "t_start": "2020-03-18T07:30:00",
    "t_end": "2020-03-18T07:45:00",
    "link": ""
  },
  {
    "id": 54355,
    "lat": 32.7855700000001,
    "lon": 35.5393350000001,
    "label": "תבליני כהן - טבריה",
    "text": "",
    "stayTimes": "09:45 - 10:15",
    "t_start": "2020-03-18T07:45:00",
    "t_end": "2020-03-18T08:15:00",
    "link": ""
  },
  {
    "id": 54356,
    "lat": 32.7896506000001,
    "lon": 35.5320965000001,
    "label": "מחסני השוק - טבריה",
    "text": "",
    "stayTimes": "18:30 - 20:00",
    "t_start": "2020-03-17T16:30:00",
    "t_end": "2020-03-17T18:00:00",
    "link": ""
  },
  {
    "id": 54357,
    "lat": 31.9476142,
    "lon": 34.8914086,
    "label": "מוקד טרם - לוד",
    "text": "",
    "stayTimes": "13:30 - 15:00",
    "t_start": "2020-03-20T11:30:00",
    "t_end": "2020-03-20T13:00:00",
    "link": ""
  },
  {
    "id": 54358,
    "lat": 32.0828803160001,
    "lon": 34.834855959,
    "label": "מרפאת מכבי - בני ברק",
    "text": "",
    "stayTimes": "16:00 - 16:10",
    "t_start": "2020-03-16T14:00:00",
    "t_end": "2020-03-16T14:10:00",
    "link": ""
  },
  {
    "id": 54359,
    "lat": 32.0904695520001,
    "lon": 34.8440583230001,
    "label": "כולל חניכי חברון - בני ברק",
    "text": "",
    "stayTimes": "08:00 - 10:30",
    "t_start": "2020-03-21T06:00:00",
    "t_end": "2020-03-21T08:30:00",
    "link": ""
  },
  {
    "id": 54360,
    "lat": 32.091127633,
    "lon": 34.844071195,
    "label": "כולל חניכי חברון - בני ברק",
    "text": "",
    "stayTimes": "20:15 - 21:15",
    "t_start": "2020-03-21T18:15:00",
    "t_end": "2020-03-21T19:15:00",
    "link": ""
  },
  {
    "id": 54361,
    "lat": 32.0812255390001,
    "lon": 34.840566849,
    "label": "בית כנסת קדושי קראקא - בני ברק",
    "text": "",
    "stayTimes": "08:00 - 11:00",
    "t_start": "2020-03-21T06:00:00",
    "t_end": "2020-03-21T09:00:00",
    "link": ""
  },
  {
    "id": 54362,
    "lat": 32.0852217,
    "lon": 34.8304099000001,
    "label": "בית כנסת חסידי בלז - בני ברק",
    "text": "",
    "stayTimes": "09:00 - 22:00",
    "t_start": "2020-03-20T07:00:00",
    "t_end": "2020-03-20T20:00:00",
    "link": ""
  },
  {
    "id": 54363,
    "lat": 31.7649503000001,
    "lon": 35.1494106000001,
    "label": "הדסה עין כרם - ירושלים",
    "text": "",
    "stayTimes": "11:00 - 16:30",
    "t_start": "2020-03-19T09:00:00",
    "t_end": "2020-03-19T14:30:00",
    "link": ""
  },
  {
    "id": 54364,
    "lat": 32.0804613,
    "lon": 34.7894016000001,
    "label": "מיון כללי איכילוב - תל אביב - יפו",
    "text": "",
    "stayTimes": "14:00 - 23:00",
    "t_start": "2020-03-16T12:00:00",
    "t_end": "2020-03-16T21:00:00",
    "link": ""
  },
  {
    "id": 54365,
    "lat": 32.2577597470001,
    "lon": 34.918585535,
    "label": "סופר ויקטורי - תל מונד",
    "text": "",
    "stayTimes": "12:45 - 15:00",
    "t_start": "2020-03-16T10:45:00",
    "t_end": "2020-03-16T13:00:00",
    "link": ""
  },
  {
    "id": 54366,
    "lat": 31.318298,
    "lon": 34.6206300000001,
    "label": "שירותי בריאות כללית אופקים ב - אופקים",
    "text": "",
    "stayTimes": "09:00 - 09:30",
    "t_start": "2020-03-17T07:00:00",
    "t_end": "2020-03-17T07:30:00",
    "link": ""
  },
  {
    "id": 54367,
    "lat": 31.2252839550001,
    "lon": 34.820303419,
    "label": "קינג סטור חוצות להב - באר שבע",
    "text": "",
    "stayTimes": "11:00 - 11:30",
    "t_start": "2020-03-17T09:00:00",
    "t_end": "2020-03-17T09:30:00",
    "link": ""
  },
  {
    "id": 54368,
    "lat": 32.1080692,
    "lon": 34.8386622,
    "label": "אסותא רמת החייל - תל אביב - יפו",
    "text": "",
    "stayTimes": "10:30 - 11:00",
    "t_start": "2020-03-16T08:30:00",
    "t_end": "2020-03-16T09:00:00",
    "link": ""
  },
  {
    "id": 54369,
    "lat": 32.0100150000001,
    "lon": 34.8097050000001,
    "label": "חצי חינם הגדול - חולון",
    "text": "",
    "stayTimes": "13:15 - 14:30",
    "t_start": "2020-03-17T11:15:00",
    "t_end": "2020-03-17T12:30:00",
    "link": ""
  },
  {
    "id": 54370,
    "lat": 32.008303074,
    "lon": 34.7912482130001,
    "label": "שופרסל - חולון",
    "text": "",
    "stayTimes": "10:30 - 10:45",
    "t_start": "2020-03-19T08:30:00",
    "t_end": "2020-03-19T08:45:00",
    "link": ""
  },
  {
    "id": 54371,
    "lat": 32.1778717,
    "lon": 34.9292990000001,
    "label": "בי פרי - אבזור רכבי נכים - כפר סבא",
    "text": "",
    "stayTimes": "12:30 - 15:30",
    "t_start": "2020-03-18T10:30:00",
    "t_end": "2020-03-18T13:30:00",
    "link": ""
  },
  {
    "id": 54372,
    "lat": 32.0924884,
    "lon": 34.8379598000001,
    "label": "מרפאת טר\"מ בני ברק - בני ברק",
    "text": "",
    "stayTimes": "13:00 - 16:00",
    "t_start": "2020-03-20T11:00:00",
    "t_end": "2020-03-20T14:00:00",
    "link": ""
  },
  {
    "id": 54373,
    "lat": 31.682104709,
    "lon": 35.173789775,
    "label": "הבית כנסת החריש באפרת - אפרת",
    "text": "",
    "stayTimes": "18:30 - 19:00",
    "t_start": "2020-03-17T16:30:00",
    "t_end": "2020-03-17T17:00:00",
    "link": ""
  },
  {
    "id": 54374,
    "lat": 32.0128584500001,
    "lon": 34.7523648690001,
    "label": "יוחננוף - בת ים",
    "text": "",
    "stayTimes": "16:30 - 17:10",
    "t_start": "2020-03-19T14:30:00",
    "t_end": "2020-03-19T15:10:00",
    "link": ""
  },
  {
    "id": 54375,
    "lat": 31.3739640210001,
    "lon": 35.0061627330001,
    "label": "סופר מחסני השוק - שמעה",
    "text": "",
    "stayTimes": "15:00 - 16:00",
    "t_start": "2020-03-18T13:00:00",
    "t_end": "2020-03-18T14:00:00",
    "link": ""
  },
  {
    "id": 54376,
    "lat": 31.7534878000001,
    "lon": 35.2130043000001,
    "label": "סופר אושר עד - ירושלים",
    "text": "",
    "stayTimes": "08:00 - 08:00",
    "t_start": "2020-03-17T06:00:00",
    "t_end": "2020-03-17T06:00:00",
    "link": ""
  },
  {
    "id": 54377,
    "lat": 31.8377917,
    "lon": 35.2346190000001,
    "label": "קופ\"ח מאוחדת - ירושלים",
    "text": "",
    "stayTimes": "09:00 - 10:00",
    "t_start": "2020-03-16T07:00:00",
    "t_end": "2020-03-16T08:00:00",
    "link": ""
  },
  {
    "id": 54378,
    "lat": 31.8377917,
    "lon": 35.2346190000001,
    "label": "קופ\"ח מאוחדת - ירושלים",
    "text": "",
    "stayTimes": "09:00 - 11:00",
    "t_start": "2020-03-16T07:00:00",
    "t_end": "2020-03-16T09:00:00",
    "link": ""
  },
  {
    "id": 54379,
    "lat": 32.569352,
    "lon": 34.9334500000001,
    "label": "סופרמרקט רמי לוי - זכרון יעקב",
    "text": "",
    "stayTimes": "11:30 - 13:30",
    "t_start": "2020-03-18T09:30:00",
    "t_end": "2020-03-18T11:30:00",
    "link": ""
  },
  {
    "id": 54380,
    "lat": 32.56035461,
    "lon": 34.966226964,
    "label": "בית כנסת עקידת יצחק - זכרון יעקב",
    "text": "",
    "stayTimes": "10:00 - 12:00",
    "t_start": "2020-03-21T08:00:00",
    "t_end": "2020-03-21T10:00:00",
    "link": ""
  },
  {
    "id": 54381,
    "lat": 32.0833752,
    "lon": 34.8296135000001,
    "label": "בית כנסת תפארת ציון - בני ברק",
    "text": "",
    "stayTimes": "20:30 - 21:00",
    "t_start": "2020-03-21T18:30:00",
    "t_end": "2020-03-21T19:00:00",
    "link": ""
  },
  {
    "id": 54382,
    "lat": 32.085051891,
    "lon": 34.8778206050001,
    "label": "בית כנסת \"אבי עזרי\" - בני ברק",
    "text": "",
    "stayTimes": "20:20 - 21:00",
    "t_start": "2020-03-20T18:20:00",
    "t_end": "2020-03-20T19:00:00",
    "link": ""
  },
  {
    "id": 54383,
    "lat": 32.0997094000001,
    "lon": 34.8287219000001,
    "label": "מחסני חשמל - בני ברק",
    "text": "",
    "stayTimes": "15:15 - 16:00",
    "t_start": "2020-03-25T13:15:00",
    "t_end": "2020-03-25T14:00:00",
    "link": ""
  },
  {
    "id": 54384,
    "lat": 32.0874743210001,
    "lon": 34.8330099030001,
    "label": "תלמוד תורה באר יהושע - בני ברק",
    "text": "",
    "stayTimes": "12:20 - 15:00",
    "t_start": "2020-03-19T10:20:00",
    "t_end": "2020-03-19T13:00:00",
    "link": ""
  },
  {
    "id": 54385,
    "lat": 32.0878460000001,
    "lon": 34.8334361,
    "label": "תלמוד תורה באר יהושע - בני ברק",
    "text": "",
    "stayTimes": "08:00 - 13:00",
    "t_start": "2020-03-16T06:00:00",
    "t_end": "2020-03-16T11:00:00",
    "link": ""
  },
  {
    "id": 54386,
    "lat": 32.08668513,
    "lon": 34.833648892,
    "label": "בית כנסת טמשוער - בני ברק",
    "text": "",
    "stayTimes": "07:00 - 07:45",
    "t_start": "2020-03-16T05:00:00",
    "t_end": "2020-03-16T05:45:00",
    "link": ""
  },
  {
    "id": 54387,
    "lat": 31.7914709,
    "lon": 34.6604398000001,
    "label": "בית הכנסת קהל חסידים - אשדוד",
    "text": "",
    "stayTimes": "10:30 - 11:30",
    "t_start": "2020-03-18T08:30:00",
    "t_end": "2020-03-18T09:30:00",
    "link": ""
  },
  {
    "id": 54388,
    "lat": 31.7914709,
    "lon": 34.6604398000001,
    "label": "בית כנסת קהל חסידים - אשדוד",
    "text": "",
    "stayTimes": "17:00 - 18:00",
    "t_start": "2020-03-16T15:00:00",
    "t_end": "2020-03-16T16:00:00",
    "link": ""
  },
  {
    "id": 54389,
    "lat": 31.7914709,
    "lon": 34.6604398000001,
    "label": "בית כנסת קהל חסידים - אשדוד",
    "text": "",
    "stayTimes": "22:00 - 23:00",
    "t_start": "2020-03-16T20:00:00",
    "t_end": "2020-03-16T21:00:00",
    "link": ""
  },
  {
    "id": 54390,
    "lat": 32.0773965000001,
    "lon": 34.7966304,
    "label": "סופרמרקט \" פלגמרקט - תל אביב - יפו",
    "text": "",
    "stayTimes": "11:00 - 11:30",
    "t_start": "2020-03-20T09:00:00",
    "t_end": "2020-03-20T09:30:00",
    "link": ""
  },
  {
    "id": 54391,
    "lat": 32.0469846300001,
    "lon": 34.7587096350001,
    "label": "אטליז \"אבוחילווא\" - תל אביב - יפו",
    "text": "",
    "stayTimes": "11:00 - 12:00",
    "t_start": "2020-03-19T09:00:00",
    "t_end": "2020-03-19T10:00:00",
    "link": ""
  },
  {
    "id": 54392,
    "lat": 32.1174727000001,
    "lon": 34.7977255000001,
    "label": "סופר סל \"טאגור\" - תל אביב - יפו",
    "text": "",
    "stayTimes": "12:30 - 13:00",
    "t_start": "2020-03-19T10:30:00",
    "t_end": "2020-03-19T11:00:00",
    "link": ""
  },
  {
    "id": 54393,
    "lat": 32.0141083090001,
    "lon": 34.7449400100001,
    "label": "מרפאת כללית -השקמה בת ים - בת ים",
    "text": "",
    "stayTimes": "08:00 - 10:00",
    "t_start": "2020-03-17T06:00:00",
    "t_end": "2020-03-17T08:00:00",
    "link": ""
  },
  {
    "id": 54394,
    "lat": 32.0141083090001,
    "lon": 34.7449400100001,
    "label": "מרפאת כללית - השקמה בת ים - בת ים",
    "text": "",
    "stayTimes": "08:00 - 10:00",
    "t_start": "2020-03-19T06:00:00",
    "t_end": "2020-03-19T08:00:00",
    "link": ""
  },
  {
    "id": 54395,
    "lat": 32.0141083090001,
    "lon": 34.7449400100001,
    "label": "מרפאת כללית - השקמה בת ים - בת ים",
    "text": "",
    "stayTimes": "08:00 - 10:00",
    "t_start": "2020-03-22T06:00:00",
    "t_end": "2020-03-22T08:00:00",
    "link": ""
  },
  {
    "id": 54396,
    "lat": 32.0141083090001,
    "lon": 34.7449400100001,
    "label": "מרפאת כללית - השקמה בת ים - בת ים",
    "text": "",
    "stayTimes": "08:00 - 10:00",
    "t_start": "2020-03-25T06:00:00",
    "t_end": "2020-03-25T08:00:00",
    "link": ""
  },
  {
    "id": 54397,
    "lat": 32.008471,
    "lon": 34.8001090000001,
    "label": "ליברה חברה לביטוח - חולון",
    "text": "",
    "stayTimes": "10:00 - 15:00",
    "t_start": "2020-03-20T08:00:00",
    "t_end": "2020-03-20T13:00:00",
    "link": ""
  },
  {
    "id": 54398,
    "lat": 32.7891667000001,
    "lon": 35.535,
    "label": "שופרסל דיל טבריה - טבריה",
    "text": "",
    "stayTimes": "08:00 - 16:00",
    "t_start": "2020-03-18T06:00:00",
    "t_end": "2020-03-18T14:00:00",
    "link": ""
  },
  {
    "id": 54399,
    "lat": 32.7891667000001,
    "lon": 35.535,
    "label": "שופרסל דיל טבריה - טבריה",
    "text": "",
    "stayTimes": "15:00 - 22:00",
    "t_start": "2020-03-16T13:00:00",
    "t_end": "2020-03-16T20:00:00",
    "link": ""
  },
  {
    "id": 54400,
    "lat": 32.7891667000001,
    "lon": 35.535,
    "label": "שופרסל דיל טבריה - טבריה",
    "text": "",
    "stayTimes": "09:00 - 15:00",
    "t_start": "2020-03-17T07:00:00",
    "t_end": "2020-03-17T13:00:00",
    "link": ""
  },
  {
    "id": 54401,
    "lat": 32.7891667000001,
    "lon": 35.535,
    "label": "שופרסל דיל - טבריה",
    "text": "",
    "stayTimes": "08:00 - 16:00",
    "t_start": "2020-03-19T06:00:00",
    "t_end": "2020-03-19T14:00:00",
    "link": ""
  },
  {
    "id": 54402,
    "lat": 31.6455817,
    "lon": 34.5943259000001,
    "label": "אושר עד בת הדר - אשקלון",
    "text": "",
    "stayTimes": "12:00 - 14:00",
    "t_start": "2020-03-16T10:00:00",
    "t_end": "2020-03-16T12:00:00",
    "link": ""
  },
  {
    "id": 54403,
    "lat": 31.6663397,
    "lon": 34.5899051000001,
    "label": "אטליז קלוד בשוק - אשקלון",
    "text": "",
    "stayTimes": "12:00 - 12:30",
    "t_start": "2020-03-17T10:00:00",
    "t_end": "2020-03-17T10:30:00",
    "link": ""
  },
  {
    "id": 54404,
    "lat": 31.788157633,
    "lon": 35.202588033,
    "label": "רכבת ישראל - ירושלים",
    "text": "",
    "stayTimes": "08:00 - 09:00",
    "t_start": "2020-03-16T06:00:00",
    "t_end": "2020-03-16T07:00:00",
    "link": ""
  },
  {
    "id": 54405,
    "lat": 31.7916038000001,
    "lon": 35.1996482000001,
    "label": "מד\"א - ירושלים",
    "text": "",
    "stayTimes": "09:50 - 11:50",
    "t_start": "2020-03-23T07:50:00",
    "t_end": "2020-03-23T09:50:00",
    "link": ""
  },
  {
    "id": 54406,
    "lat": 32.0152498,
    "lon": 34.7567722000001,
    "label": "סופרדוש בת ים - בת ים",
    "text": "",
    "stayTimes": "16:30 - 17:30",
    "t_start": "2020-03-23T14:30:00",
    "t_end": "2020-03-23T15:30:00",
    "link": ""
  },
  {
    "id": 54407,
    "lat": 32.328932541,
    "lon": 34.862398958,
    "label": "קופת חולים כללית אומחלד -רנטגן רח עוזיאל - נתניה",
    "text": "",
    "stayTimes": "16:00 - 16:30",
    "t_start": "2020-03-16T14:00:00",
    "t_end": "2020-03-16T14:30:00",
    "link": ""
  },
  {
    "id": 54408,
    "lat": 32.0856620000001,
    "lon": 34.8102533000001,
    "label": "שווצריה הקטנה - רמת גן",
    "text": "",
    "stayTimes": "07:00 - 07:30",
    "t_start": "2020-03-16T05:00:00",
    "t_end": "2020-03-16T05:30:00",
    "link": ""
  },
  {
    "id": 54409,
    "lat": 32.0839976,
    "lon": 34.8145385,
    "label": "סופרפארם - רמת גן",
    "text": "",
    "stayTimes": "07:00 - 08:00",
    "t_start": "2020-03-16T05:00:00",
    "t_end": "2020-03-16T06:00:00",
    "link": ""
  },
  {
    "id": 54410,
    "lat": 32.6729819,
    "lon": 35.2336535000001,
    "label": "בית כנסת מצפה העמק מאור החיים - מגדל העמק",
    "text": "",
    "stayTimes": "10:00 - 11:00",
    "t_start": "2020-03-16T08:00:00",
    "t_end": "2020-03-16T09:00:00",
    "link": ""
  },
  {
    "id": 54411,
    "lat": 32.6753573410001,
    "lon": 35.2327248940001,
    "label": "ישיבת צוות במתיבתא מגדל אור - מגדל העמק",
    "text": "",
    "stayTimes": "13:30 - 15:00",
    "t_start": "2020-03-16T11:30:00",
    "t_end": "2020-03-16T13:00:00",
    "link": ""
  },
  {
    "id": 54412,
    "lat": 31.9753049080001,
    "lon": 34.779809496,
    "label": "בית מרקחת \"כרמית פארם\" - ראשון לציון",
    "text": "",
    "stayTimes": "12:00 - 12:15",
    "t_start": "2020-03-16T10:00:00",
    "t_end": "2020-03-16T10:15:00",
    "link": ""
  },
  {
    "id": 54413,
    "lat": 31.8028369510001,
    "lon": 34.7618702780001,
    "label": "אושר עד - כנות",
    "text": "",
    "stayTimes": "18:00 - 19:00",
    "t_start": "2020-03-16T16:00:00",
    "t_end": "2020-03-16T17:00:00",
    "link": ""
  },
  {
    "id": 54414,
    "lat": 32.1755408000001,
    "lon": 34.9078536000001,
    "label": "בנק לאומי - כפר סבא",
    "text": "",
    "stayTimes": "10:30 - 11:00",
    "t_start": "2020-03-16T08:30:00",
    "t_end": "2020-03-16T09:00:00",
    "link": ""
  },
  {
    "id": 54415,
    "lat": 32.175640242,
    "lon": 34.905792294,
    "label": "הקצביה של טוביה - כפר סבא",
    "text": "",
    "stayTimes": "11:00 - 11:30",
    "t_start": "2020-03-16T09:00:00",
    "t_end": "2020-03-16T09:30:00",
    "link": ""
  },
  {
    "id": 54416,
    "lat": 32.050830569,
    "lon": 34.9505022710001,
    "label": "בנק איגוד - אלעד",
    "text": "",
    "stayTimes": "08:00 - 18:00",
    "t_start": "2020-03-16T06:00:00",
    "t_end": "2020-03-16T16:00:00",
    "link": ""
  },
  {
    "id": 54417,
    "lat": 32.9677010780001,
    "lon": 35.5484723060001,
    "label": "חנות גרבי מחשבים, קניון ראש פינה - ראש פינה",
    "text": "",
    "stayTimes": "17:00 - 17:20",
    "t_start": "2020-03-16T15:00:00",
    "t_end": "2020-03-16T15:20:00",
    "link": ""
  },
  {
    "id": 54418,
    "lat": 32.9676879,
    "lon": 35.5485375000001,
    "label": "חנות גרבי מחשבים, קניון ראש פינה - ראש פינה",
    "text": "",
    "stayTimes": "17:00 - 17:20",
    "t_start": "2020-03-16T15:00:00",
    "t_end": "2020-03-16T15:20:00",
    "link": ""
  },
  {
    "id": 54419,
    "lat": 32.820994854,
    "lon": 35.0705740870001,
    "label": "מספרת רועי לביא, אח\"י אילת, קריית חיים - חיפה",
    "text": "",
    "stayTimes": "14:00 - 15:00",
    "t_start": "2020-03-16T12:00:00",
    "t_end": "2020-03-16T13:00:00",
    "link": ""
  },
  {
    "id": 54420,
    "lat": 32.9676318,
    "lon": 35.4969282000001,
    "label": "חנות כוכב התקשורת, - צפת",
    "text": "",
    "stayTimes": "18:00 - 18:20",
    "t_start": "2020-03-16T16:00:00",
    "t_end": "2020-03-16T16:20:00",
    "link": ""
  },
  {
    "id": 54421,
    "lat": 32.9660627000001,
    "lon": 35.4957446000001,
    "label": "חנות גרבי מחשבים, העליה 8ב, צפת - צפת",
    "text": "",
    "stayTimes": "17:40 - 18:00",
    "t_start": "2020-03-16T15:40:00",
    "t_end": "2020-03-16T16:00:00",
    "link": ""
  },
  {
    "id": 54422,
    "lat": 31.6651902300001,
    "lon": 35.1575928390001,
    "label": "בי\"ס אורות עציון - אפרת",
    "text": "",
    "stayTimes": "08:00 - 08:00",
    "t_start": "2020-03-16T06:00:00",
    "t_end": "2020-03-16T06:00:00",
    "link": ""
  },
  {
    "id": 54423,
    "lat": 32.096206554,
    "lon": 34.8388366770001,
    "label": "קופח כללית - בני ברק",
    "text": "",
    "stayTimes": "11:00 - 11:30",
    "t_start": "2020-03-17T09:00:00",
    "t_end": "2020-03-17T09:30:00",
    "link": ""
  },
  {
    "id": 54424,
    "lat": 31.6994587130001,
    "lon": 34.71133861,
    "label": "ביה\"כנ \"מכינת עוז שלמה\" - מרכז שפירא",
    "text": "",
    "stayTimes": "18:30 - 19:00",
    "t_start": "2020-03-17T16:30:00",
    "t_end": "2020-03-17T17:00:00",
    "link": ""
  },
  {
    "id": 54425,
    "lat": 31.2454405350001,
    "lon": 34.8131357030001,
    "label": "אווזי הזהב שירות הזמנה תשלום ו TAKE AWAY - באר שבע",
    "text": "",
    "stayTimes": "18:00 - 18:30",
    "t_start": "2020-03-16T16:00:00",
    "t_end": "2020-03-16T16:30:00",
    "link": ""
  },
  {
    "id": 54426,
    "lat": 31.6570530000001,
    "lon": 34.5581874000001,
    "label": "בי\"ס אולפנת צביה - אשקלון",
    "text": "",
    "stayTimes": "12:30 - 13:30",
    "t_start": "2020-03-19T10:30:00",
    "t_end": "2020-03-19T11:30:00",
    "link": ""
  },
  {
    "id": 54427,
    "lat": 32.0552349000001,
    "lon": 34.9606875000001,
    "label": "שפע שוק מהדרין - אלעד",
    "text": "",
    "stayTimes": "14:00 - 15:00",
    "t_start": "2020-03-19T12:00:00",
    "t_end": "2020-03-19T13:00:00",
    "link": ""
  },
  {
    "id": 54428,
    "lat": 32.0476757000001,
    "lon": 34.9633600000001,
    "label": "בית הכנסת רעות - אלעד",
    "text": "",
    "stayTimes": "08:00 - 08:45",
    "t_start": "2020-03-17T06:00:00",
    "t_end": "2020-03-17T06:45:00",
    "link": ""
  },
  {
    "id": 54429,
    "lat": 32.086314305,
    "lon": 34.886655207,
    "label": "רשות המיסים - פתח תקווה",
    "text": "",
    "stayTimes": "09:00 - 15:00",
    "t_start": "2020-03-17T07:00:00",
    "t_end": "2020-03-17T13:00:00",
    "link": ""
  },
  {
    "id": 54430,
    "lat": 32.086358977,
    "lon": 34.8866596120001,
    "label": "רשות המיסים קומה 11 - פתח תקווה",
    "text": "",
    "stayTimes": "09:00 - 13:00",
    "t_start": "2020-03-18T07:00:00",
    "t_end": "2020-03-18T11:00:00",
    "link": ""
  },
  {
    "id": 54431,
    "lat": 31.7650299690001,
    "lon": 35.1486071190001,
    "label": "משמרת טיפול נמרץ הדסה - ירושלים",
    "text": "",
    "stayTimes": "08:00 - 16:00",
    "t_start": "2020-03-23T06:00:00",
    "t_end": "2020-03-23T14:00:00",
    "link": ""
  },
  {
    "id": 54432,
    "lat": 31.7914709,
    "lon": 34.6604398000001,
    "label": "בית הכנסת קהל חסידים - אשדוד",
    "text": "",
    "stayTimes": "17:00 - 18:00",
    "t_start": "2020-03-21T15:00:00",
    "t_end": "2020-03-21T16:00:00",
    "link": ""
  },
  {
    "id": 54433,
    "lat": 31.7914709,
    "lon": 34.6604398000001,
    "label": "בית כנסת קהל חסידים - אשדוד",
    "text": "",
    "stayTimes": "19:00 - 19:30",
    "t_start": "2020-03-21T17:00:00",
    "t_end": "2020-03-21T17:30:00",
    "link": ""
  },
  {
    "id": 54434,
    "lat": 31.7914709,
    "lon": 34.6604398000001,
    "label": "בית כנסת קהל חסידים - אשדוד",
    "text": "",
    "stayTimes": "17:00 - 18:00",
    "t_start": "2020-03-19T15:00:00",
    "t_end": "2020-03-19T16:00:00",
    "link": ""
  },
  {
    "id": 54435,
    "lat": 31.7914709,
    "lon": 34.6604398000001,
    "label": "בית כנסת קהל חסידים - אשדוד",
    "text": "",
    "stayTimes": "22:00 - 23:00",
    "t_start": "2020-03-19T20:00:00",
    "t_end": "2020-03-19T21:00:00",
    "link": ""
  },
  {
    "id": 54436,
    "lat": 31.7914709,
    "lon": 34.6604398000001,
    "label": "בית כנסת קהל חסידים - אשדוד",
    "text": "",
    "stayTimes": "09:00 - 10:00",
    "t_start": "2020-03-20T07:00:00",
    "t_end": "2020-03-20T08:00:00",
    "link": ""
  },
  {
    "id": 54437,
    "lat": 31.7708458000001,
    "lon": 34.6328370000001,
    "label": "תפילה בחצר הבניין של בית הכנסת - אשדוד",
    "text": "",
    "stayTimes": "17:00 - 19:00",
    "t_start": "2020-03-20T15:00:00",
    "t_end": "2020-03-20T17:00:00",
    "link": ""
  },
  {
    "id": 54438,
    "lat": 31.789693132,
    "lon": 34.6614227310001,
    "label": "בית כנסת אימרי חיים ויז'ניץ - אשדוד",
    "text": "",
    "stayTimes": "08:45 - 11:30",
    "t_start": "2020-03-21T06:45:00",
    "t_end": "2020-03-21T09:30:00",
    "link": ""
  },
  {
    "id": 54439,
    "lat": 32.0229920520001,
    "lon": 34.8584103060001,
    "label": "סופר יוחננוף - אור יהודה",
    "text": "",
    "stayTimes": "08:30 - 10:30",
    "t_start": "2020-03-17T06:30:00",
    "t_end": "2020-03-17T08:30:00",
    "link": ""
  },
  {
    "id": 54440,
    "lat": 32.0347566630001,
    "lon": 34.8481217040001,
    "label": "סופר יוחננוף - אור יהודה",
    "text": "",
    "stayTimes": "08:30 - 10:30",
    "t_start": "2020-03-18T06:30:00",
    "t_end": "2020-03-18T08:30:00",
    "link": ""
  },
  {
    "id": 54441,
    "lat": 32.037273,
    "lon": 34.8655430000001,
    "label": "מסוף קרית אונו - קרית אונו",
    "text": "",
    "stayTimes": "15:30 - 16:30",
    "t_start": "2020-03-22T13:30:00",
    "t_end": "2020-03-22T14:30:00",
    "link": ""
  },
  {
    "id": 54442,
    "lat": 32.1540643000001,
    "lon": 34.8984201000001,
    "label": "בית החולים שלוותה - הוד השרון",
    "text": "",
    "stayTimes": "14:00 - 15:30",
    "t_start": "2020-03-18T12:00:00",
    "t_end": "2020-03-18T13:30:00",
    "link": ""
  },
  {
    "id": 54443,
    "lat": 32.0795392000001,
    "lon": 34.8359919000001,
    "label": "ישיבת גאון יעקב - בני ברק",
    "text": "",
    "stayTimes": "10:00 - 12:00",
    "t_start": "2020-03-18T08:00:00",
    "t_end": "2020-03-18T10:00:00",
    "link": ""
  },
  {
    "id": 54444,
    "lat": 32.0791613000001,
    "lon": 34.8384143000001,
    "label": "\"יש חסד\" - בני ברק",
    "text": "",
    "stayTimes": "12:00 - 13:00",
    "t_start": "2020-03-17T10:00:00",
    "t_end": "2020-03-17T11:00:00",
    "link": ""
  },
  {
    "id": 54445,
    "lat": 32.087523064,
    "lon": 34.8339075660001,
    "label": "בית הכנסת בית אברהם - בני ברק",
    "text": "",
    "stayTimes": "08:30 - 10:30",
    "t_start": "2020-03-21T06:30:00",
    "t_end": "2020-03-21T08:30:00",
    "link": ""
  },
  {
    "id": 54446,
    "lat": 32.0797415420001,
    "lon": 34.8331746980001,
    "label": "ניו פארם - בני ברק",
    "text": "",
    "stayTimes": "13:45 - 14:00",
    "t_start": "2020-03-16T11:45:00",
    "t_end": "2020-03-16T12:00:00",
    "link": ""
  },
  {
    "id": 54447,
    "lat": 32.322299,
    "lon": 34.8593550000001,
    "label": "בית כנסת בית אליהו - נתניה",
    "text": "",
    "stayTimes": "17:30 - 18:30",
    "t_start": "2020-03-19T15:30:00",
    "t_end": "2020-03-19T16:30:00",
    "link": ""
  },
  {
    "id": 54448,
    "lat": 32.3364657000001,
    "lon": 34.8648199,
    "label": "בית כנסת יעקב מאיר - נתניה",
    "text": "",
    "stayTimes": "17:30 - 18:30",
    "t_start": "2020-03-20T15:30:00",
    "t_end": "2020-03-20T16:30:00",
    "link": ""
  },
  {
    "id": 54449,
    "lat": 32.3226049620001,
    "lon": 34.8632334260001,
    "label": "בית כנסת יעקב מאיר - נתניה",
    "text": "",
    "stayTimes": "08:00 - 10:00",
    "t_start": "2020-03-21T06:00:00",
    "t_end": "2020-03-21T08:00:00",
    "link": ""
  },
  {
    "id": 54450,
    "lat": 32.3364657000001,
    "lon": 34.8648199,
    "label": "בית כנסת יעקב מאיר - נתניה",
    "text": "",
    "stayTimes": "17:00 - 17:30",
    "t_start": "2020-03-21T15:00:00",
    "t_end": "2020-03-21T15:30:00",
    "link": ""
  },
  {
    "id": 54451,
    "lat": 32.3364657000001,
    "lon": 34.8648199,
    "label": "בית כנסת יעקב מאיר - נתניה",
    "text": "",
    "stayTimes": "18:30 - 19:00",
    "t_start": "2020-03-21T16:30:00",
    "t_end": "2020-03-21T17:00:00",
    "link": ""
  },
  {
    "id": 54452,
    "lat": 32.318382984,
    "lon": 34.885954138,
    "label": "מרפאה כללית - נתניה",
    "text": "",
    "stayTimes": "08:00 - 09:30",
    "t_start": "2020-03-22T06:00:00",
    "t_end": "2020-03-22T07:30:00",
    "link": ""
  },
  {
    "id": 54453,
    "lat": 32.3231348,
    "lon": 34.8713024,
    "label": "שופרסל דיל - נתניה",
    "text": "",
    "stayTimes": "12:30 - 13:00",
    "t_start": "2020-03-22T10:30:00",
    "t_end": "2020-03-22T11:00:00",
    "link": ""
  },
  {
    "id": 54454,
    "lat": 32.0867236060001,
    "lon": 34.8295834300001,
    "label": "שריתל'ה הלבשה אישית - בני ברק",
    "text": "",
    "stayTimes": "20:00 - 22:00",
    "t_start": "2020-03-18T18:00:00",
    "t_end": "2020-03-18T20:00:00",
    "link": ""
  },
  {
    "id": 54455,
    "lat": 31.697706963,
    "lon": 34.5749100250001,
    "label": "סופר ויקטורי - אשקלון",
    "text": "",
    "stayTimes": "11:00 - 13:00",
    "t_start": "2020-03-18T09:00:00",
    "t_end": "2020-03-18T11:00:00",
    "link": ""
  },
  {
    "id": 54456,
    "lat": 31.697788105,
    "lon": 34.575005391,
    "label": "סופר ויקטורי - אשקלון",
    "text": "",
    "stayTimes": "08:30 - 10:00",
    "t_start": "2020-03-23T06:30:00",
    "t_end": "2020-03-23T08:00:00",
    "link": ""
  },
  {
    "id": 54457,
    "lat": 31.697706963,
    "lon": 34.575005391,
    "label": "ויקטורי - אשקלון",
    "text": "",
    "stayTimes": "09:00 - 10:10",
    "t_start": "2020-03-26T07:00:00",
    "t_end": "2020-03-26T08:10:00",
    "link": ""
  },
  {
    "id": 54458,
    "lat": 32.0952951,
    "lon": 34.7839011,
    "label": "אל וסינו - תל אביב - יפו",
    "text": "",
    "stayTimes": "00:30 - 02:00",
    "t_start": "2020-03-22T22:30:00",
    "t_end": "2020-03-23T00:00:00",
    "link": ""
  },
  {
    "id": 54459,
    "lat": 32.2868611000001,
    "lon": 34.8664061000001,
    "label": "סופר יוחננוף - נתניה",
    "text": "",
    "stayTimes": "13:00 - 14:00",
    "t_start": "2020-03-25T11:00:00",
    "t_end": "2020-03-25T12:00:00",
    "link": ""
  },
  {
    "id": 54460,
    "lat": 32.0723598000001,
    "lon": 34.7906922,
    "label": "מוסך הגה - תל אביב - יפו",
    "text": "",
    "stayTimes": "11:00 - 11:30",
    "t_start": "2020-03-16T09:00:00",
    "t_end": "2020-03-16T09:30:00",
    "link": ""
  },
  {
    "id": 54461,
    "lat": 32.0939642000001,
    "lon": 34.7928356,
    "label": "אלי צעצועים - תל אביב - יפו",
    "text": "",
    "stayTimes": "17:30 - 18:00",
    "t_start": "2020-03-17T15:30:00",
    "t_end": "2020-03-17T16:00:00",
    "link": ""
  },
  {
    "id": 54462,
    "lat": 32.0316625,
    "lon": 34.8871292000001,
    "label": "בית כנסת ברסלב  גואל ישראל - יהוד",
    "text": "",
    "stayTimes": "10:00 - 11:00",
    "t_start": "2020-03-16T08:00:00",
    "t_end": "2020-03-16T09:00:00",
    "link": ""
  },
  {
    "id": 54463,
    "lat": 31.7265431000001,
    "lon": 34.7386260000001,
    "label": "מקווה של בית כנסת תפארת אליעזר - קרית מלאכי",
    "text": "",
    "stayTimes": "08:00 - 08:15",
    "t_start": "2020-03-16T06:00:00",
    "t_end": "2020-03-16T06:15:00",
    "link": ""
  },
  {
    "id": 54464,
    "lat": 31.734151405,
    "lon": 34.748182435,
    "label": "בית כנסת מרכזי - קרית מלאכי",
    "text": "",
    "stayTimes": "09:00 - 12:00",
    "t_start": "2020-03-16T07:00:00",
    "t_end": "2020-03-16T10:00:00",
    "link": ""
  },
  {
    "id": 54465,
    "lat": 31.7265490980001,
    "lon": 34.738610894,
    "label": "בית כנסת תפארת אליעזר - קרית מלאכי",
    "text": "",
    "stayTimes": "17:40 - 17:55",
    "t_start": "2020-03-16T15:40:00",
    "t_end": "2020-03-16T15:55:00",
    "link": ""
  },
  {
    "id": 54466,
    "lat": 32.1963680000001,
    "lon": 34.8581370000001,
    "label": "בית כנסת \" שבת אחים\" - רעננה",
    "text": "",
    "stayTimes": "12:00 - 18:00",
    "t_start": "2020-03-16T10:00:00",
    "t_end": "2020-03-16T16:00:00",
    "link": ""
  },
  {
    "id": 54467,
    "lat": 31.700286654,
    "lon": 35.123546875,
    "label": "ישיבת \"נעימות התורה\" - ביתר עילית",
    "text": "",
    "stayTimes": "10:30 - 21:00",
    "t_start": "2020-03-16T08:30:00",
    "t_end": "2020-03-16T19:00:00",
    "link": ""
  },
  {
    "id": 54468,
    "lat": 31.700286653,
    "lon": 35.1235812080001,
    "label": "ישיבת \"נעימות התורה\" - ביתר עילית",
    "text": "",
    "stayTimes": "10:30 - 21:00",
    "t_start": "2020-03-18T08:30:00",
    "t_end": "2020-03-18T19:00:00",
    "link": ""
  },
  {
    "id": 54469,
    "lat": 31.7003304670001,
    "lon": 35.123546875,
    "label": "ישיבת \"נעימות התורה\" - ביתר עילית",
    "text": "",
    "stayTimes": "10:30 - 21:00",
    "t_start": "2020-03-17T08:30:00",
    "t_end": "2020-03-17T19:00:00",
    "link": ""
  },
  {
    "id": 54470,
    "lat": 32.0503593,
    "lon": 34.9597364000001,
    "label": "בית כנסת \"משכנות נריה \" - אלעד",
    "text": "",
    "stayTimes": "21:30 - 22:00",
    "t_start": "2020-03-16T19:30:00",
    "t_end": "2020-03-16T20:00:00",
    "link": ""
  },
  {
    "id": 54471,
    "lat": 32.0503593,
    "lon": 34.9597364000001,
    "label": "בית כנסת \"משכנות נריה \" - אלעד",
    "text": "",
    "stayTimes": "21:30 - 22:30",
    "t_start": "2020-03-17T19:30:00",
    "t_end": "2020-03-17T20:30:00",
    "link": ""
  },
  {
    "id": 54472,
    "lat": 32.0503593,
    "lon": 34.9597364000001,
    "label": "בית כנסת \"משכנות נריה \" - אלעד",
    "text": "",
    "stayTimes": "07:45 - 08:20",
    "t_start": "2020-03-17T05:45:00",
    "t_end": "2020-03-17T06:20:00",
    "link": ""
  },
  {
    "id": 54473,
    "lat": 32.0503593,
    "lon": 34.9597364000001,
    "label": "בית כנסת \"משכנות נריה \" - אלעד",
    "text": "",
    "stayTimes": "07:45 - 08:20",
    "t_start": "2020-03-16T05:45:00",
    "t_end": "2020-03-16T06:20:00",
    "link": ""
  },
  {
    "id": 54474,
    "lat": 32.0503593,
    "lon": 34.9597364000001,
    "label": "בית כנסת \"משכנות נריה \" - אלעד",
    "text": "",
    "stayTimes": "07:45 - 08:20",
    "t_start": "2020-03-18T05:45:00",
    "t_end": "2020-03-18T06:20:00",
    "link": ""
  },
  {
    "id": 54475,
    "lat": 32.1636936090001,
    "lon": 34.842887913,
    "label": "קופ\"ח כללית - הרצליה",
    "text": "",
    "stayTimes": "11:00 - 13:00",
    "t_start": "2020-03-18T09:00:00",
    "t_end": "2020-03-18T11:00:00",
    "link": ""
  },
  {
    "id": 54476,
    "lat": 32.1687610000001,
    "lon": 34.8422420000001,
    "label": "מרפאת גוטפריד כללית שירותי בריאות - הרצליה",
    "text": "",
    "stayTimes": "14:30 - 15:30",
    "t_start": "2020-03-17T12:30:00",
    "t_end": "2020-03-17T13:30:00",
    "link": ""
  },
  {
    "id": 54477,
    "lat": 32.7523497,
    "lon": 35.5386634000001,
    "label": "בית חולים פוריה מחלקה אורטופדיה - טבריה",
    "text": "",
    "stayTimes": "08:00 - 16:00",
    "t_start": "2020-03-16T06:00:00",
    "t_end": "2020-03-16T14:00:00",
    "link": ""
  },
  {
    "id": 54478,
    "lat": 31.6569354810001,
    "lon": 34.5867226890001,
    "label": "מגדל חברה לביטוח- מוקד - אשקלון",
    "text": "",
    "stayTimes": "09:00 - 18:00",
    "t_start": "2020-03-16T07:00:00",
    "t_end": "2020-03-16T16:00:00",
    "link": ""
  },
  {
    "id": 54479,
    "lat": 32.1136338000001,
    "lon": 34.8414937000001,
    "label": "סופר טיב טעם - תל אביב - יפו",
    "text": "",
    "stayTimes": "18:00 - 19:00",
    "t_start": "2020-03-18T16:00:00",
    "t_end": "2020-03-18T17:00:00",
    "link": ""
  },
  {
    "id": 54480,
    "lat": 31.4173985,
    "lon": 34.6148693000001,
    "label": "סופר רמי לוי - נתיבות",
    "text": "",
    "stayTimes": "16:30 - 17:30",
    "t_start": "2020-03-17T14:30:00",
    "t_end": "2020-03-17T15:30:00",
    "link": ""
  },
  {
    "id": 54481,
    "lat": 31.5670000000001,
    "lon": 34.8500000000001,
    "label": "מחלקת רווחה מועצה אזורית לכיש - לכיש",
    "text": "",
    "stayTimes": "08:00 - 16:00",
    "t_start": "2020-03-16T06:00:00",
    "t_end": "2020-03-16T14:00:00",
    "link": ""
  },
  {
    "id": 54482,
    "lat": 31.5670000000001,
    "lon": 34.8500000000001,
    "label": "מחלקת רווחה מועצה אזורית לכיש - לכיש",
    "text": "",
    "stayTimes": "08:00 - 16:00",
    "t_start": "2020-03-17T06:00:00",
    "t_end": "2020-03-17T14:00:00",
    "link": ""
  },
  {
    "id": 54483,
    "lat": 32.0908013000001,
    "lon": 34.8389312,
    "label": "\"יש חסד\" צרכניה - בני ברק",
    "text": "",
    "stayTimes": "18:00 - 22:00",
    "t_start": "2020-03-17T16:00:00",
    "t_end": "2020-03-17T20:00:00",
    "link": ""
  },
  {
    "id": 54484,
    "lat": 32.1604921950001,
    "lon": 34.8064832480001,
    "label": "מוצרי חשמל - הרצליה",
    "text": "",
    "stayTimes": "19:30 - 20:30",
    "t_start": "2020-03-17T17:30:00",
    "t_end": "2020-03-17T18:30:00",
    "link": ""
  },
  {
    "id": 54485,
    "lat": 32.0851670440001,
    "lon": 34.893122395,
    "label": "סטודיו דור - פתח תקווה",
    "text": "",
    "stayTimes": "11:00 - 12:00",
    "t_start": "2020-03-16T09:00:00",
    "t_end": "2020-03-16T10:00:00",
    "link": ""
  },
  {
    "id": 54486,
    "lat": 32.0230769,
    "lon": 34.8617718,
    "label": "מכולת שוק אבולבן - אור יהודה",
    "text": "",
    "stayTimes": "11:00 - 12:00",
    "t_start": "2020-03-20T09:00:00",
    "t_end": "2020-03-20T10:00:00",
    "link": ""
  },
  {
    "id": 54487,
    "lat": 32.2900546000001,
    "lon": 34.8514299,
    "label": "קופת חולים כללית - נתניה",
    "text": "",
    "stayTimes": "09:20 - 10:00",
    "t_start": "2020-03-16T07:20:00",
    "t_end": "2020-03-16T08:00:00",
    "link": ""
  },