{
  "points": [
    {
      "id": 210571,
      "lat": 30.9812812000001,
      "lon": 34.9473032000001,
      "label": "בית העלמין - ירוחם",
      "text": "",
      "stayTimes": "08:30 - 09:00",
      "t_start": "2020-03-30T06:30:00",
      "t_end": "2020-03-30T07:00:00",
      "link": ""
    },
    {
      "id": 210572,
      "lat": 31.862712,
      "lon": 35.1749548000001,
      "label": "סופר \"שוק העיר\" - גבעת זאב",
      "text": "",
      "stayTimes": "08:30 - 10:30",
      "t_start": "2020-03-24T06:30:00",
      "t_end": "2020-03-24T08:30:00",
      "link": ""
    },
    {
      "id": 210573,
      "lat": 32.0997094000001,
      "lon": 34.8287219000001,
      "label": "מחסני חשמל - בני ברק",
      "text": "",
      "stayTimes": "13:15 - 14:00",
      "t_start": "2020-03-25T11:15:00",
      "t_end": "2020-03-25T12:00:00",
      "link": ""
    },
    {
      "id": 210574,
      "lat": 32.014062924,
      "lon": 34.7448444300001,
      "label": "מרפאת כללית - השקמה בת ים - בת ים",
      "text": "",
      "stayTimes": "08:00 - 10:00",
      "t_start": "2020-03-25T06:00:00",
      "t_end": "2020-03-25T08:00:00",
      "link": ""
    },
    {
      "id": 210575,
      "lat": 31.697706963,
      "lon": 34.575005391,
      "label": "ויקטורי - אשקלון",
      "text": "",
      "stayTimes": "09:00 - 10:10",
      "t_start": "2020-03-26T07:00:00",
      "t_end": "2020-03-26T08:10:00",
      "link": ""
    },
    {
      "id": 210576,
      "lat": 32.2868611000001,
      "lon": 34.8664061000001,
      "label": "סופר יוחננוף - נתניה",
      "text": "",
      "stayTimes": "13:00 - 14:00",
      "t_start": "2020-03-25T11:00:00",
      "t_end": "2020-03-25T12:00:00",
      "link": ""
    },
    {
      "id": 210577,
      "lat": 32.9682,
      "lon": 35.503158,
      "label": "כללית כנען צפת - צפת",
      "text": "",
      "stayTimes": "10:40 - 11:10",
      "t_start": "2020-03-25T08:40:00",
      "t_end": "2020-03-25T09:10:00",
      "link": ""
    },
    {
      "id": 210578,
      "lat": 32.9605311,
      "lon": 35.4994390000001,
      "label": "סופר מחסני השוק - צפת",
      "text": "",
      "stayTimes": "14:00 - 14:30",
      "t_start": "2020-03-31T12:00:00",
      "t_end": "2020-03-31T12:30:00",
      "link": ""
    },
    {
      "id": 210579,
      "lat": 32.3067051300001,
      "lon": 34.8693212150001,
      "label": "קופ\"ח כללית - נתניה",
      "text": "",
      "stayTimes": "18:00 - 19:00",
      "t_start": "2020-03-25T16:00:00",
      "t_end": "2020-03-25T17:00:00",
      "link": ""
    },
    {
      "id": 210580,
      "lat": 32.0348409160001,
      "lon": 34.848170958,
      "label": "יוחננוף הגדול - סופר - אור יהודה",
      "text": "",
      "stayTimes": "16:30 - 17:00",
      "t_start": "2020-03-25T14:30:00",
      "t_end": "2020-03-25T15:00:00",
      "link": ""
    },
    {
      "id": 210581,
      "lat": 32.014196616,
      "lon": 34.766959027,
      "label": "מוקד מכבי הופיין - חולון",
      "text": "",
      "stayTimes": "19:40 - 22:30",
      "t_start": "2020-03-24T17:40:00",
      "t_end": "2020-03-24T20:30:00",
      "link": ""
    },
    {
      "id": 210582,
      "lat": 32.014196616,
      "lon": 34.766959027,
      "label": "מוקד מכבי הופיים - חולון",
      "text": "",
      "stayTimes": "19:05 - 20:05",
      "t_start": "2020-03-25T17:05:00",
      "t_end": "2020-03-25T18:05:00",
      "link": ""
    },
    {
      "id": 210583,
      "lat": 31.6622786990001,
      "lon": 34.5592685010001,
      "label": "ביח ברזילי - אשקלון",
      "text": "",
      "stayTimes": "09:00 - 10:00",
      "t_start": "2020-03-25T07:00:00",
      "t_end": "2020-03-25T08:00:00",
      "link": ""
    },
    {
      "id": 210584,
      "lat": 31.6744701750001,
      "lon": 34.558270545,
      "label": "מכולת שכונתית-רח הטייסים - אשקלון",
      "text": "",
      "stayTimes": "07:30 - 08:00",
      "t_start": "2020-03-25T05:30:00",
      "t_end": "2020-03-25T06:00:00",
      "link": ""
    },
    {
      "id": 210585,
      "lat": 32.057107,
      "lon": 34.8691424,
      "label": "סופר פארם - גני תקווה",
      "text": "",
      "stayTimes": "09:30 - 09:45",
      "t_start": "2020-03-27T07:30:00",
      "t_end": "2020-03-27T07:45:00",
      "link": ""
    },
    {
      "id": 210586,
      "lat": 31.941866443,
      "lon": 34.833751224,
      "label": "שופרסל, בקניון - באר יעקב",
      "text": "",
      "stayTimes": "10:30 - 10:45",
      "t_start": "2020-03-24T08:30:00",
      "t_end": "2020-03-24T08:45:00",
      "link": ""
    },
    {
      "id": 210587,
      "lat": 32.1046489170001,
      "lon": 34.8118631410001,
      "label": "תחנת בדיקה לקורונה,ברוקח - תל אביב - יפו",
      "text": "",
      "stayTimes": "20:30 - 21:00",
      "t_start": "2020-03-25T18:30:00",
      "t_end": "2020-03-25T19:00:00",
      "link": ""
    },
    {
      "id": 210588,
      "lat": 32.103972238,
      "lon": 34.810706204,
      "label": "בדיקה בתל אביב במתחם של מד\"א - תל אביב - יפו",
      "text": "",
      "stayTimes": "22:45 - 22:55",
      "t_start": "2020-03-25T20:45:00",
      "t_end": "2020-03-25T20:55:00",
      "link": ""
    },
    {
      "id": 210589,
      "lat": 32.0871102620001,
      "lon": 34.8288285040001,
      "label": "כולל יוצאי חברון - בני ברק",
      "text": "",
      "stayTimes": "11:00 - 12:30",
      "t_start": "2020-03-24T09:00:00",
      "t_end": "2020-03-24T10:30:00",
      "link": ""
    },
    {
      "id": 210590,
      "lat": 32.0605863850001,
      "lon": 34.776487135,
      "label": "מפעל לליטוש יהלומים - תל אביב - יפו",
      "text": "",
      "stayTimes": "09:30 - 11:30",
      "t_start": "2020-03-24T07:30:00",
      "t_end": "2020-03-24T09:30:00",
      "link": ""
    },
    {
      "id": 210591,
      "lat": 31.7789552,
      "lon": 34.6570806,
      "label": "בי\"ח אסותא- חדר ניתוח - אשדוד",
      "text": "",
      "stayTimes": "19:00 - 07:00",
      "t_start": "2020-03-25T17:00:00",
      "t_end": "2020-03-26T05:00:00",
      "link": ""
    },
    {
      "id": 210592,
      "lat": 32.0258672000001,
      "lon": 34.8593382,
      "label": "סופר יש חסד - אור יהודה",
      "text": "",
      "stayTimes": "17:00 - 17:30",
      "t_start": "2020-03-25T15:00:00",
      "t_end": "2020-03-25T15:30:00",
      "link": ""
    },
    {
      "id": 210593,
      "lat": 31.9478329,
      "lon": 34.9011619,
      "label": "קליניקה פרטית מכבי - לוד",
      "text": "",
      "stayTimes": "08:30 - 11:30",
      "t_start": "2020-03-24T06:30:00",
      "t_end": "2020-03-24T09:30:00",
      "link": ""
    },
    {
      "id": 210594,
      "lat": 31.9220189000001,
      "lon": 34.8587808,
      "label": "מרכז בריאות הילד - רמלה",
      "text": "",
      "stayTimes": "08:15 - 11:00",
      "t_start": "2020-03-25T06:15:00",
      "t_end": "2020-03-25T09:00:00",
      "link": ""
    },
    {
      "id": 210595,
      "lat": 32.014196616,
      "lon": 34.766959027,
      "label": "מוקד מכבי - חולון",
      "text": "",
      "stayTimes": "19:00 - 23:00",
      "t_start": "2020-03-24T17:00:00",
      "t_end": "2020-03-24T21:00:00",
      "link": ""
    },
    {
      "id": 210596,
      "lat": 31.932676852,
      "lon": 35.0452492590001,
      "label": "חנות מוצרי סית \"סנטר ליין\" - מודיעין עילית",
      "text": "",
      "stayTimes": "16:30 - 16:50",
      "t_start": "2020-03-24T14:30:00",
      "t_end": "2020-03-24T14:50:00",
      "link": ""
    },
    {
      "id": 210597,
      "lat": 31.926893912,
      "lon": 35.0416824800001,
      "label": "מרכול  רחוב נתיבות המשפט פינת מסילת יוסף - מודיעין עילית",
      "text": "",
      "stayTimes": "18:50 - 19:10",
      "t_start": "2020-03-26T16:50:00",
      "t_end": "2020-03-26T17:10:00",
      "link": ""
    },
    {
      "id": 210598,
      "lat": 31.6629795000001,
      "lon": 34.5766783,
      "label": "קופ\"ח כללית נאות אשקלון - אשקלון",
      "text": "",
      "stayTimes": "07:30 - 13:30",
      "t_start": "2020-03-25T05:30:00",
      "t_end": "2020-03-25T11:30:00",
      "link": ""
    },
    {
      "id": 210599,
      "lat": 31.813560991,
      "lon": 34.6601808670001,
      "label": "רמי לוי - אשדוד",
      "text": "",
      "stayTimes": "10:30 - 12:00",
      "t_start": "2020-03-24T08:30:00",
      "t_end": "2020-03-24T10:00:00",
      "link": ""
    },
    {
      "id": 210600,
      "lat": 31.8079432420001,
      "lon": 34.6573172600001,
      "label": "מחסני בשר - אשדוד",
      "text": "",
      "stayTimes": "10:00 - 10:30",
      "t_start": "2020-03-24T08:00:00",
      "t_end": "2020-03-24T08:30:00",
      "link": ""
    },
    {
      "id": 210601,
      "lat": 32.015268334,
      "lon": 34.756772578,
      "label": "סופר דוש בקניון בת ים - בת ים",
      "text": "",
      "stayTimes": "16:00 - 17:30",
      "t_start": "2020-03-24T14:00:00",
      "t_end": "2020-03-24T15:30:00",
      "link": ""
    },
    {
      "id": 210602,
      "lat": 31.374236604,
      "lon": 35.006553292,
      "label": "סופר מחסני השוק- מיתרים - שמעה",
      "text": "",
      "stayTimes": "12:30 - 13:30",
      "t_start": "2020-03-25T10:30:00",
      "t_end": "2020-03-25T11:30:00",
      "link": ""
    },
    {
      "id": 210603,
      "lat": 31.243467374,
      "lon": 34.8125915960001,
      "label": "סופר פארם ביג - באר שבע",
      "text": "",
      "stayTimes": "09:30 - 10:00",
      "t_start": "2020-03-25T07:30:00",
      "t_end": "2020-03-25T08:00:00",
      "link": ""
    },
    {
      "id": 210604,
      "lat": 31.2413889000001,
      "lon": 34.8105556,
      "label": "ACE ביג - באר שבע",
      "text": "",
      "stayTimes": "10:00 - 10:30",
      "t_start": "2020-03-25T08:00:00",
      "t_end": "2020-03-25T08:30:00",
      "link": ""
    },
    {
      "id": 210605,
      "lat": 31.243467374,
      "lon": 34.8125915960001,
      "label": "חנות נעמן BIG - באר שבע",
      "text": "",
      "stayTimes": "10:00 - 10:30",
      "t_start": "2020-03-25T08:00:00",
      "t_end": "2020-03-25T08:30:00",
      "link": ""
    },
    {
      "id": 210606,
      "lat": 31.7789552,
      "lon": 34.6570806,
      "label": "מיון ביה\"ח אסותא - אשדוד",
      "text": "",
      "stayTimes": "17:00 - 17:30",
      "t_start": "2020-03-26T15:00:00",
      "t_end": "2020-03-26T15:30:00",
      "link": ""
    },
    {
      "id": 210607,
      "lat": 31.9911338060001,
      "lon": 34.7607513570001,
      "label": "מאפיית קראמבל - ראשון לציון",
      "text": "",
      "stayTimes": "23:00 - 23:30",
      "t_start": "2020-03-26T21:00:00",
      "t_end": "2020-03-26T21:30:00",
      "link": ""
    },
    {
      "id": 210608,
      "lat": 32.6122728,
      "lon": 35.2882818000001,
      "label": "מאפייה קציר - עפולה",
      "text": "",
      "stayTimes": "08:00 - 09:00",
      "t_start": "2020-03-24T06:00:00",
      "t_end": "2020-03-24T07:00:00",
      "link": ""
    },
    {
      "id": 210609,
      "lat": 32.0862497050001,
      "lon": 34.8349746970001,
      "label": "נתיב החסד - בני ברק",
      "text": "",
      "stayTimes": "11:00 - 12:30",
      "t_start": "2020-03-24T09:00:00",
      "t_end": "2020-03-24T10:30:00",
      "link": ""
    },
    {
      "id": 210610,
      "lat": 32.0907355840001,
      "lon": 34.832599685,
      "label": "מכירה שכונתית בגינת אבן שפרוט - בני ברק",
      "text": "",
      "stayTimes": "12:00 - 08:00",
      "t_start": "2020-03-25T10:00:00",
      "t_end": "2020-03-22T06:00:00",
      "link": ""
    },
    {
      "id": 210611,
      "lat": 32.0794501020001,
      "lon": 34.815074942,
      "label": "סופר פארם - רמת גן",
      "text": "",
      "stayTimes": "10:30 - 11:00",
      "t_start": "2020-03-25T08:30:00",
      "t_end": "2020-03-25T09:00:00",
      "link": ""
    },
    {
      "id": 210612,
      "lat": 32.072180953,
      "lon": 35.26904619,
      "label": "תפילין עלי מתחם קניות - עלי",
      "text": "",
      "stayTimes": "13:30 - 14:10",
      "t_start": "2020-03-24T11:30:00",
      "t_end": "2020-03-24T12:10:00",
      "link": ""
    },
    {
      "id": 210613,
      "lat": 32.0788691970001,
      "lon": 34.8399178990001,
      "label": "עזרא ואחווה - בני ברק",
      "text": "",
      "stayTimes": "16:30 - 17:30",
      "t_start": "2020-03-24T14:30:00",
      "t_end": "2020-03-24T15:30:00",
      "link": ""
    },
    {
      "id": 210614,
      "lat": 33.0728417880001,
      "lon": 35.1431290990001,
      "label": "מרפאה כללית - שלומי",
      "text": "",
      "stayTimes": "10:00 - 10:30",
      "t_start": "2020-03-24T08:00:00",
      "t_end": "2020-03-24T08:30:00",
      "link": ""
    },
    {
      "id": 210615,
      "lat": 33.0742210010001,
      "lon": 35.1428321550001,
      "label": "קייטנת ילדים במתנס - שלומי",
      "text": "",
      "stayTimes": "08:00 - 08:30",
      "t_start": "2020-03-25T06:00:00",
      "t_end": "2020-03-25T06:30:00",
      "link": ""
    },
    {
      "id": 210616,
      "lat": 32.0257730000001,
      "lon": 34.90142,
      "label": "שופרסל - יהוד",
      "text": "",
      "stayTimes": "13:15 - 14:15",
      "t_start": "2020-03-27T11:15:00",
      "t_end": "2020-03-27T12:15:00",
      "link": ""
    },
    {
      "id": 210617,
      "lat": 31.777853142,
      "lon": 34.6363561410001,
      "label": "קיוסק בכיכר מגי'ק - אשדוד",
      "text": "",
      "stayTimes": "20:00 - 20:30",
      "t_start": "2020-03-24T18:00:00",
      "t_end": "2020-03-24T18:30:00",
      "link": ""
    },
    {
      "id": 210618,
      "lat": 31.7775212170001,
      "lon": 34.636722267,
      "label": "רמי לוי בשכונה - אשדוד",
      "text": "",
      "stayTimes": "20:15 - 20:40",
      "t_start": "2020-03-24T18:15:00",
      "t_end": "2020-03-24T18:40:00",
      "link": ""
    },
    {
      "id": 210619,
      "lat": 31.9644813740001,
      "lon": 34.7927787200001,
      "label": "בנק מרכנטיל - ראשון לציון",
      "text": "",
      "stayTimes": "12:00 - 13:00",
      "t_start": "2020-03-24T10:00:00",
      "t_end": "2020-03-24T11:00:00",
      "link": ""
    },
    {
      "id": 210620,
      "lat": 32.031392522,
      "lon": 34.8554434000001,
      "label": "סופר סיטי נווה סביון - אור יהודה",
      "text": "",
      "stayTimes": "19:00 - 19:30",
      "t_start": "2020-03-24T17:00:00",
      "t_end": "2020-03-24T17:30:00",
      "link": ""
    },
    {
      "id": 210621,
      "lat": 32.031362458,
      "lon": 34.855545363,
      "label": "מאפיית מן הארץ - אור יהודה",
      "text": "",
      "stayTimes": "11:00 - 11:30",
      "t_start": "2020-03-25T09:00:00",
      "t_end": "2020-03-25T09:30:00",
      "link": ""
    },
    {
      "id": 210622,
      "lat": 32.031388733,
      "lon": 34.85544191,
      "label": "סופר סיטי נווה סביון - אור יהודה",
      "text": "",
      "stayTimes": "16:00 - 16:30",
      "t_start": "2020-03-27T14:00:00",
      "t_end": "2020-03-27T14:30:00",
      "link": ""
    },
    {
      "id": 210623,
      "lat": 31.6622785000001,
      "lon": 34.5592871000001,
      "label": "מחלקת משאבי אנוש בית חולים ברזילי - אשקלון",
      "text": "",
      "stayTimes": "15:00 - 17:00",
      "t_start": "2020-03-25T13:00:00",
      "t_end": "2020-03-25T15:00:00",
      "link": ""
    },
    {
      "id": 210624,
      "lat": 31.6622785000001,
      "lon": 34.5592871000001,
      "label": "מכון MRI  בית חולים ברזילי - אשקלון",
      "text": "",
      "stayTimes": "15:00 - 17:00",
      "t_start": "2020-03-25T13:00:00",
      "t_end": "2020-03-25T15:00:00",
      "link": ""
    },
    {
      "id": 210625,
      "lat": 32.0829565490001,
      "lon": 34.8427267970001,
      "label": "צרכניה אחיעזר - בני ברק",
      "text": "",
      "stayTimes": "18:40 - 20:00",
      "t_start": "2020-03-25T16:40:00",
      "t_end": "2020-03-25T18:00:00",
      "link": ""
    },
    {
      "id": 210626,
      "lat": 31.245815979,
      "lon": 34.776824193,
      "label": "קופת חולים כללית ט - באר שבע",
      "text": "",
      "stayTimes": "10:30 - 11:00",
      "t_start": "2020-03-27T08:30:00",
      "t_end": "2020-03-27T09:00:00",
      "link": ""
    },
    {
      "id": 210627,
      "lat": 32.078923337,
      "lon": 34.8392821350001,
      "label": "בית אבות והדרת פני זקן - בני ברק",
      "text": "",
      "stayTimes": "08:00 - 12:00",
      "t_start": "2020-03-27T06:00:00",
      "t_end": "2020-03-27T10:00:00",
      "link": ""
    },
    {
      "id": 210628,
      "lat": 32.078923337,
      "lon": 34.8392821350001,
      "label": "בית אבות והדרת פני זקן - בני ברק",
      "text": "",
      "stayTimes": "08:00 - 12:00",
      "t_start": "2020-03-25T06:00:00",
      "t_end": "2020-03-25T10:00:00",
      "link": ""
    },
    {
      "id": 210629,
      "lat": 32.078923337,
      "lon": 34.8392821350001,
      "label": "בית אבות והדרת פני זקן - בני ברק",
      "text": "",
      "stayTimes": "08:00 - 12:00",
      "t_start": "2020-03-26T06:00:00",
      "t_end": "2020-03-26T10:00:00",
      "link": ""
    },
    {
      "id": 210630,
      "lat": 32.3187235,
      "lon": 34.9340612,
      "label": "חבוש - כפר יונה",
      "text": "",
      "stayTimes": "11:15 - 11:30",
      "t_start": "2020-03-25T09:15:00",
      "t_end": "2020-03-25T09:30:00",
      "link": ""
    },
    {
      "id": 210631,
      "lat": 32.318136183,
      "lon": 34.9344362570001,
      "label": "סופר מגה - כפר יונה",
      "text": "",
      "stayTimes": "11:00 - 11:15",
      "t_start": "2020-03-25T09:00:00",
      "t_end": "2020-03-25T09:15:00",
      "link": ""
    },
    {
      "id": 210632,
      "lat": 32.0279776880001,
      "lon": 34.8647664000001,
      "label": "קופ\"ח כללית- מרפאת גיורא - אור יהודה",
      "text": "",
      "stayTimes": "16:00 - 16:30",
      "t_start": "2020-03-24T14:00:00",
      "t_end": "2020-03-24T14:30:00",
      "link": ""
    },
    {
      "id": 210633,
      "lat": 32.0989103090001,
      "lon": 34.829733628,
      "label": "אושר עד בני ברק - בני ברק",
      "text": "",
      "stayTimes": "19:00 - 20:00",
      "t_start": "2020-03-24T17:00:00",
      "t_end": "2020-03-24T18:00:00",
      "link": ""
    },
    {
      "id": 210634,
      "lat": 32.0860725360001,
      "lon": 34.8303938600001,
      "label": "מרפאת מכבי - בני ברק",
      "text": "",
      "stayTimes": "11:00 - 12:00",
      "t_start": "2020-03-24T09:00:00",
      "t_end": "2020-03-24T10:00:00",
      "link": ""
    },
    {
      "id": 210635,
      "lat": 32.027943921,
      "lon": 34.8646902040001,
      "label": "קופת חולים כללית - אור יהודה",
      "text": "",
      "stayTimes": "09:30 - 11:00",
      "t_start": "2020-03-24T07:30:00",
      "t_end": "2020-03-24T09:00:00",
      "link": ""
    },
    {
      "id": 210636,
      "lat": 32.7853938850001,
      "lon": 35.4985358280001,
      "label": "סופר- פארם - טבריה",
      "text": "",
      "stayTimes": "11:00 - 11:05",
      "t_start": "2020-03-24T09:00:00",
      "t_end": "2020-03-24T09:05:00",
      "link": ""
    },
    {
      "id": 210637,
      "lat": 31.6622785000001,
      "lon": 34.5592871000001,
      "label": "יחידת המחשוב בי\"ח ברזילי - אשקלון",
      "text": "",
      "stayTimes": "08:00 - 17:00",
      "t_start": "2020-03-24T06:00:00",
      "t_end": "2020-03-24T15:00:00",
      "link": ""
    },
    {
      "id": 210638,
      "lat": 31.6619693000001,
      "lon": 34.55967,
      "label": "מיון ברזילי - אשקלון",
      "text": "",
      "stayTimes": "14:30 - 17:00",
      "t_start": "2020-03-27T12:30:00",
      "t_end": "2020-03-27T15:00:00",
      "link": ""
    },
    {
      "id": 210639,
      "lat": 30.6111034,
      "lon": 34.7986178,
      "label": "מכולת \"הסלסלה\" - מצפה רמון",
      "text": "",
      "stayTimes": "12:00 - 13:00",
      "t_start": "2020-03-26T10:00:00",
      "t_end": "2020-03-26T11:00:00",
      "link": ""
    },
    {
      "id": 210640,
      "lat": 31.8111825,
      "lon": 35.2197587000001,
      "label": "קופת חולים כללית - ירושלים",
      "text": "",
      "stayTimes": "09:00 - 12:00",
      "t_start": "2020-03-25T07:00:00",
      "t_end": "2020-03-25T10:00:00",
      "link": ""
    },
    {
      "id": 210641,
      "lat": 31.8122742190001,
      "lon": 35.1952146290001,
      "label": "זול ובגדול קניון רמות. - ירושלים",
      "text": "",
      "stayTimes": "10:00 - 11:00",
      "t_start": "2020-03-26T08:00:00",
      "t_end": "2020-03-26T09:00:00",
      "link": ""
    },
    {
      "id": 210642,
      "lat": 31.799142015,
      "lon": 35.206389254,
      "label": "פנמיה קרית הילד - ירושלים",
      "text": "",
      "stayTimes": "09:00 - 15:00",
      "t_start": "2020-03-24T07:00:00",
      "t_end": "2020-03-24T13:00:00",
      "link": ""
    },
    {
      "id": 210643,
      "lat": 32.1461142410001,
      "lon": 34.803998865,
      "label": "\"שופרסל\" סניף גלילות - הרצליה",
      "text": "",
      "stayTimes": "06:00 - 14:30",
      "t_start": "2020-03-27T04:00:00",
      "t_end": "2020-03-27T12:30:00",
      "link": ""
    },
    {
      "id": 210644,
      "lat": 31.991863,
      "lon": 34.7750457000001,
      "label": "ביקור רופא - ראשון לציון",
      "text": "",
      "stayTimes": "21:11 - 22:50",
      "t_start": "2020-03-28T19:11:00",
      "t_end": "2020-03-28T20:50:00",
      "link": ""
    },
    {
      "id": 210645,
      "lat": 32.079163484,
      "lon": 34.8381503910001,
      "label": "יש חסד - בני ברק",
      "text": "",
      "stayTimes": "22:00 - 22:30",
      "t_start": "2020-03-25T20:00:00",
      "t_end": "2020-03-25T20:30:00",
      "link": ""
    },
    {
      "id": 210646,
      "lat": 32.003632829,
      "lon": 34.8038148690001,
      "label": "חצי חינם - חולון",
      "text": "",
      "stayTimes": "14:30 - 16:30",
      "t_start": "2020-03-25T12:30:00",
      "t_end": "2020-03-25T14:30:00",
      "link": ""
    },
    {
      "id": 210647,
      "lat": 32.0082967130001,
      "lon": 34.791272909,
      "label": "שופרסל - חולון",
      "text": "",
      "stayTimes": "17:00 - 17:30",
      "t_start": "2020-03-25T15:00:00",
      "t_end": "2020-03-25T15:30:00",
      "link": ""
    },
    {
      "id": 210648,
      "lat": 32.1967184600001,
      "lon": 34.8775121680001,
      "label": "הום סנטר קניון רננים - רעננה",
      "text": "",
      "stayTimes": "19:00 - 20:00",
      "t_start": "2020-03-26T17:00:00",
      "t_end": "2020-03-26T18:00:00",
      "link": ""
    },
    {
      "id": 210649,
      "lat": 32.1967184600001,
      "lon": 34.8775121680001,
      "label": "פירות גינוסר - רעננה",
      "text": "",
      "stayTimes": "20:00 - 20:30",
      "t_start": "2020-03-26T18:00:00",
      "t_end": "2020-03-26T18:30:00",
      "link": ""
    },
    {
      "id": 210650,
      "lat": 31.6455817,
      "lon": 34.5943259000001,
      "label": "סופר אושר עד - בת הדר",
      "text": "",
      "stayTimes": "19:00 - 21:30",
      "t_start": "2020-03-24T17:00:00",
      "t_end": "2020-03-24T19:30:00",
      "link": ""
    },
    {
      "id": 210651,
      "lat": 31.6697462000001,
      "lon": 34.5790404000001,
      "label": "הבית של חני - אשקלון",
      "text": "",
      "stayTimes": "16:00 - 16:30",
      "t_start": "2020-03-25T14:00:00",
      "t_end": "2020-03-25T14:30:00",
      "link": ""
    },
    {
      "id": 210652,
      "lat": 31.6733169240001,
      "lon": 34.575932476,
      "label": "חודשי השנה- בית - אשקלון",
      "text": "",
      "stayTimes": "09:00 - 11:00",
      "t_start": "2020-03-24T07:00:00",
      "t_end": "2020-03-24T09:00:00",
      "link": ""
    },
    {
      "id": 210653,
      "lat": 31.6629795000001,
      "lon": 34.5766783,
      "label": "קופת חולים נאות אשקלון - אשקלון",
      "text": "",
      "stayTimes": "09:40 - 10:00",
      "t_start": "2020-03-24T07:40:00",
      "t_end": "2020-03-24T08:00:00",
      "link": ""
    },
    {
      "id": 210654,
      "lat": 32.055225767,
      "lon": 34.960713583,
      "label": "סופר מרקט \"שוק מהדרין\" סניף בן שטח - אלעד",
      "text": "",
      "stayTimes": "08:00 - 10:30",
      "t_start": "2020-03-24T06:00:00",
      "t_end": "2020-03-24T08:30:00",
      "link": ""
    },
    {
      "id": 210655,
      "lat": 31.2584512,
      "lon": 34.771347,
      "label": "תיוון \"באר שבע 360\" - באר שבע",
      "text": "",
      "stayTimes": "10:30 - 19:00",
      "t_start": "2020-03-24T08:30:00",
      "t_end": "2020-03-24T17:00:00",
      "link": ""
    },
    {
      "id": 210656,
      "lat": 31.6621588,
      "lon": 34.5788590000001,
      "label": "סופר האחים - אשקלון",
      "text": "",
      "stayTimes": "15:30 - 15:45",
      "t_start": "2020-03-26T13:30:00",
      "t_end": "2020-03-26T13:45:00",
      "link": ""
    },
    {
      "id": 210657,
      "lat": 32.5088861,
      "lon": 34.9054839,
      "label": "מאפיית \"אגמי\" - זכרון יעקב",
      "text": "",
      "stayTimes": "08:30 - 10:00",
      "t_start": "2020-03-24T06:30:00",
      "t_end": "2020-03-24T08:00:00",
      "link": ""
    },
    {
      "id": 210658,
      "lat": 32.0668578300001,
      "lon": 34.8034841520001,
      "label": "חברת ביטוח הפניקס - גבעתיים",
      "text": "",
      "stayTimes": "08:00 - 16:00",
      "t_start": "2020-03-24T06:00:00",
      "t_end": "2020-03-24T14:00:00",
      "link": ""
    },
    {
      "id": 210659,
      "lat": 32.037698784,
      "lon": 34.7761311100001,
      "label": "סופר יוחננוף - חולון",
      "text": "",
      "stayTimes": "11:00 - 12:00",
      "t_start": "2020-03-25T09:00:00",
      "t_end": "2020-03-25T10:00:00",
      "link": ""
    },
    {
      "id": 210660,
      "lat": 32.056400791,
      "lon": 34.7697736750001,
      "label": "שופרסל - תל אביב - יפו",
      "text": "",
      "stayTimes": "10:30 - 12:30",
      "t_start": "2020-03-26T08:30:00",
      "t_end": "2020-03-26T10:30:00",
      "link": ""
    },
    {
      "id": 210661,
      "lat": 32.014196616,
      "lon": 34.766959027,
      "label": "מוקד מכבי חולון - חולון",
      "text": "",
      "stayTimes": "19:00 - 20:15",
      "t_start": "2020-03-26T17:00:00",
      "t_end": "2020-03-26T18:15:00",
      "link": ""
    },
    {
      "id": 210662,
      "lat": 31.8816816360001,
      "lon": 35.0131298360001,
      "label": "סופר ויקטורי - מודיעין-מכבים-רעות",
      "text": "",
      "stayTimes": "16:30 - 17:10",
      "t_start": "2020-03-24T14:30:00",
      "t_end": "2020-03-24T15:10:00",
      "link": ""
    },
    {
      "id": 210663,
      "lat": 32.250529855,
      "lon": 34.9188569030001,
      "label": "מכולת - תל מונד",
      "text": "",
      "stayTimes": "07:30 - 12:00",
      "t_start": "2020-03-24T05:30:00",
      "t_end": "2020-03-24T10:00:00",
      "link": ""
    },
    {
      "id": 210664,
      "lat": 32.05711304,
      "lon": 34.8695085620001,
      "label": "סופר AM/PM אבאבן גבירול 14 תא - תל אביב - יפו",
      "text": "",
      "stayTimes": "19:00 - 21:00",
      "t_start": "2020-03-28T17:00:00",
      "t_end": "2020-03-28T19:00:00",
      "link": ""
    },
    {
      "id": 210665,
      "lat": 32.069616593,
      "lon": 34.78259316,
      "label": "טיב טעם - החשמונאים 91 תא - תל אביב - יפו",
      "text": "",
      "stayTimes": "19:30 - 21:30",
      "t_start": "2020-03-29T17:30:00",
      "t_end": "2020-03-29T19:30:00",
      "link": ""
    },
    {
      "id": 210666,
      "lat": 32.069616593,
      "lon": 34.78259316,
      "label": "טיב טעם - החשמונאים 91 תא - תל אביב - יפו",
      "text": "",
      "stayTimes": "19:00 - 21:00",
      "t_start": "2020-03-25T17:00:00",
      "t_end": "2020-03-25T19:00:00",
      "link": ""
    },
    {
      "id": 210667,
      "lat": 32.0503718200001,
      "lon": 34.9505698570001,
      "label": "מרפאת כללית שמאי - אלעד",
      "text": "",
      "stayTimes": "07:30 - 13:00",
      "t_start": "2020-03-24T05:30:00",
      "t_end": "2020-03-24T11:00:00",
      "link": ""
    },
    {
      "id": 210668,
      "lat": 32.9236277000001,
      "lon": 35.3080387000001,
      "label": "סופרמרקט רמי לוי - כרמיאל",
      "text": "",
      "stayTimes": "20:00 - 21:30",
      "t_start": "2020-03-24T18:00:00",
      "t_end": "2020-03-24T19:30:00",
      "link": ""
    },
    {
      "id": 210669,
      "lat": 32.9209085750001,
      "lon": 35.311282012,
      "label": "חנות טמבור כהן - כרמיאל",
      "text": "",
      "stayTimes": "15:30 - 16:00",
      "t_start": "2020-03-25T13:30:00",
      "t_end": "2020-03-25T14:00:00",
      "link": ""
    },
    {
      "id": 210670,
      "lat": 31.6688284160001,
      "lon": 34.602371111,
      "label": "שוק העיר - אשקלון",
      "text": "",
      "stayTimes": "09:15 - 10:15",
      "t_start": "2020-03-25T07:15:00",
      "t_end": "2020-03-25T08:15:00",
      "link": ""
    },
    {
      "id": 210671,
      "lat": 31.9257275940001,
      "lon": 34.8639782770001,
      "label": "שופרסל דיל- קניון עזריאלי - רמלה",
      "text": "",
      "stayTimes": "19:00 - 19:10",
      "t_start": "2020-03-24T17:00:00",
      "t_end": "2020-03-24T17:10:00",
      "link": ""
    },
    {
      "id": 210672,
      "lat": 31.6659504360001,
      "lon": 34.562813997,
      "label": "קונדטוריה לה טורט - אשקלון",
      "text": "",
      "stayTimes": "11:00 - 11:30",
      "t_start": "2020-03-27T09:00:00",
      "t_end": "2020-03-27T09:30:00",
      "link": ""
    },
    {
      "id": 210673,
      "lat": 31.6622785000001,
      "lon": 34.5592871000001,
      "label": "יחידת מחשוב בי\"ח ברזילי - אשקלון",
      "text": "",
      "stayTimes": "08:00 - 18:00",
      "t_start": "2020-03-25T06:00:00",
      "t_end": "2020-03-25T16:00:00",
      "link": ""
    },
    {
      "id": 210674,
      "lat": 31.6622785000001,
      "lon": 34.5592871000001,
      "label": "יחידת המחשוב- בי\"ח ברזילי - אשקלון",
      "text": "",
      "stayTimes": "08:00 - 19:00",
      "t_start": "2020-03-26T06:00:00",
      "t_end": "2020-03-26T17:00:00",
      "link": ""
    },
    {
      "id": 210675,
      "lat": 32.1811562,
      "lon": 34.897049,
      "label": "בי\"ח מאיר- מרפאה לתיירות מרפא, נלקחה בדיקה - כפר סבא",
      "text": "",
      "stayTimes": "13:20 - 13:30",
      "t_start": "2020-03-29T11:20:00",
      "t_end": "2020-03-29T11:30:00",
      "link": ""
    },
    {
      "id": 210676,
      "lat": 32.1823231000001,
      "lon": 34.8954868000001,
      "label": "בי\"ח מאיר- מחלקה פנימית ב'- מחלקת קורונה - כפר סבא",
      "text": "",
      "stayTimes": "08:00 - 16:00",
      "t_start": "2020-03-24T06:00:00",
      "t_end": "2020-03-24T14:00:00",
      "link": ""
    },
    {
      "id": 210677,
      "lat": 32.1810270340001,
      "lon": 34.8948060590001,
      "label": "בי\"ח מאיר- מיון נשימתי - כפר סבא",
      "text": "",
      "stayTimes": "16:00 - 23:00",
      "t_start": "2020-03-24T14:00:00",
      "t_end": "2020-03-24T21:00:00",
      "link": ""
    },
    {
      "id": 210678,
      "lat": 32.946579163,
      "lon": 35.172608617,
      "label": "MY BABY - ירכא",
      "text": "",
      "stayTimes": "16:30 - 18:00",
      "t_start": "2020-03-25T14:30:00",
      "t_end": "2020-03-25T16:00:00",
      "link": ""
    },
    {
      "id": 210679,
      "lat": 32.345488,
      "lon": 34.855896,
      "label": "בית חולים לניאדו - נתניה",
      "text": "",
      "stayTimes": "16:00 - 16:30",
      "t_start": "2020-03-26T14:00:00",
      "t_end": "2020-03-26T14:30:00",
      "link": ""
    },
    {
      "id": 210680,
      "lat": 31.665293945,
      "lon": 34.566231895,
      "label": "מאוחדת - אשקלון",
      "text": "",
      "stayTimes": "09:20 - 09:30",
      "t_start": "2020-03-29T07:20:00",
      "t_end": "2020-03-29T07:30:00",
      "link": ""
    },
    {
      "id": 210681,
      "lat": 31.947558379,
      "lon": 34.891374737,
      "label": "מוקד טרם - לוד - לוד",
      "text": "",
      "stayTimes": "23:15 - 01:00",
      "t_start": "2020-03-27T21:15:00",
      "t_end": "2020-03-26T23:00:00",
      "link": ""
    },
    {
      "id": 210682,
      "lat": 31.9266720000001,
      "lon": 34.8777440000001,
      "label": "סופר פארם קרית הממשלה רמלה - רמלה",
      "text": "",
      "stayTimes": "11:30 - 13:00",
      "t_start": "2020-03-27T09:30:00",
      "t_end": "2020-03-27T11:00:00",
      "link": ""
    },
    {
      "id": 210683,
      "lat": 31.938458558,
      "lon": 35.0452013440001,
      "label": "בית ספר מעלותבת שבע בקומה א במרפסת הדרומית - מודיעין עילית",
      "text": "",
      "stayTimes": "08:00 - 09:00",
      "t_start": "2020-03-27T06:00:00",
      "t_end": "2020-03-27T07:00:00",
      "link": ""
    },
    {
      "id": 210684,
      "lat": 32.071789075,
      "lon": 34.841956854,
      "label": "מקווה נווה אחי עזר - בני ברק",
      "text": "",
      "stayTimes": "20:00 - 21:00",
      "t_start": "2020-03-24T18:00:00",
      "t_end": "2020-03-24T19:00:00",
      "link": ""
    },
    {
      "id": 210685,
      "lat": 32.2759974000001,
      "lon": 34.9201281000001,
      "label": "סופר פארם - קדימה-צורן",
      "text": "",
      "stayTimes": "13:55 - 14:55",
      "t_start": "2020-03-26T11:55:00",
      "t_end": "2020-03-26T12:55:00",
      "link": ""
    },
    {
      "id": 210686,
      "lat": 31.8052665220001,
      "lon": 35.151213682,
      "label": "סופר רמי לוי במבשרת ציון - ירושלים",
      "text": "",
      "stayTimes": "12:00 - 13:30",
      "t_start": "2020-03-25T10:00:00",
      "t_end": "2020-03-25T11:30:00",
      "link": ""
    },
    {
      "id": 210687,
      "lat": 32.2797850480001,
      "lon": 34.8537296210001,
      "label": "קופת חולים כללית - נתניה",
      "text": "",
      "stayTimes": "09:20 - 09:45",
      "t_start": "2020-03-27T07:20:00",
      "t_end": "2020-03-27T07:45:00",
      "link": ""
    },
    {
      "id": 210688,
      "lat": 32.2797850480001,
      "lon": 34.8537296210001,
      "label": "בית מרחקת קופת חולים כללית - נתניה",
      "text": "",
      "stayTimes": "09:45 - 10:00",
      "t_start": "2020-03-27T07:45:00",
      "t_end": "2020-03-27T08:00:00",
      "link": ""
    },
    {
      "id": 210689,
      "lat": 31.884983436,
      "lon": 34.7387132640001,
      "label": "שופרסל דיל - יבנה",
      "text": "",
      "stayTimes": "09:00 - 10:00",
      "t_start": "2020-03-27T07:00:00",
      "t_end": "2020-03-27T08:00:00",
      "link": ""
    },
    {
      "id": 210690,
      "lat": 32.4418197000001,
      "lon": 34.9130742,
      "label": "קופת חולים כללית דגני חדרה - חדרה",
      "text": "",
      "stayTimes": "13:00 - 14:00",
      "t_start": "2020-03-26T11:00:00",
      "t_end": "2020-03-26T12:00:00",
      "link": ""
    },
    {
      "id": 210691,
      "lat": 32.5688498010001,
      "lon": 34.954768512,
      "label": "קופת חולים \"כללית\" - זכרון יעקב",
      "text": "",
      "stayTimes": "08:00 - 08:30",
      "t_start": "2020-03-25T06:00:00",
      "t_end": "2020-03-25T06:30:00",
      "link": ""
    },
    {
      "id": 210692,
      "lat": 32.5217420000001,
      "lon": 34.9420900000001,
      "label": "קופת חלוים כללית סניף בינימינה - בנימינה-גבעת עדה",
      "text": "",
      "stayTimes": "08:00 - 10:00",
      "t_start": "2020-03-24T06:00:00",
      "t_end": "2020-03-24T08:00:00",
      "link": ""
    },
    {
      "id": 210693,
      "lat": 32.0894552460001,
      "lon": 34.817679802,
      "label": "פרימדונה - רמת גן",
      "text": "",
      "stayTimes": "16:00 - 16:20",
      "t_start": "2020-03-25T14:00:00",
      "t_end": "2020-03-25T14:20:00",
      "link": ""
    },
    {
      "id": 210694,
      "lat": 32.532988947,
      "lon": 35.148568518,
      "label": "סופר פארם שכ' עין איברהים אום אל פאחם - אום אל-פחם",
      "text": "",
      "stayTimes": "15:00 - 15:30",
      "t_start": "2020-03-27T13:00:00",
      "t_end": "2020-03-27T13:30:00",
      "link": ""
    },
    {
      "id": 210695,
      "lat": 32.4418197000001,
      "lon": 34.9130742,
      "label": "קופת חולים כללית דגני חדרה - חדרה",
      "text": "",
      "stayTimes": "12:00 - 13:00",
      "t_start": "2020-03-26T10:00:00",
      "t_end": "2020-03-26T11:00:00",
      "link": ""
    },
    {
      "id": 210696,
      "lat": 32.488944243,
      "lon": 34.9698519880001,
      "label": "חנות סטוק מתחם \"ביג\" - פרדס חנה-כרכור",
      "text": "",
      "stayTimes": "13:00 - 13:30",
      "t_start": "2020-03-24T11:00:00",
      "t_end": "2020-03-24T11:30:00",
      "link": ""
    },
    {
      "id": 210697,
      "lat": 32.4888486,
      "lon": 34.9705568000001,
      "label": "סופר רמי לוי מתחם \"ביג\" - פרדס חנה-כרכור",
      "text": "",
      "stayTimes": "13:30 - 14:30",
      "t_start": "2020-03-24T11:30:00",
      "t_end": "2020-03-24T12:30:00",
      "link": ""
    },
    {
      "id": 210698,
      "lat": 32.5217420000001,
      "lon": 34.9420900000001,
      "label": "קופת חלוים כללית - בנימינה-גבעת עדה",
      "text": "",
      "stayTimes": "10:00 - 11:00",
      "t_start": "2020-03-26T08:00:00",
      "t_end": "2020-03-26T09:00:00",
      "link": ""
    },
    {
      "id": 210699,
      "lat": 31.7417380270001,
      "lon": 34.994899424,
      "label": "מרפאת כללית - בית שמש",
      "text": "",
      "stayTimes": "08:00 - 08:00",
      "t_start": "2020-03-24T06:00:00",
      "t_end": "2020-03-24T06:00:00",
      "link": ""
    },
    {
      "id": 210700,
      "lat": 32.0827176180001,
      "lon": 34.8263688160001,
      "label": "סופר מרקט \" יש בשכונה\" - בני ברק",
      "text": "",
      "stayTimes": "12:00 - 12:30",
      "t_start": "2020-03-27T10:00:00",
      "t_end": "2020-03-27T10:30:00",
      "link": ""
    },
    {
      "id": 210701,
      "lat": 32.193897093,
      "lon": 34.9082043000001,
      "label": "מינימרקט דורון - גן חיים",
      "text": "",
      "stayTimes": "14:00 - 14:20",
      "t_start": "2020-03-25T12:00:00",
      "t_end": "2020-03-25T12:20:00",
      "link": ""
    },
    {
      "id": 210702,
      "lat": 32.174447566,
      "lon": 34.9162865910001,
      "label": "בית מרקחת קופת חולים כללית - כפר סבא",
      "text": "",
      "stayTimes": "14:30 - 15:00",
      "t_start": "2020-03-24T12:30:00",
      "t_end": "2020-03-24T13:00:00",
      "link": ""
    },
    {
      "id": 210703,
      "lat": 32.1982224810001,
      "lon": 34.8903975490001,
      "label": "ויקטורי - כפר סבא",
      "text": "",
      "stayTimes": "15:00 - 15:30",
      "t_start": "2020-03-24T13:00:00",
      "t_end": "2020-03-24T13:30:00",
      "link": ""
    },
    {
      "id": 210704,
      "lat": 32.1018083000001,
      "lon": 34.8298623000001,
      "label": "רמי לוי - בני ברק",
      "text": "",
      "stayTimes": "13:00 - 14:00",
      "t_start": "2020-03-27T11:00:00",
      "t_end": "2020-03-27T12:00:00",
      "link": ""
    },
    {
      "id": 210705,
      "lat": 32.0859514000001,
      "lon": 34.8400424000001,
      "label": "בית כנסת ביאלא - בני ברק",
      "text": "",
      "stayTimes": "21:30 - 23:00",
      "t_start": "2020-03-24T19:30:00",
      "t_end": "2020-03-24T21:00:00",
      "link": ""
    },
    {
      "id": 210706,
      "lat": 32.0781428,
      "lon": 34.8297768,
      "label": "בית כנסת קהל חסידים - בני ברק",
      "text": "",
      "stayTimes": "09:30 - 10:45",
      "t_start": "2020-03-24T07:30:00",
      "t_end": "2020-03-24T08:45:00",
      "link": ""
    },
    {
      "id": 210707,
      "lat": 31.796859268,
      "lon": 35.241855844,
      "label": "הדסה הר הצופים - ירושלים",
      "text": "",
      "stayTimes": "07:00 - 15:00",
      "t_start": "2020-03-25T05:00:00",
      "t_end": "2020-03-25T13:00:00",
      "link": ""
    },
    {
      "id": 210708,
      "lat": 31.796859268,
      "lon": 35.241855844,
      "label": "הדסה הר הצופים - ירושלים",
      "text": "",
      "stayTimes": "23:00 - 07:00",
      "t_start": "2020-03-25T21:00:00",
      "t_end": "2020-03-26T05:00:00",
      "link": ""
    },
    {
      "id": 210709,
      "lat": 31.78866678,
      "lon": 35.2184726240001,
      "label": "קופת חולים מאוחדת סניף א-טור - ירושלים",
      "text": "",
      "stayTimes": "16:00 - 16:00",
      "t_start": "2020-03-26T14:00:00",
      "t_end": "2020-03-26T14:00:00",
      "link": ""
    },
    {
      "id": 210710,
      "lat": 32.6695708410001,
      "lon": 35.2374570850001,
      "label": "סופר \"אושר עד\" - מגדל העמק",
      "text": "",
      "stayTimes": "13:00 - 14:00",
      "t_start": "2020-03-25T11:00:00",
      "t_end": "2020-03-25T12:00:00",
      "link": ""
    },
    {
      "id": 210711,
      "lat": 32.0258672000001,
      "lon": 34.8593382,
      "label": "סופר יש - אור יהודה",
      "text": "",
      "stayTimes": "18:00 - 18:30",
      "t_start": "2020-03-26T16:00:00",
      "t_end": "2020-03-26T16:30:00",
      "link": ""
    },
    {
      "id": 210712,
      "lat": 31.9313906,
      "lon": 35.0406651330001,
      "label": "מרפאת שיניים- ביודנט - מודיעין עילית",
      "text": "",
      "stayTimes": "11:30 - 18:00",
      "t_start": "2020-03-25T09:30:00",
      "t_end": "2020-03-25T16:00:00",
      "link": ""
    },
    {
      "id": 210713,
      "lat": 32.0860725360001,
      "lon": 34.8303938600001,
      "label": "מכבי מעבדה - בני ברק",
      "text": "",
      "stayTimes": "11:00 - 12:00",
      "t_start": "2020-03-24T09:00:00",
      "t_end": "2020-03-24T10:00:00",
      "link": ""
    },
    {
      "id": 210714,
      "lat": 32.0882709090001,
      "lon": 34.8252846180001,
      "label": "טיפת חלב הרצוג - בני ברק",
      "text": "",
      "stayTimes": "12:00 - 12:30",
      "t_start": "2020-03-27T10:00:00",
      "t_end": "2020-03-27T10:30:00",
      "link": ""
    },
    {
      "id": 210715,
      "lat": 32.7086484710001,
      "lon": 35.1729655870001,
      "label": "סופר האחים דוד - רמת ישי",
      "text": "",
      "stayTimes": "06:30 - 15:00",
      "t_start": "2020-03-24T04:30:00",
      "t_end": "2020-03-24T13:00:00",
      "link": ""
    },
    {
      "id": 210716,
      "lat": 32.7087613160001,
      "lon": 35.172962904,
      "label": "סופר האחים דוד - רמת ישי",
      "text": "",
      "stayTimes": "06:00 - 14:30",
      "t_start": "2020-03-25T04:00:00",
      "t_end": "2020-03-25T12:30:00",
      "link": ""
    },
    {
      "id": 210717,
      "lat": 32.7074447730001,
      "lon": 35.1735545060001,
      "label": "סופר אחים דוד - רמת ישי",
      "text": "",
      "stayTimes": "06:00 - 15:00",
      "t_start": "2020-03-26T04:00:00",
      "t_end": "2020-03-26T13:00:00",
      "link": ""
    },
    {
      "id": 210718,
      "lat": 32.7078946680001,
      "lon": 35.173445702,
      "label": "סופר האחים דוד - רמת ישי",
      "text": "",
      "stayTimes": "06:00 - 15:43",
      "t_start": "2020-03-29T04:00:00",
      "t_end": "2020-03-29T13:43:00",
      "link": ""
    },
    {
      "id": 210719,
      "lat": 32.708734233,
      "lon": 35.172954857,
      "label": "סופר האחים דוד - רמת ישי",
      "text": "",
      "stayTimes": "13:30 - 18:00",
      "t_start": "2020-03-30T11:30:00",
      "t_end": "2020-03-30T16:00:00",
      "link": ""
    },
    {
      "id": 210720,
      "lat": 31.755914444,
      "lon": 34.990648364,
      "label": "סופר פארם- ביג פשן - בית שמש",
      "text": "",
      "stayTimes": "16:15 - 16:45",
      "t_start": "2020-03-26T14:15:00",
      "t_end": "2020-03-26T14:45:00",
      "link": ""
    },
    {
      "id": 210721,
      "lat": 31.788912419,
      "lon": 34.6643911580001,
      "label": "מכבי פארם ,רובע ז, מרכזון רשבי , אשדוד בין השעות 11:00-11:15 - אשדוד",
      "text": "",
      "stayTimes": "08:00 - 08:00",
      "t_start": "2020-03-29T06:00:00",
      "t_end": "2020-03-29T06:00:00",
      "link": ""
    },
    {
      "id": 210722,
      "lat": 32.6694850420001,
      "lon": 35.2374973180001,
      "label": "אושר עד מגדל העמק - מגדל העמק",
      "text": "",
      "stayTimes": "14:35 - 15:30",
      "t_start": "2020-03-25T12:35:00",
      "t_end": "2020-03-25T13:30:00",
      "link": ""
    },
    {
      "id": 210723,
      "lat": 32.6782684,
      "lon": 35.2433929000001,
      "label": "שופרסל פרץ סנטר מגדל העמק - מגדל העמק",
      "text": "",
      "stayTimes": "13:30 - 14:30",
      "t_start": "2020-03-27T11:30:00",
      "t_end": "2020-03-27T12:30:00",
      "link": ""
    },
    {
      "id": 210724,
      "lat": 32.0897515830001,
      "lon": 34.8670658130001,
      "label": "בית חולים בלינסון - פתח תקווה",
      "text": "",
      "stayTimes": "04:00 - 07:00",
      "t_start": "2020-03-29T02:00:00",
      "t_end": "2020-03-29T05:00:00",
      "link": ""
    },
    {
      "id": 210725,
      "lat": 32.0327898580001,
      "lon": 34.8510575890001,
      "label": "יוחננוף - אור יהודה",
      "text": "",
      "stayTimes": "07:00 - 07:30",
      "t_start": "2020-03-27T05:00:00",
      "t_end": "2020-03-27T05:30:00",
      "link": ""
    },
    {
      "id": 210726,
      "lat": 32.1581507000001,
      "lon": 34.8947393,
      "label": "דואר ישראל - הוד השרון",
      "text": "",
      "stayTimes": "12:00 - 12:30",
      "t_start": "2020-03-25T10:00:00",
      "t_end": "2020-03-25T10:30:00",
      "link": ""
    },
    {
      "id": 210727,
      "lat": 32.132282581,
      "lon": 34.901173149,
      "label": "חצי חינם - הוד השרון",
      "text": "",
      "stayTimes": "10:30 - 11:30",
      "t_start": "2020-03-25T08:30:00",
      "t_end": "2020-03-25T09:30:00",
      "link": ""
    },
    {
      "id": 210728,
      "lat": 32.087882506,
      "lon": 34.8599185310001,
      "label": "שופרסל - פתח תקווה",
      "text": "",
      "stayTimes": "09:00 - 10:00",
      "t_start": "2020-03-25T07:00:00",
      "t_end": "2020-03-25T08:00:00",
      "link": ""
    },
    {
      "id": 210729,
      "lat": 32.0845015290001,
      "lon": 34.829780268,
      "label": "בית הכנסת ביילא - בני ברק",
      "text": "",
      "stayTimes": "10:00 - 11:00",
      "t_start": "2020-03-24T08:00:00",
      "t_end": "2020-03-24T09:00:00",
      "link": ""
    },
    {
      "id": 210730,
      "lat": 32.1058370000001,
      "lon": 34.8923941,
      "label": "אושר עד - פתח תקווה",
      "text": "",
      "stayTimes": "16:00 - 17:30",
      "t_start": "2020-03-26T14:00:00",
      "t_end": "2020-03-26T15:30:00",
      "link": ""
    },
    {
      "id": 210731,
      "lat": 32.085266862,
      "lon": 34.830416728,
      "label": "בית הכנסת מבעלזא - בני ברק",
      "text": "",
      "stayTimes": "17:00 - 17:30",
      "t_start": "2020-03-28T15:00:00",
      "t_end": "2020-03-28T15:30:00",
      "link": ""
    },
    {
      "id": 210732,
      "lat": 32.1116406570001,
      "lon": 34.79511976,
      "label": "קניון רמת אביב - תל אביב - יפו",
      "text": "",
      "stayTimes": "15:00 - 23:00",
      "t_start": "2020-03-24T13:00:00",
      "t_end": "2020-03-23T21:00:00",
      "link": ""
    },
    {
      "id": 210733,
      "lat": 32.1116406570001,
      "lon": 34.79511976,
      "label": "קניון רמת אביב - תל אביב - יפו",
      "text": "",
      "stayTimes": "14:00 - 15:30",
      "t_start": "2020-03-25T12:00:00",
      "t_end": "2020-03-25T13:30:00",
      "link": ""
    },
    {
      "id": 210734,
      "lat": 32.0899863330001,
      "lon": 34.8282752060001,
      "label": "ישיבה סלבודקה - בני ברק",
      "text": "",
      "stayTimes": "08:00 - 08:00",
      "t_start": "2020-04-21T06:00:00",
      "t_end": "2020-03-23T06:00:00",
      "link": ""
    },
    {
      "id": 210735,
      "lat": 32.0603095640001,
      "lon": 34.8161362490001,
      "label": "מאפיית האחים - גבעתיים",
      "text": "",
      "stayTimes": "07:00 - 08:00",
      "t_start": "2020-03-27T05:00:00",
      "t_end": "2020-03-27T06:00:00",
      "link": ""
    },
    {
      "id": 210736,
      "lat": 32.060656055,
      "lon": 34.8161008880001,
      "label": "חוות נעמי - חנות גבינות - גבעתיים",
      "text": "",
      "stayTimes": "08:00 - 09:00",
      "t_start": "2020-03-27T06:00:00",
      "t_end": "2020-03-27T07:00:00",
      "link": ""
    },
    {
      "id": 210737,
      "lat": 31.932267546,
      "lon": 35.0421592930001,
      "label": "בית כנסת קהל חסידים שכונת נאות הפסגה - מודיעין עילית",
      "text": "",
      "stayTimes": "09:15 - 10:40",
      "t_start": "2020-03-25T07:15:00",
      "t_end": "2020-03-25T08:40:00",
      "link": ""
    },
    {
      "id": 210738,
      "lat": 31.9277091000001,
      "lon": 35.0472917000001,
      "label": "בית כנסת המרכז נאות הפסגה - מודיעין עילית",
      "text": "",
      "stayTimes": "13:15 - 14:30",
      "t_start": "2020-03-25T11:15:00",
      "t_end": "2020-03-25T12:30:00",
      "link": ""
    },
    {
      "id": 210739,
      "lat": 31.781289971,
      "lon": 35.220061996,
      "label": "בית כנסת קהל חסידים נאות הפסגה - מודיעין עילית",
      "text": "",
      "stayTimes": "09:15 - 10:45",
      "t_start": "2020-03-26T07:15:00",
      "t_end": "2020-03-26T08:45:00",
      "link": ""
    },
    {
      "id": 210740,
      "lat": 32.0871045220001,
      "lon": 34.8371399550001,
      "label": "בית ספר תלמוד תורה קרולין - בני ברק",
      "text": "",
      "stayTimes": "08:30 - 12:15",
      "t_start": "2020-03-24T06:30:00",
      "t_end": "2020-03-24T10:15:00",
      "link": ""
    },
    {
      "id": 210741,
      "lat": 32.087420208,
      "lon": 34.8372465310001,
      "label": "בית ספר תלמוד תורה קרולין - בני ברק",
      "text": "",
      "stayTimes": "08:30 - 12:15",
      "t_start": "2020-03-25T06:30:00",
      "t_end": "2020-03-25T10:15:00",
      "link": ""
    },
    {
      "id": 210742,
      "lat": 32.0874281590001,
      "lon": 34.8369161680001,
      "label": "בית ספר תלמוד תורה קרולין - בני ברק",
      "text": "",
      "stayTimes": "08:30 - 12:15",
      "t_start": "2020-03-26T06:30:00",
      "t_end": "2020-03-26T10:15:00",
      "link": ""
    },
    {
      "id": 210743,
      "lat": 31.7278229,
      "lon": 34.7541390000001,
      "label": "רמי לוי - קרית מלאכי",
      "text": "",
      "stayTimes": "19:30 - 20:30",
      "t_start": "2020-03-24T17:30:00",
      "t_end": "2020-03-24T18:30:00",
      "link": ""
    },
    {
      "id": 210744,
      "lat": 31.72654185,
      "lon": 34.7450478210001,
      "label": "חנות ויקטורי - קרית מלאכי",
      "text": "",
      "stayTimes": "18:00 - 19:30",
      "t_start": "2020-03-24T16:00:00",
      "t_end": "2020-03-24T17:30:00",
      "link": ""
    },
    {
      "id": 210745,
      "lat": 32.621038034,
      "lon": 35.3165950600001,
      "label": "פנימית ג' העמק עפולה - עפולה",
      "text": "",
      "stayTimes": "16:30 - 17:00",
      "t_start": "2020-03-29T14:30:00",
      "t_end": "2020-03-29T15:00:00",
      "link": ""
    },
    {
      "id": 210746,
      "lat": 32.611947877,
      "lon": 35.290123898,
      "label": "קופת כללית עומר - עפולה",
      "text": "",
      "stayTimes": "08:10 - 08:15",
      "t_start": "2020-03-29T06:10:00",
      "t_end": "2020-03-29T06:15:00",
      "link": ""
    },
    {
      "id": 210747,
      "lat": 32.621038034,
      "lon": 35.3165950600001,
      "label": "מיון העמק - עפולה",
      "text": "",
      "stayTimes": "08:30 - 16:30",
      "t_start": "2020-03-29T06:30:00",
      "t_end": "2020-03-29T14:30:00",
      "link": ""
    },
    {
      "id": 210748,
      "lat": 32.6036290660001,
      "lon": 35.2985224650001,
      "label": "רשת ויקטורי - עפולה",
      "text": "",
      "stayTimes": "09:30 - 10:30",
      "t_start": "2020-03-27T07:30:00",
      "t_end": "2020-03-27T08:30:00",
      "link": ""
    },
    {
      "id": 210749,
      "lat": 32.6038847,
      "lon": 35.2930428000001,
      "label": "רמי לוי - עפולה",
      "text": "",
      "stayTimes": "17:00 - 17:30",
      "t_start": "2020-03-25T15:00:00",
      "t_end": "2020-03-25T15:30:00",
      "link": ""
    },
    {
      "id": 210750,
      "lat": 32.6066989,
      "lon": 35.2913046,
      "label": "בנק מזרחי טפחות - עפולה",
      "text": "",
      "stayTimes": "08:00 - 15:00",
      "t_start": "2020-03-26T06:00:00",
      "t_end": "2020-03-26T13:00:00",
      "link": ""
    },
    {
      "id": 210751,
      "lat": 32.7044268000001,
      "lon": 35.3185582,
      "label": "אושר עד - נוף הגליל",
      "text": "",
      "stayTimes": "20:30 - 21:30",
      "t_start": "2020-03-24T18:30:00",
      "t_end": "2020-03-24T19:30:00",
      "link": ""
    },
    {
      "id": 210752,
      "lat": 32.7112741880001,
      "lon": 35.3248780000001,
      "label": "עירית נוף הגליל - אריזת אוכל לקשישים - נוף הגליל",
      "text": "",
      "stayTimes": "19:00 - 21:30",
      "t_start": "2020-03-25T17:00:00",
      "t_end": "2020-03-25T19:30:00",
      "link": ""
    },
    {
      "id": 210753,
      "lat": 31.7961974,
      "lon": 34.6658564000001,
      "label": "הנדסת מערכות 6410 אלתא מערכות בע\"מ - אשדוד",
      "text": "",
      "stayTimes": "07:30 - 16:30",
      "t_start": "2020-03-24T05:30:00",
      "t_end": "2020-03-24T14:30:00",
      "link": ""
    },
    {
      "id": 210754,
      "lat": 31.7963021630001,
      "lon": 34.6658926320001,
      "label": "הנדסת מערכות 6410 אלתא - אשדוד",
      "text": "",
      "stayTimes": "07:30 - 16:30",
      "t_start": "2020-03-25T05:30:00",
      "t_end": "2020-03-25T14:30:00",
      "link": ""
    },
    {
      "id": 210755,
      "lat": 31.7961974,
      "lon": 34.6658564000001,
      "label": "הנדסת מערכות 6410 אלתא מערכות בע\"מ - אשדוד",
      "text": "",
      "stayTimes": "07:30 - 16:30",
      "t_start": "2020-03-26T05:30:00",
      "t_end": "2020-03-26T14:30:00",
      "link": ""
    },
    {
      "id": 210756,
      "lat": 31.781289971,
      "lon": 35.220061996,
      "label": "בית כנסת קהל חסידים - מודיעין עילית",
      "text": "",
      "stayTimes": "10:15 - 12:00",
      "t_start": "2020-03-28T08:15:00",
      "t_end": "2020-03-28T10:00:00",
      "link": ""
    },
    {
      "id": 210757,
      "lat": 32.250529855,
      "lon": 34.9188569030001,
      "label": "ירקות ופירות אבנר - תל מונד",
      "text": "",
      "stayTimes": "09:00 - 11:00",
      "t_start": "2020-03-26T07:00:00",
      "t_end": "2020-03-26T09:00:00",
      "link": ""
    },
    {
      "id": 210758,
      "lat": 32.2760115410001,
      "lon": 34.9208805270001,
      "label": "רמי לוי - קדימה-צורן",
      "text": "",
      "stayTimes": "16:00 - 16:30",
      "t_start": "2020-03-24T14:00:00",
      "t_end": "2020-03-24T14:30:00",
      "link": ""
    },
    {
      "id": 210759,
      "lat": 32.0857163680001,
      "lon": 34.8435804440001,
      "label": "צרכניית נתיב החסד - בני ברק",
      "text": "",
      "stayTimes": "13:45 - 14:00",
      "t_start": "2020-03-24T11:45:00",
      "t_end": "2020-03-24T12:00:00",
      "link": ""
    },
    {
      "id": 210760,
      "lat": 31.618339125,
      "lon": 34.752510682,
      "label": "סופרמרקט \"שפע ברכה\" - קרית גת",
      "text": "",
      "stayTimes": "11:30 - 13:00",
      "t_start": "2020-03-27T09:30:00",
      "t_end": "2020-03-27T11:00:00",
      "link": ""
    },
    {
      "id": 210761,
      "lat": 31.9277091000001,
      "lon": 35.0472917000001,
      "label": "בית כנסת מרכזי נאות הפסגה - מודיעין עילית",
      "text": "",
      "stayTimes": "06:30 - 07:30",
      "t_start": "2020-03-24T04:30:00",
      "t_end": "2020-03-24T05:30:00",
      "link": ""
    },
    {
      "id": 210762,
      "lat": 32.0832963890001,
      "lon": 34.8379620100001,
      "label": "כולל עמלי תורה - בני ברק",
      "text": "",
      "stayTimes": "10:30 - 13:00",
      "t_start": "2020-03-24T08:30:00",
      "t_end": "2020-03-24T11:00:00",
      "link": ""
    },
    {
      "id": 210763,
      "lat": 32.90338337,
      "lon": 35.280494596,
      "label": "סופר שלי כרמיאל - כרמיאל",
      "text": "",
      "stayTimes": "14:00 - 15:00",
      "t_start": "2020-03-29T12:00:00",
      "t_end": "2020-03-29T13:00:00",
      "link": ""
    },
    {
      "id": 210764,
      "lat": 33.0078689630001,
      "lon": 35.093251561,
      "label": "הרמיתג סיטי - חנות למשקאות חריפות - נהריה",
      "text": "",
      "stayTimes": "14:00 - 14:15",
      "t_start": "2020-03-26T12:00:00",
      "t_end": "2020-03-26T12:15:00",
      "link": ""
    },
    {
      "id": 210765,
      "lat": 31.7789552,
      "lon": 34.6570806,
      "label": "אסותא - אשדוד",
      "text": "",
      "stayTimes": "12:00 - 22:00",
      "t_start": "2020-03-25T10:00:00",
      "t_end": "2020-03-25T20:00:00",
      "link": ""
    },
    {
      "id": 210766,
      "lat": 31.9497430210001,
      "lon": 34.8903589280001,
      "label": "סניף חיסכון - לוד",
      "text": "",
      "stayTimes": "08:00 - 08:30",
      "t_start": "2020-03-30T06:00:00",
      "t_end": "2020-03-30T06:30:00",
      "link": ""
    },
    {
      "id": 210767,
      "lat": 31.9497430210001,
      "lon": 34.8903589280001,
      "label": "סניף חסכון - לוד",
      "text": "",
      "stayTimes": "10:00 - 10:30",
      "t_start": "2020-03-29T08:00:00",
      "t_end": "2020-03-29T08:30:00",
      "link": ""
    },
    {
      "id": 210768,
      "lat": 31.947558379,
      "lon": 34.891374737,
      "label": "טרם - לוד",
      "text": "",
      "stayTimes": "11:00 - 12:00",
      "t_start": "2020-03-29T09:00:00",
      "t_end": "2020-03-29T10:00:00",
      "link": ""
    },
    {
      "id": 210769,
      "lat": 31.824144926,
      "lon": 35.237467811,
      "label": "סופר פארם - ירושלים",
      "text": "",
      "stayTimes": "18:00 - 20:00",
      "t_start": "2020-03-24T16:00:00",
      "t_end": "2020-03-24T18:00:00",
      "link": ""
    },
    {
      "id": 210770,
      "lat": 31.7923851190001,
      "lon": 34.8242100000001,
      "label": "מחסני השוק - יד בנימין",
      "text": "",
      "stayTimes": "17:00 - 17:30",
      "t_start": "2020-03-26T15:00:00",
      "t_end": "2020-03-26T15:30:00",
      "link": ""
    },
    {
      "id": 210771,
      "lat": 32.0468299,
      "lon": 34.9085715000001,
      "label": "סופרמרקט יש חסד מתחם פאוור סנטר - בארות יצחק",
      "text": "",
      "stayTimes": "14:00 - 14:30",
      "t_start": "2020-03-27T12:00:00",
      "t_end": "2020-03-27T12:30:00",
      "link": ""
    },
    {
      "id": 210772,
      "lat": 32.0152498,
      "lon": 34.7567722000001,
      "label": "סופר דוש - בת ים",
      "text": "",
      "stayTimes": "11:30 - 12:15",
      "t_start": "2020-03-29T09:30:00",
      "t_end": "2020-03-29T10:15:00",
      "link": ""
    },
    {
      "id": 210773,
      "lat": 31.9328128120001,
      "lon": 35.045095127,
      "label": "צרכניית בר כל - מודיעין עילית",
      "text": "",
      "stayTimes": "09:00 - 10:00",
      "t_start": "2020-03-26T07:00:00",
      "t_end": "2020-03-26T08:00:00",
      "link": ""
    },
    {
      "id": 210774,
      "lat": 30.6119140070001,
      "lon": 34.7971998570001,
      "label": "למד בישיבה בחלק של עזרת נשים \"מדברה כעדן\" - מצפה רמון",
      "text": "",
      "stayTimes": "10:00 - 14:30",
      "t_start": "2020-03-25T08:00:00",
      "t_end": "2020-03-25T12:30:00",
      "link": ""
    },
    {
      "id": 210775,
      "lat": 30.6119140070001,
      "lon": 34.7971998570001,
      "label": "ישיבה \"מדברה כעדן\" - מצפה רמון",
      "text": "",
      "stayTimes": "23:00 - 23:30",
      "t_start": "2020-03-25T21:00:00",
      "t_end": "2020-03-25T21:30:00",
      "link": ""
    },
    {
      "id": 210776,
      "lat": 30.6115821540001,
      "lon": 34.7972554090001,
      "label": "יצאו כל בני המשפחה לישיבה \"מדברה כעדן\" - מצפה רמון",
      "text": "",
      "stayTimes": "11:30 - 12:30",
      "t_start": "2020-03-28T09:30:00",
      "t_end": "2020-03-28T10:30:00",
      "link": ""
    },
    {
      "id": 210777,
      "lat": 31.7997442980001,
      "lon": 34.6623996050001,
      "label": "מוקד טרם - אשדוד",
      "text": "",
      "stayTimes": "01:00 - 02:00",
      "t_start": "2020-03-28T23:00:00",
      "t_end": "2020-03-29T00:00:00",
      "link": ""
    },
    {
      "id": 210778,
      "lat": 31.7997442980001,
      "lon": 34.6623996050001,
      "label": "מוקד טרם - אשדוד",
      "text": "",
      "stayTimes": "10:30 - 11:05",
      "t_start": "2020-03-29T08:30:00",
      "t_end": "2020-03-29T09:05:00",
      "link": ""
    },
    {
      "id": 210779,
      "lat": 31.998652168,
      "lon": 34.766074342,
      "label": "בית מרקחת - חולון",
      "text": "",
      "stayTimes": "11:30 - 12:00",
      "t_start": "2020-03-24T09:30:00",
      "t_end": "2020-03-24T10:00:00",
      "link": ""
    },
    {
      "id": 210780,
      "lat": 32.0852319370001,
      "lon": 34.841246271,
      "label": "בית כנסת וואסלוי - בני ברק",
      "text": "",
      "stayTimes": "12:15 - 13:00",
      "t_start": "2020-03-25T10:15:00",
      "t_end": "2020-03-25T11:00:00",
      "link": ""
    },
    {
      "id": 210781,
      "lat": 32.0894035000001,
      "lon": 34.8297563,
      "label": "בית ספר בית יעקב - בני ברק",
      "text": "",
      "stayTimes": "06:00 - 07:00",
      "t_start": "2020-03-28T04:00:00",
      "t_end": "2020-03-28T05:00:00",
      "link": ""
    },
    {
      "id": 210782,
      "lat": 31.9189937570001,
      "lon": 34.869716645,
      "label": "יינות ביתן - רמלה",
      "text": "",
      "stayTimes": "16:00 - 17:00",
      "t_start": "2020-03-24T14:00:00",
      "t_end": "2020-03-24T15:00:00",
      "link": ""
    },
    {
      "id": 210783,
      "lat": 31.7931710980001,
      "lon": 34.63977012,
      "label": "סיטי  מרכז בריאות האשה - אשדוד",
      "text": "",
      "stayTimes": "17:00 - 18:00",
      "t_start": "2020-03-30T15:00:00",
      "t_end": "2020-03-30T16:00:00",
      "link": ""
    },
    {
      "id": 210784,
      "lat": 31.8031798000001,
      "lon": 34.6603225000001,
      "label": "כללית  איזור ג - אשדוד",
      "text": "",
      "stayTimes": "08:00 - 09:00",
      "t_start": "2020-03-25T06:00:00",
      "t_end": "2020-03-25T07:00:00",
      "link": ""
    },
    {
      "id": 210785,
      "lat": 32.096632309,
      "lon": 34.84073449,
      "label": "קופת חולים מאוחדת חדר אחיות - בני ברק",
      "text": "",
      "stayTimes": "12:00 - 12:30",
      "t_start": "2020-03-24T10:00:00",
      "t_end": "2020-03-24T10:30:00",
      "link": ""
    },
    {
      "id": 210786,
      "lat": 31.814293956,
      "lon": 34.7764854500001,
      "label": "מעון \" עלי מוריה\" - גדרה",
      "text": "",
      "stayTimes": "08:00 - 12:00",
      "t_start": "2020-03-25T06:00:00",
      "t_end": "2020-03-25T10:00:00",
      "link": ""
    },
    {
      "id": 210787,
      "lat": 32.2696101280001,
      "lon": 34.888102858,
      "label": "מכולת \"הצרכניה\" - אבן יהודה",
      "text": "",
      "stayTimes": "16:00 - 16:30",
      "t_start": "2020-03-26T14:00:00",
      "t_end": "2020-03-26T14:30:00",
      "link": ""
    },
    {
      "id": 210788,
      "lat": 32.1823231000001,
      "lon": 34.8954868000001,
      "label": "בי\"ח מאיר , מח' יולדות ג' - כפר סבא",
      "text": "",
      "stayTimes": "21:30 - 08:30",
      "t_start": "2020-03-24T19:30:00",
      "t_end": "2020-03-25T06:30:00",
      "link": ""
    },
    {
      "id": 210789,
      "lat": 32.2926403000001,
      "lon": 34.8624596000001,
      "label": "רמי לוי - נתניה",
      "text": "",
      "stayTimes": "16:45 - 17:20",
      "t_start": "2020-03-26T14:45:00",
      "t_end": "2020-03-26T15:20:00",
      "link": ""
    },
    {
      "id": 210790,
      "lat": 32.2926403000001,
      "lon": 34.8624596000001,
      "label": "רמי לוי - נתניה",
      "text": "",
      "stayTimes": "12:00 - 13:05",
      "t_start": "2020-03-25T10:00:00",
      "t_end": "2020-03-25T11:05:00",
      "link": ""
    },
    {
      "id": 210791,
      "lat": 32.3205556,
      "lon": 34.8711111000001,
      "label": "ויקטורי - נתניה",
      "text": "",
      "stayTimes": "13:50 - 14:10",
      "t_start": "2020-03-27T11:50:00",
      "t_end": "2020-03-27T12:10:00",
      "link": ""
    },
    {
      "id": 210792,
      "lat": 32.3212566510001,
      "lon": 34.8727711230001,
      "label": "תחנת דלק \"סדש\" - נתניה",
      "text": "",
      "stayTimes": "14:10 - 14:20",
      "t_start": "2020-03-27T12:10:00",
      "t_end": "2020-03-27T12:20:00",
      "link": ""
    },
    {
      "id": 210793,
      "lat": 31.9304891,
      "lon": 35.038692,
      "label": "חנות \"יש\" - מודיעין עילית",
      "text": "",
      "stayTimes": "21:00 - 22:00",
      "t_start": "2020-03-24T19:00:00",
      "t_end": "2020-03-24T20:00:00",
      "link": ""
    },
    {
      "id": 210794,
      "lat": 31.92961846,
      "lon": 35.0388973340001,
      "label": "חנות \"כלבו בולומנט\" מרכז קסם - מודיעין עילית",
      "text": "",
      "stayTimes": "16:45 - 17:30",
      "t_start": "2020-03-25T14:45:00",
      "t_end": "2020-03-25T15:30:00",
      "link": ""
    },
    {
      "id": 210795,
      "lat": 31.925733742,
      "lon": 35.0406244370001,
      "label": "תפילה במניין - מודיעין עילית",
      "text": "",
      "stayTimes": "12:00 - 12:30",
      "t_start": "2020-03-25T10:00:00",
      "t_end": "2020-03-25T10:30:00",
      "link": ""
    },
    {
      "id": 210796,
      "lat": 31.922300819,
      "lon": 34.8102361430001,
      "label": "סופר פרם - נס ציונה",
      "text": "",
      "stayTimes": "12:00 - 12:30",
      "t_start": "2020-03-26T10:00:00",
      "t_end": "2020-03-26T10:30:00",
      "link": ""
    },
    {
      "id": 210797,
      "lat": 31.9223019,
      "lon": 34.810235,
      "label": "מגה בעיר - נס ציונה",
      "text": "",
      "stayTimes": "13:00 - 13:15",
      "t_start": "2020-03-26T11:00:00",
      "t_end": "2020-03-26T11:15:00",
      "link": ""
    },
    {
      "id": 210798,
      "lat": 31.983661828,
      "lon": 34.7823120940001,
      "label": "מכון דימות מ.א.ר - ראשון לציון",
      "text": "",
      "stayTimes": "13:00 - 13:30",
      "t_start": "2020-03-24T11:00:00",
      "t_end": "2020-03-24T11:30:00",
      "link": ""
    },
    {
      "id": 210799,
      "lat": 31.966236458,
      "lon": 34.8397994380001,
      "label": "סופר פרם, סניף אסף הרופא - ראשון לציון",
      "text": "",
      "stayTimes": "17:30 - 18:00",
      "t_start": "2020-03-25T15:30:00",
      "t_end": "2020-03-25T16:00:00",
      "link": ""
    },
    {
      "id": 210800,
      "lat": 31.9667644,
      "lon": 34.8398698,
      "label": "מיון אסף הרופא - ראשון לציון",
      "text": "",
      "stayTimes": "19:00 - 00:00",
      "t_start": "2020-03-25T17:00:00",
      "t_end": "2020-03-24T22:00:00",
      "link": ""
    },
    {
      "id": 210801,
      "lat": 32.073142675,
      "lon": 34.8394379160001,
      "label": "מינימרקט ציון - בני ברק",
      "text": "",
      "stayTimes": "08:00 - 09:00",
      "t_start": "2020-03-24T06:00:00",
      "t_end": "2020-03-24T07:00:00",
      "link": ""
    },
    {
      "id": 210802,
      "lat": 32.791020406,
      "lon": 34.965063656,
      "label": "בדיקת קורונה - חיפה",
      "text": "",
      "stayTimes": "17:00 - 17:02",
      "t_start": "2020-03-24T15:00:00",
      "t_end": "2020-03-24T15:02:00",
      "link": ""
    },
    {
      "id": 210803,
      "lat": 32.7910993240001,
      "lon": 34.965111936,
      "label": "בדיקת קורונה - חיפה",
      "text": "",
      "stayTimes": "11:00 - 11:02",
      "t_start": "2020-03-30T09:00:00",
      "t_end": "2020-03-30T09:02:00",
      "link": ""
    },
    {
      "id": 210804,
      "lat": 32.1541555580001,
      "lon": 34.841306807,
      "label": "פרי וירק אמירים - הרצליה",
      "text": "",
      "stayTimes": "15:15 - 15:30",
      "t_start": "2020-03-26T13:15:00",
      "t_end": "2020-03-26T13:30:00",
      "link": ""
    },
    {
      "id": 210805,
      "lat": 32.1538782000001,
      "lon": 34.8417392000001,
      "label": "מגה בעיר נוה אמירים - הרצליה",
      "text": "",
      "stayTimes": "15:30 - 16:00",
      "t_start": "2020-03-26T13:30:00",
      "t_end": "2020-03-26T14:00:00",
      "link": ""
    },
    {
      "id": 210806,
      "lat": 32.3141349260001,
      "lon": 34.8733920670001,
      "label": "\"המוזלים\" - נתניה",
      "text": "",
      "stayTimes": "16:00 - 16:20",
      "t_start": "2020-03-25T14:00:00",
      "t_end": "2020-03-25T14:20:00",
      "link": ""
    },
    {
      "id": 210807,
      "lat": 31.7526283400001,
      "lon": 35.216555892,
      "label": "מוסך \"לובינסקי\", סניף תלפיות - ירושלים",
      "text": "",
      "stayTimes": "09:00 - 09:20",
      "t_start": "2020-03-26T07:00:00",
      "t_end": "2020-03-26T07:20:00",
      "link": ""
    },
    {
      "id": 210808,
      "lat": 32.310277092,
      "lon": 34.8718715310001,
      "label": "סופר \"רמי לוי\" - נתניה",
      "text": "",
      "stayTimes": "16:30 - 17:45",
      "t_start": "2020-03-25T14:30:00",
      "t_end": "2020-03-25T15:45:00",
      "link": ""
    },
    {
      "id": 210809,
      "lat": 32.257351984,
      "lon": 34.9205700050001,
      "label": "\"בית המאפה הצועני\" - תל מונד",
      "text": "",
      "stayTimes": "15:00 - 15:30",
      "t_start": "2020-03-25T13:00:00",
      "t_end": "2020-03-25T13:30:00",
      "link": ""
    },
    {
      "id": 210810,
      "lat": 31.397195127,
      "lon": 34.7604720250001,
      "label": "ביוטי סנטר - רהט",
      "text": "",
      "stayTimes": "10:00 - 17:00",
      "t_start": "2020-03-25T08:00:00",
      "t_end": "2020-03-25T15:00:00",
      "link": ""
    },
    {
      "id": 210811,
      "lat": 32.675927008,
      "lon": 35.238503918,
      "label": "מעיין 200 סופר מרקט - מגדל העמק",
      "text": "",
      "stayTimes": "11:20 - 11:40",
      "t_start": "2020-03-25T09:20:00",
      "t_end": "2020-03-25T09:40:00",
      "link": ""
    },
    {
      "id": 210812,
      "lat": 32.676082756,
      "lon": 35.24011467,
      "label": "קניון לב העמק - מגדל העמק",
      "text": "",
      "stayTimes": "11:40 - 12:10",
      "t_start": "2020-03-25T09:40:00",
      "t_end": "2020-03-25T10:10:00",
      "link": ""
    },
    {
      "id": 210813,
      "lat": 32.522902952,
      "lon": 35.3240745430001,
      "label": "קופת חולים כללית - צנדלה",
      "text": "",
      "stayTimes": "14:15 - 14:30",
      "t_start": "2020-03-29T12:15:00",
      "t_end": "2020-03-29T12:30:00",
      "link": ""
    },
    {
      "id": 210814,
      "lat": 31.7905812710001,
      "lon": 35.2018959070001,
      "label": "מוקד משרד הבריאות - ירושלים",
      "text": "",
      "stayTimes": "07:00 - 13:30",
      "t_start": "2020-03-24T05:00:00",
      "t_end": "2020-03-24T11:30:00",
      "link": ""
    },
    {
      "id": 210815,
      "lat": 32.0795895000001,
      "lon": 34.7678729,
      "label": "מלון דן תל אביב (הגיע באמבולנס למלון דן תל אביב). - תל אביב - יפו",
      "text": "",
      "stayTimes": "08:00 - 08:00",
      "t_start": "2020-03-25T06:00:00",
      "t_end": "2020-03-25T06:00:00",
      "link": ""
    },
    {
      "id": 210816,
      "lat": 32.9052622,
      "lon": 35.2999467000001,
      "label": "קופת חולים מאוחדת - כרמיאל",
      "text": "",
      "stayTimes": "08:30 - 09:00",
      "t_start": "2020-03-24T06:30:00",
      "t_end": "2020-03-24T07:00:00",
      "link": ""
    },
    {
      "id": 210817,
      "lat": 32.0803456020001,
      "lon": 34.7904331180001,
      "label": "מיון איכילוב - תל אביב - יפו",
      "text": "",
      "stayTimes": "16:00 - 21:00",
      "t_start": "2020-03-24T14:00:00",
      "t_end": "2020-03-24T19:00:00",
      "link": ""
    },
    {
      "id": 210818,
      "lat": 32.6764703170001,
      "lon": 35.2416815770001,
      "label": "מרפאה בקופ\"ח מכבי משעול הכרמים 1 - מגדל העמק",
      "text": "",
      "stayTimes": "14:45 - 15:00",
      "t_start": "2020-03-24T12:45:00",
      "t_end": "2020-03-24T13:00:00",
      "link": ""
    },
    {
      "id": 210819,
      "lat": 32.0452360780001,
      "lon": 34.842521306,
      "label": "מיון נשים - רמת גן",
      "text": "",
      "stayTimes": "01:00 - 06:00",
      "t_start": "2020-03-24T23:00:00",
      "t_end": "2020-03-25T04:00:00",
      "link": ""
    },
    {
      "id": 210820,
      "lat": 32.07935323,
      "lon": 34.7889394000001,
      "label": "מדא - אשקלון",
      "text": "",
      "stayTimes": "08:00 - 08:00",
      "t_start": "2020-03-25T06:00:00",
      "t_end": "2020-03-25T06:00:00",
      "link": ""
    },
    {
      "id": 210821,
      "lat": 31.6756257530001,
      "lon": 34.5580818010001,
      "label": "הוסטל -דיור מוגן - אשקלון",
      "text": "",
      "stayTimes": "08:00 - 08:00",
      "t_start": "2020-03-25T06:00:00",
      "t_end": "2020-03-25T06:00:00",
      "link": ""
    },
    {
      "id": 210822,
      "lat": 31.930992632,
      "lon": 35.0396411290001,
      "label": "טרם רפואה דחופה - מודיעין עילית",
      "text": "",
      "stayTimes": "17:50 - 18:30",
      "t_start": "2020-03-30T15:50:00",
      "t_end": "2020-03-30T16:30:00",
      "link": ""
    },
    {
      "id": 210823,
      "lat": 31.930264417,
      "lon": 35.038611476,
      "label": "קופת חולים מכבי- אבני עזר - מודיעין עילית",
      "text": "",
      "stayTimes": "10:00 - 08:00",
      "t_start": "2020-03-30T08:00:00",
      "t_end": "2020-03-30T06:00:00",
      "link": ""
    },
    {
      "id": 210824,
      "lat": 32.0948349940001,
      "lon": 34.847044666,
      "label": "חברת אגוז סוכנויות ביטוח קומה 3 - פתח תקווה",
      "text": "",
      "stayTimes": "12:00 - 19:00",
      "t_start": "2020-03-26T10:00:00",
      "t_end": "2020-03-26T17:00:00",
      "link": ""
    },
    {
      "id": 210825,
      "lat": 32.0948349940001,
      "lon": 34.847044666,
      "label": "חברת אגוז סוכנויות ביטוח קומה 3 - פתח תקווה",
      "text": "",
      "stayTimes": "12:00 - 19:00",
      "t_start": "2020-03-24T10:00:00",
      "t_end": "2020-03-24T17:00:00",
      "link": ""
    },
    {
      "id": 210826,
      "lat": 32.1842910670001,
      "lon": 34.9367084360001,
      "label": "מרפאה כללית קפלן - כפר סבא",
      "text": "",
      "stayTimes": "09:00 - 09:30",
      "t_start": "2020-03-25T07:00:00",
      "t_end": "2020-03-25T07:30:00",
      "link": ""
    },
    {
      "id": 210827,
      "lat": 31.9460930000001,
      "lon": 34.8176970000001,
      "label": "פז ילו ראשלצ - ראשון לציון",
      "text": "",
      "stayTimes": "08:00 - 08:00",
      "t_start": "2020-03-24T06:00:00",
      "t_end": "2020-03-24T06:00:00",
      "link": ""
    },
    {
      "id": 210828,
      "lat": 31.933234617,
      "lon": 35.0473045140001,
      "label": "בית כנסת יחל  ישראל - מודיעין עילית",
      "text": "",
      "stayTimes": "08:00 - 09:00",
      "t_start": "2020-03-24T06:00:00",
      "t_end": "2020-03-24T07:00:00",
      "link": ""
    },
    {
      "id": 210829,
      "lat": 31.925880814,
      "lon": 35.040049851,
      "label": "ישיבת כנסת יצחק  קרית ספר - מודיעין עילית",
      "text": "",
      "stayTimes": "11:00 - 13:00",
      "t_start": "2020-03-24T09:00:00",
      "t_end": "2020-03-24T11:00:00",
      "link": ""
    },
    {
      "id": 210830,
      "lat": 31.796859268,
      "lon": 35.241855844,
      "label": "איש בטחון בהדסה הר הצופים - ירושלים",
      "text": "",
      "stayTimes": "15:00 - 23:00",
      "t_start": "2020-03-25T13:00:00",
      "t_end": "2020-03-25T21:00:00",
      "link": ""
    },
    {
      "id": 210831,
      "lat": 32.841481,
      "lon": 35.067818,
      "label": "בית כנסת שבט אחים - קרית אתא",
      "text": "",
      "stayTimes": "18:00 - 18:15",
      "t_start": "2020-03-24T16:00:00",
      "t_end": "2020-03-24T16:15:00",
      "link": ""
    },
    {
      "id": 210832,
      "lat": 32.811724601,
      "lon": 35.1093060260001,
      "label": "בית כנסת חב\"ד - קרית אתא",
      "text": "",
      "stayTimes": "09:00 - 10:00",
      "t_start": "2020-03-24T07:00:00",
      "t_end": "2020-03-24T08:00:00",
      "link": ""
    },
    {
      "id": 210833,
      "lat": 31.9879464570001,
      "lon": 34.761568975,
      "label": "חנות חצי חינם אזור התעשיה חדש ראשון לציון - ראשון לציון",
      "text": "",
      "stayTimes": "18:00 - 19:00",
      "t_start": "2020-03-26T16:00:00",
      "t_end": "2020-03-26T17:00:00",
      "link": ""
    },
    {
      "id": 210834,
      "lat": 31.9546520000001,
      "lon": 34.8210651000001,
      "label": "שופרסל במגדלי העיר - ראשון לציון",
      "text": "",
      "stayTimes": "07:00 - 07:30",
      "t_start": "2020-03-27T05:00:00",
      "t_end": "2020-03-27T05:30:00",
      "link": ""
    },
    {
      "id": 210835,
      "lat": 31.9541288930001,
      "lon": 34.823334382,
      "label": "חנות תבלינים נאגר שכון המזרח - ראשון לציון",
      "text": "",
      "stayTimes": "07:30 - 08:00",
      "t_start": "2020-03-27T05:30:00",
      "t_end": "2020-03-27T06:00:00",
      "link": ""
    },
    {
      "id": 210836,
      "lat": 32.0304685630001,
      "lon": 34.8815170390001,
      "label": "בורקס יון - יהוד",
      "text": "",
      "stayTimes": "10:00 - 10:30",
      "t_start": "2020-03-27T08:00:00",
      "t_end": "2020-03-27T08:30:00",
      "link": ""
    },
    {
      "id": 210837,
      "lat": 31.7855867490001,
      "lon": 35.1896010630001,
      "label": "חנות פעמית סטור- גבעת שאול - ירושלים",
      "text": "",
      "stayTimes": "12:00 - 15:00",
      "t_start": "2020-03-24T10:00:00",
      "t_end": "2020-03-24T13:00:00",
      "link": ""
    },
    {
      "id": 210838,
      "lat": 31.2565581010001,
      "lon": 34.771482302,
      "label": "מחסני השוק- רחבת רדק - באר שבע",
      "text": "",
      "stayTimes": "16:00 - 17:00",
      "t_start": "2020-03-24T14:00:00",
      "t_end": "2020-03-24T15:00:00",
      "link": ""
    },
    {
      "id": 210839,
      "lat": 31.245938736,
      "lon": 34.780019775,
      "label": "מחסני השוק- שכונה ט - באר שבע",
      "text": "",
      "stayTimes": "11:00 - 11:30",
      "t_start": "2020-03-26T09:00:00",
      "t_end": "2020-03-26T09:30:00",
      "link": ""
    },
    {
      "id": 210840,
      "lat": 32.006377227,
      "lon": 34.9514194860001,
      "label": "מאפיית דני - מתחם שוהם מרקט - שוהם",
      "text": "",
      "stayTimes": "13:00 - 08:00",
      "t_start": "2020-03-24T11:00:00",
      "t_end": "2020-03-24T06:00:00",
      "link": ""
    },
    {
      "id": 210841,
      "lat": 32.0062296780001,
      "lon": 34.9513065,
      "label": "גרעיני עפולה- מתחם שוהם מרקט - שוהם",
      "text": "",
      "stayTimes": "13:05 - 13:07",
      "t_start": "2020-03-24T11:05:00",
      "t_end": "2020-03-24T11:07:00",
      "link": ""
    },
    {
      "id": 210842,
      "lat": 32.006544401,
      "lon": 34.9511800990001,
      "label": "סופר שוהם - מתחם שוהם מרקט - שוהם",
      "text": "",
      "stayTimes": "13:10 - 13:15",
      "t_start": "2020-03-24T11:10:00",
      "t_end": "2020-03-24T11:15:00",
      "link": ""
    },
    {
      "id": 210843,
      "lat": 32.082435,
      "lon": 34.8775160000001,
      "label": "בית כנסת חניכי הישיבות - פתח תקווה",
      "text": "",
      "stayTimes": "09:00 - 00:00",
      "t_start": "2020-03-24T07:00:00",
      "t_end": "2020-03-23T22:00:00",
      "link": ""
    },
    {
      "id": 210844,
      "lat": 32.082435,
      "lon": 34.8775160000001,
      "label": "בית כנסת חניכי הישיבות - פתח תקווה",
      "text": "",
      "stayTimes": "09:00 - 13:00",
      "t_start": "2020-03-25T07:00:00",
      "t_end": "2020-03-25T11:00:00",
      "link": ""
    },
    {
      "id": 210845,
      "lat": 32.0865883170001,
      "lon": 34.8820112180001,
      "label": "סופר יש - פתח תקווה",
      "text": "",
      "stayTimes": "22:00 - 23:00",
      "t_start": "2020-03-24T20:00:00",
      "t_end": "2020-03-24T21:00:00",
      "link": ""
    },
    {
      "id": 210846,
      "lat": 32.0837301540001,
      "lon": 34.8824203780001,
      "label": "בית כנסת בית אהרון בעלז - פתח תקווה",
      "text": "",
      "stayTimes": "04:30 - 07:00",
      "t_start": "2020-03-25T02:30:00",
      "t_end": "2020-03-25T05:00:00",
      "link": ""
    },
    {
      "id": 210847,
      "lat": 32.0865883170001,
      "lon": 34.8820112180001,
      "label": "סופר יש - פתח תקווה",
      "text": "",
      "stayTimes": "08:30 - 09:30",
      "t_start": "2020-03-25T06:30:00",
      "t_end": "2020-03-25T07:30:00",
      "link": ""
    },
    {
      "id": 210848,
      "lat": 32.0837301540001,
      "lon": 34.8824203780001,
      "label": "בית כנסת בית אהרון בעלז - פתח תקווה",
      "text": "",
      "stayTimes": "04:30 - 07:00",
      "t_start": "2020-03-24T02:30:00",
      "t_end": "2020-03-24T05:00:00",
      "link": ""
    },
    {
      "id": 210849,
      "lat": 31.8980818000001,
      "lon": 34.8213172000001,
      "label": "קואופ מחסני השוק - רחובות",
      "text": "",
      "stayTimes": "10:00 - 13:00",
      "t_start": "2020-03-26T08:00:00",
      "t_end": "2020-03-26T11:00:00",
      "link": ""
    },
    {
      "id": 210850,
      "lat": 31.8875379,
      "lon": 34.8201196000001,
      "label": "פיצריה סמיילי מרכז שרונה - רחובות",
      "text": "",
      "stayTimes": "16:00 - 17:00",
      "t_start": "2020-03-25T14:00:00",
      "t_end": "2020-03-25T15:00:00",
      "link": ""
    },
    {
      "id": 210851,
      "lat": 31.882637349,
      "lon": 34.8219462330001,
      "label": "דוכן הפרדס - רחובות",
      "text": "",
      "stayTimes": "12:00 - 14:00",
      "t_start": "2020-03-24T10:00:00",
      "t_end": "2020-03-24T12:00:00",
      "link": ""
    },
    {
      "id": 210852,
      "lat": 32.0668578300001,
      "lon": 34.8034841520001,
      "label": "פניקס חברה לביטוח - גבעתיים",
      "text": "",
      "stayTimes": "07:00 - 17:00",
      "t_start": "2020-03-24T05:00:00",
      "t_end": "2020-03-24T15:00:00",
      "link": ""
    },
    {
      "id": 210853,
      "lat": 32.067847381,
      "lon": 34.8025623190001,
      "label": "הפניקס חברה לביטוח - גבעתיים",
      "text": "",
      "stayTimes": "07:00 - 17:00",
      "t_start": "2020-03-25T05:00:00",
      "t_end": "2020-03-25T15:00:00",
      "link": ""
    },
    {
      "id": 210854,
      "lat": 31.884731082,
      "lon": 35.0054970580001,
      "label": "סופר טוב בשכונה מוריה מודיעין - מודיעין-מכבים-רעות",
      "text": "",
      "stayTimes": "09:00 - 10:00",
      "t_start": "2020-03-25T07:00:00",
      "t_end": "2020-03-25T08:00:00",
      "link": ""
    },
    {
      "id": 210855,
      "lat": 31.884731082,
      "lon": 35.0054970580001,
      "label": "סופר טוב בשכונה מוריה - מודיעין - מודיעין-מכבים-רעות",
      "text": "",
      "stayTimes": "09:00 - 09:30",
      "t_start": "2020-03-26T07:00:00",
      "t_end": "2020-03-26T07:30:00",
      "link": ""
    },
    {
      "id": 210856,
      "lat": 31.7494454000001,
      "lon": 34.9874426000001,
      "label": "חנות ממתקי קובי - מודיעין-מכבים-רעות",
      "text": "",
      "stayTimes": "13:00 - 14:00",
      "t_start": "2020-03-27T11:00:00",
      "t_end": "2020-03-27T12:00:00",
      "link": ""
    },
    {
      "id": 210857,
      "lat": 31.8868552000001,
      "lon": 34.9611475,
      "label": "סופר מקרקט רמי לוי ישפרו - מודיעין-מכבים-רעות",
      "text": "",
      "stayTimes": "19:00 - 20:00",
      "t_start": "2020-03-26T17:00:00",
      "t_end": "2020-03-26T18:00:00",
      "link": ""
    },
    {
      "id": 210858,
      "lat": 31.8899802,
      "lon": 34.9613115000001,
      "label": "סופר יוחננוף ישפרו מודיעין - מודיעין-מכבים-רעות",
      "text": "",
      "stayTimes": "21:00 - 21:15",
      "t_start": "2020-03-26T19:00:00",
      "t_end": "2020-03-26T19:15:00",
      "link": ""
    },
    {
      "id": 210859,
      "lat": 31.8905441000001,
      "lon": 34.9659634000001,
      "label": "שופרסל ישפרו מודיעין - מודיעין-מכבים-רעות",
      "text": "",
      "stayTimes": "21:15 - 21:30",
      "t_start": "2020-03-26T19:15:00",
      "t_end": "2020-03-26T19:30:00",
      "link": ""
    },
    {
      "id": 210860,
      "lat": 32.094804551,
      "lon": 34.783406647,
      "label": "סופר דרייב סטור תל אביב - תל אביב - יפו",
      "text": "",
      "stayTimes": "10:00 - 10:10",
      "t_start": "2020-03-26T08:00:00",
      "t_end": "2020-03-26T08:10:00",
      "link": ""
    },
    {
      "id": 210861,
      "lat": 31.7947596230001,
      "lon": 35.2084214340001,
      "label": "סופר אושר עד גבעת שאול - ירושלים",
      "text": "",
      "stayTimes": "19:00 - 21:00",
      "t_start": "2020-03-25T17:00:00",
      "t_end": "2020-03-25T19:00:00",
      "link": ""
    },
    {
      "id": 210862,
      "lat": 32.789635,
      "lon": 35.0088946000001,
      "label": "שופרסל גרנד קניון - חיפה",
      "text": "",
      "stayTimes": "11:00 - 14:00",
      "t_start": "2020-03-25T09:00:00",
      "t_end": "2020-03-25T12:00:00",
      "link": ""
    },
    {
      "id": 210863,
      "lat": 32.789635,
      "lon": 35.0088946000001,
      "label": "שופרסל גרנד קניון - חיפה",
      "text": "",
      "stayTimes": "11:00 - 14:00",
      "t_start": "2020-03-25T09:00:00",
      "t_end": "2020-03-25T12:00:00",
      "link": ""
    },
    {
      "id": 210864,
      "lat": 31.773199,
      "lon": 35.185261,
      "label": "מיון ילדים שע\"צ - ירושלים",
      "text": "",
      "stayTimes": "04:00 - 13:00",
      "t_start": "2020-03-24T02:00:00",
      "t_end": "2020-03-24T11:00:00",
      "link": ""
    },
    {
      "id": 210865,
      "lat": 31.9397848410001,
      "lon": 35.0387858180001,
      "label": "מרפאת ברכנפלד כללית- דר' שקרוב - מודיעין עילית",
      "text": "",
      "stayTimes": "10:00 - 10:30",
      "t_start": "2020-03-25T08:00:00",
      "t_end": "2020-03-25T08:30:00",
      "link": ""
    },
    {
      "id": 210866,
      "lat": 31.9149370000001,
      "lon": 35.016402,
      "label": "מסעדת מנפיס צומת שילת - שילת",
      "text": "",
      "stayTimes": "04:00 - 05:00",
      "t_start": "2020-03-24T02:00:00",
      "t_end": "2020-03-24T03:00:00",
      "link": ""
    },
    {
      "id": 210867,
      "lat": 31.8808251290001,
      "lon": 35.2448973400001,
      "label": "סופר יינות ביתן - כוכב יעקב",
      "text": "",
      "stayTimes": "13:00 - 14:00",
      "t_start": "2020-03-26T11:00:00",
      "t_end": "2020-03-26T12:00:00",
      "link": ""
    },
    {
      "id": 210868,
      "lat": 31.879688195,
      "lon": 35.2467816830001,
      "label": "אצל משפח' מועטי היה מפגש בין 5 אנשים - כוכב יעקב",
      "text": "",
      "stayTimes": "18:30 - 19:00",
      "t_start": "2020-03-25T16:30:00",
      "t_end": "2020-03-25T17:00:00",
      "link": ""
    },
    {
      "id": 210869,
      "lat": 31.396469,
      "lon": 34.757193,
      "label": "קופת חולים לאומית - רהט",
      "text": "",
      "stayTimes": "16:30 - 17:30",
      "t_start": "2020-03-29T14:30:00",
      "t_end": "2020-03-29T15:30:00",
      "link": ""
    },
    {
      "id": 210870,
      "lat": 31.7789552,
      "lon": 34.6570806,
      "label": "אסותא - אשדוד",
      "text": "",
      "stayTimes": "05:00 - 06:00",
      "t_start": "2020-03-27T03:00:00",
      "t_end": "2020-03-27T04:00:00",
      "link": ""
    },
    {
      "id": 210871,
      "lat": 31.9389251000001,
      "lon": 34.8857412,
      "label": "מד\"א לוד - לוד",
      "text": "",
      "stayTimes": "14:00 - 23:30",
      "t_start": "2020-03-26T12:00:00",
      "t_end": "2020-03-26T21:30:00",
      "link": ""
    },
    {
      "id": 210872,
      "lat": 31.946992998,
      "lon": 34.839328315,
      "label": "היפר דודו - באר יעקב",
      "text": "",
      "stayTimes": "17:00 - 18:00",
      "t_start": "2020-03-29T15:00:00",
      "t_end": "2020-03-29T16:00:00",
      "link": ""
    },
    {
      "id": 210873,
      "lat": 31.9223019,
      "lon": 34.810235,
      "label": "סופר מגה בעיר - נס ציונה",
      "text": "",
      "stayTimes": "16:00 - 16:20",
      "t_start": "2020-03-29T14:00:00",
      "t_end": "2020-03-29T14:20:00",
      "link": ""
    },
    {
      "id": 210874,
      "lat": 32.477495,
      "lon": 34.9449760000001,
      "label": "משרדי החברה - קיסריה",
      "text": "",
      "stayTimes": "08:00 - 08:00",
      "t_start": "2020-03-26T06:00:00",
      "t_end": "2020-03-26T06:00:00",
      "link": ""
    },
    {
      "id": 210875,
      "lat": 31.9660531000001,
      "lon": 34.8394177000001,
      "label": "מכון דיאליזה בי\"ח אסף הרופא - באר יעקב",
      "text": "",
      "stayTimes": "08:00 - 16:00",
      "t_start": "2020-03-25T06:00:00",
      "t_end": "2020-03-25T14:00:00",
      "link": ""
    },
    {
      "id": 210876,
      "lat": 31.9660531000001,
      "lon": 34.8394177000001,
      "label": "מכון דיאליזה בי\"ח אסף הרופא - באר יעקב",
      "text": "",
      "stayTimes": "08:00 - 16:00",
      "t_start": "2020-03-27T06:00:00",
      "t_end": "2020-03-27T14:00:00",
      "link": ""
    },
    {
      "id": 210877,
      "lat": 31.905703074,
      "lon": 35.007384491,
      "label": "טרם מודיעין - מודיעין-מכבים-רעות",
      "text": "",
      "stayTimes": "08:00 - 08:10",
      "t_start": "2020-03-30T06:00:00",
      "t_end": "2020-03-30T06:10:00",
      "link": ""
    },
    {
      "id": 210878,
      "lat": 31.884806724,
      "lon": 35.0146653830001,
      "label": "בית מרקחת קופת חולים כללית - מודיעין-מכבים-רעות",
      "text": "",
      "stayTimes": "16:00 - 16:30",
      "t_start": "2020-03-25T14:00:00",
      "t_end": "2020-03-25T14:30:00",
      "link": ""
    },
    {
      "id": 210879,
      "lat": 31.9373258110001,
      "lon": 35.043189302,
      "label": "מכולת ברכת הרשב\"י - מודיעין עילית",
      "text": "",
      "stayTimes": "15:00 - 15:05",
      "t_start": "2020-03-24T13:00:00",
      "t_end": "2020-03-24T13:05:00",
      "link": ""
    },
    {
      "id": 210880,
      "lat": 31.9277256560001,
      "lon": 35.0472904810001,
      "label": "בית הכנסת המרכזי - מודיעין עילית",
      "text": "",
      "stayTimes": "17:00 - 19:40",
      "t_start": "2020-03-25T15:00:00",
      "t_end": "2020-03-25T17:40:00",
      "link": ""
    },
    {
      "id": 210881,
      "lat": 31.9325015700001,
      "lon": 35.0422681960001,
      "label": "בית כנסת קהל חסידים נאות הפסגה - מודיעין עילית",
      "text": "",
      "stayTimes": "10:15 - 11:45",
      "t_start": "2020-03-26T08:15:00",
      "t_end": "2020-03-26T09:45:00",
      "link": ""
    },
    {
      "id": 210882,
      "lat": 31.9325163660001,
      "lon": 35.04226149,
      "label": "בית כנסת קהל חסידים נאות הפסגה - מודיעין עילית",
      "text": "",
      "stayTimes": "19:40 - 20:00",
      "t_start": "2020-03-27T17:40:00",
      "t_end": "2020-03-27T18:00:00",
      "link": ""
    },
    {
      "id": 210883,
      "lat": 31.932615438,
      "lon": 35.0422571190001,
      "label": "בית כנסת קהל חסידים נאות הפסגה - מודיעין עילית",
      "text": "",
      "stayTimes": "10:10 - 12:00",
      "t_start": "2020-03-28T08:10:00",
      "t_end": "2020-03-28T10:00:00",
      "link": ""
    },
    {
      "id": 210884,
      "lat": 31.9277091000001,
      "lon": 35.0472917000001,
      "label": "בית כנסת קהל חסדים נאות הפסגה - מודיעין עילית",
      "text": "",
      "stayTimes": "20:15 - 20:35",
      "t_start": "2020-03-28T18:15:00",
      "t_end": "2020-03-28T18:35:00",
      "link": ""
    },
    {
      "id": 210885,
      "lat": 32.7533109,
      "lon": 35.0904904000001,
      "label": "ברקו בכפר רחוב נחלת יעקב 10 - רכסים",
      "text": "",
      "stayTimes": "16:30 - 17:30",
      "t_start": "2020-03-25T14:30:00",
      "t_end": "2020-03-25T15:30:00",
      "link": ""
    },
    {
      "id": 210886,
      "lat": 32.7498677940001,
      "lon": 35.0995019900001,
      "label": "ברקו לרימונים- הרימונים 10 - רכסים",
      "text": "",
      "stayTimes": "13:40 - 14:00",
      "t_start": "2020-03-24T11:40:00",
      "t_end": "2020-03-24T12:00:00",
      "link": ""
    },
    {
      "id": 210887,
      "lat": 32.7479805,
      "lon": 35.0990194,
      "label": "ישיבת כנסת חזקיהו - רכסים",
      "text": "",
      "stayTimes": "08:00 - 09:00",
      "t_start": "2020-03-24T06:00:00",
      "t_end": "2020-03-24T07:00:00",
      "link": ""
    },
    {
      "id": 210888,
      "lat": 32.7548144560001,
      "lon": 35.103473104,
      "label": "יש חסד - רכסים",
      "text": "",
      "stayTimes": "18:30 - 19:30",
      "t_start": "2020-03-24T16:30:00",
      "t_end": "2020-03-24T17:30:00",
      "link": ""
    },
    {
      "id": 210889,
      "lat": 32.0952446000001,
      "lon": 34.8747432000001,
      "label": "בית כנסת רימון - בני ברק - בני ברק",
      "text": "",
      "stayTimes": "05:00 - 06:00",
      "t_start": "2020-03-27T03:00:00",
      "t_end": "2020-03-27T04:00:00",
      "link": ""
    },
    {
      "id": 210890,
      "lat": 31.89229269,
      "lon": 34.81652883,
      "label": "מכולת עזרה - רחובות",
      "text": "",
      "stayTimes": "16:00 - 16:30",
      "t_start": "2020-03-25T14:00:00",
      "t_end": "2020-03-25T14:30:00",
      "link": ""
    },
    {
      "id": 210891,
      "lat": 31.9915199000001,
      "lon": 34.8498459,
      "label": "בית עכנסת בית מנחם - כפר חב\"ד",
      "text": "",
      "stayTimes": "09:00 - 10:30",
      "t_start": "2020-03-25T07:00:00",
      "t_end": "2020-03-25T08:30:00",
      "link": ""
    },
    {
      "id": 210892,
      "lat": 31.9915199000001,
      "lon": 34.8498459,
      "label": "בית כנסת בית מנחם - כפר חב\"ד",
      "text": "",
      "stayTimes": "18:00 - 19:00",
      "t_start": "2020-03-25T16:00:00",
      "t_end": "2020-03-25T17:00:00",
      "link": ""
    },
    {
      "id": 210893,
      "lat": 31.682119716,
      "lon": 34.5731006140001,
      "label": "יינות ביתן, ברנע, ליד ויקטורי - אשקלון",
      "text": "",
      "stayTimes": "12:00 - 13:00",
      "t_start": "2020-03-24T10:00:00",
      "t_end": "2020-03-24T11:00:00",
      "link": ""
    },
    {
      "id": 210894,
      "lat": 31.6972173840001,
      "lon": 34.5750341090001,
      "label": "ויקטורי, מתחם רחבעם זאבי - אשקלון",
      "text": "",
      "stayTimes": "12:00 - 13:00",
      "t_start": "2020-03-25T10:00:00",
      "t_end": "2020-03-25T11:00:00",
      "link": ""
    },
    {
      "id": 210895,
      "lat": 32.0249455470001,
      "lon": 34.7767525290001,
      "label": "סופר שוק העיר - חולון",
      "text": "",
      "stayTimes": "13:00 - 14:00",
      "t_start": "2020-03-24T11:00:00",
      "t_end": "2020-03-24T12:00:00",
      "link": ""
    },
    {
      "id": 210896,
      "lat": 31.9540840070001,
      "lon": 34.890321778,
      "label": "סןפר אושר עד - לוד",
      "text": "",
      "stayTimes": "11:00 - 12:00",
      "t_start": "2020-03-26T09:00:00",
      "t_end": "2020-03-26T10:00:00",
      "link": ""
    },
    {
      "id": 210897,
      "lat": 32.8330348440001,
      "lon": 34.9851329100001,
      "label": "בי\"ח רמב\"ם מיון ממוגן - חיפה",
      "text": "",
      "stayTimes": "08:00 - 09:00",
      "t_start": "2020-03-31T06:00:00",
      "t_end": "2020-03-31T07:00:00",
      "link": ""
    },
    {
      "id": 210898,
      "lat": 32.839700341,
      "lon": 35.0814334740001,
      "label": "מכון רנטגן קופ\"ח מכבי - קרית מוצקין",
      "text": "",
      "stayTimes": "12:15 - 12:35",
      "t_start": "2020-03-30T10:15:00",
      "t_end": "2020-03-30T10:35:00",
      "link": ""
    },
    {
      "id": 210899,
      "lat": 31.9382260460001,
      "lon": 35.044079362,
      "label": "בית ספר מעלות בת שבע - במסדרון של קומת הכניסה - מודיעין עילית",
      "text": "",
      "stayTimes": "12:30 - 13:00",
      "t_start": "2020-03-25T10:30:00",
      "t_end": "2020-03-25T11:00:00",
      "link": ""
    },
    {
      "id": 210900,
      "lat": 31.9397848410001,
      "lon": 35.0387858180001,
      "label": "מאפה יהודה - מודיעין עילית",
      "text": "",
      "stayTimes": "20:00 - 21:00",
      "t_start": "2020-03-26T18:00:00",
      "t_end": "2020-03-26T19:00:00",
      "link": ""
    },
    {
      "id": 210901,
      "lat": 31.9398782000001,
      "lon": 35.0464255000001,
      "label": "סופר ברכל - מודיעין עילית",
      "text": "",
      "stayTimes": "10:30 - 11:00",
      "t_start": "2020-03-29T08:30:00",
      "t_end": "2020-03-29T09:00:00",
      "link": ""
    },
    {
      "id": 210902,
      "lat": 31.773199,
      "lon": 35.185261,
      "label": "מיון שערי צדק - ירושלים",
      "text": "",
      "stayTimes": "07:00 - 15:00",
      "t_start": "2020-03-24T05:00:00",
      "t_end": "2020-03-24T13:00:00",
      "link": ""
    },
    {
      "id": 210903,
      "lat": 32.1230935,
      "lon": 34.8090132,
      "label": "עבודה- ארגון נכי צה\"ל- קומה 2 - תל אביב - יפו",
      "text": "",
      "stayTimes": "08:00 - 15:00",
      "t_start": "2020-03-24T06:00:00",
      "t_end": "2020-03-24T13:00:00",
      "link": ""
    },
    {
      "id": 210904,
      "lat": 30.6115821540001,
      "lon": 34.7972554090001,
      "label": "ישיבת הסדר - מצפה רמון",
      "text": "",
      "stayTimes": "14:30 - 18:00",
      "t_start": "2020-03-25T12:30:00",
      "t_end": "2020-03-25T16:00:00",
      "link": ""
    },
    {
      "id": 210905,
      "lat": 30.6124486000001,
      "lon": 34.7972646000001,
      "label": "בית כנסת צמח דוד - מצפה רמון",
      "text": "",
      "stayTimes": "08:00 - 09:00",
      "t_start": "2020-03-26T06:00:00",
      "t_end": "2020-03-26T07:00:00",
      "link": ""
    },
    {
      "id": 210906,
      "lat": 31.2454930000001,
      "lon": 34.7981163000001,
      "label": "שופר סל וולפסון - באר שבע",
      "text": "",
      "stayTimes": "08:00 - 08:00",
      "t_start": "2020-03-24T06:00:00",
      "t_end": "2020-03-24T06:00:00",
      "link": ""
    },
    {
      "id": 210907,
      "lat": 31.2393512140001,
      "lon": 34.7739347350001,
      "label": "סופר פארם נווה זאב - באר שבע",
      "text": "",
      "stayTimes": "08:00 - 08:00",
      "t_start": "2020-03-24T06:00:00",
      "t_end": "2020-03-24T06:00:00",
      "link": ""
    },
    {
      "id": 210908,
      "lat": 31.6748982070001,
      "lon": 34.570259376,
      "label": "מאפיה לה קלר אפרידר - אשקלון",
      "text": "",
      "stayTimes": "17:00 - 17:30",
      "t_start": "2020-03-24T15:00:00",
      "t_end": "2020-03-24T15:30:00",
      "link": ""
    },
    {
      "id": 210909,
      "lat": 31.6093514340001,
      "lon": 34.76864914,
      "label": "מרפאת מכבי עצמאות קרית גת, בדיקת דם - קרית גת",
      "text": "",
      "stayTimes": "08:30 - 08:35",
      "t_start": "2020-03-24T06:30:00",
      "t_end": "2020-03-24T06:35:00",
      "link": ""
    },
    {
      "id": 210910,
      "lat": 32.957928569,
      "lon": 35.495673917,
      "label": "דואר, רחוב הרצל - צפת",
      "text": "",
      "stayTimes": "09:30 - 10:00",
      "t_start": "2020-04-01T07:30:00",
      "t_end": "2020-04-01T08:00:00",
      "link": ""
    },
    {
      "id": 210911,
      "lat": 31.9471436000001,
      "lon": 34.8918284000001,
      "label": "סופר פארם רח' היצירה לוד - לוד",
      "text": "",
      "stayTimes": "17:10 - 17:20",
      "t_start": "2020-03-24T15:10:00",
      "t_end": "2020-03-24T15:20:00",
      "link": ""
    },
    {
      "id": 210912,
      "lat": 31.9471436000001,
      "lon": 34.8918284000001,
      "label": "סופר פארם רח' דוד המלך 2 - לוד",
      "text": "",
      "stayTimes": "17:30 - 17:45",
      "t_start": "2020-03-24T15:30:00",
      "t_end": "2020-03-24T15:45:00",
      "link": ""
    },
    {
      "id": 210913,
      "lat": 31.7909301,
      "lon": 35.203245,
      "label": "שיח סוד - ירושלים",
      "text": "",
      "stayTimes": "09:00 - 12:00",
      "t_start": "2020-03-24T07:00:00",
      "t_end": "2020-03-24T10:00:00",
      "link": ""
    },
    {
      "id": 210914,
      "lat": 32.028623129,
      "lon": 34.897151406,
      "label": "חברת N and T - יהוד",
      "text": "",
      "stayTimes": "10:00 - 10:15",
      "t_start": "2020-03-24T08:00:00",
      "t_end": "2020-03-24T08:15:00",
      "link": ""
    },
    {
      "id": 210915,
      "lat": 31.8132097930001,
      "lon": 34.6604902060001,
      "label": "רמי לוי - אשדוד",
      "text": "",
      "stayTimes": "08:00 - 08:00",
      "t_start": "2020-03-24T06:00:00",
      "t_end": "2020-03-24T06:00:00",
      "link": ""
    },
    {
      "id": 210916,
      "lat": 31.881101689,
      "lon": 35.2390140950001,
      "label": "בית הכנסת החסידי - תל ציון - כוכב יעקב",
      "text": "",
      "stayTimes": "17:35 - 18:35",
      "t_start": "2020-03-24T15:35:00",
      "t_end": "2020-03-24T16:35:00",
      "link": ""
    },
    {
      "id": 210917,
      "lat": 32.073092816,
      "lon": 34.7891253230001,
      "label": "עובדת במשרד ראש הממשלה -בוקר - תל אביב - יפו",
      "text": "",
      "stayTimes": "08:00 - 08:00",
      "t_start": "2020-03-25T06:00:00",
      "t_end": "2020-03-25T06:00:00",
      "link": ""
    },