{
  "points": [
    {
      "id": 487925,
      "lat": 32.097276767,
      "lon": 34.896168312,
      "label": "Yellow - פתח תקווה",
      "text": "",
      "stayTimes": "00:30 - 01:00",
      "t_start": "2020-04-14T22:30:00",
      "t_end": "2020-04-14T23:00:00",
      "link": ""
    },
    {
      "id": 487926,
      "lat": 31.748793311,
      "lon": 34.9910159770001,
      "label": "מד\"א בית שמש - בית שמש",
      "text": "",
      "stayTimes": "15:30 - 23:00",
      "t_start": "2020-04-16T13:30:00",
      "t_end": "2020-04-16T21:00:00",
      "link": ""
    },
    {
      "id": 487927,
      "lat": 31.748793311,
      "lon": 34.9910159770001,
      "label": "מד\"א בית-שמש - בית שמש",
      "text": "",
      "stayTimes": "08:00 - 15:00",
      "t_start": "2020-04-19T06:00:00",
      "t_end": "2020-04-19T13:00:00",
      "link": ""
    },
    {
      "id": 487928,
      "lat": 31.748793311,
      "lon": 34.9910159770001,
      "label": "מד\"א בית שמש - בית שמש",
      "text": "",
      "stayTimes": "08:00 - 15:00",
      "t_start": "2020-04-20T06:00:00",
      "t_end": "2020-04-20T13:00:00",
      "link": ""
    },
    {
      "id": 487929,
      "lat": 32.182045563,
      "lon": 34.89608739,
      "label": "פנימית ג בי\"ח מאיר - כפר סבא",
      "text": "",
      "stayTimes": "07:00 - 19:00",
      "t_start": "2020-04-15T05:00:00",
      "t_end": "2020-04-15T17:00:00",
      "link": ""
    },
    {
      "id": 487930,
      "lat": 32.11685601,
      "lon": 34.976999334,
      "label": "מוקד שרות רפואה דחופה - כפר קאסם",
      "text": "",
      "stayTimes": "16:00 - 16:15",
      "t_start": "2020-04-17T14:00:00",
      "t_end": "2020-04-17T14:15:00",
      "link": ""
    },
    {
      "id": 487931,
      "lat": 32.4746736180001,
      "lon": 34.9978632830001,
      "label": "שופרסל \"שלי\" אחוזה ירוקה כרכור - פרדס חנה-כרכור",
      "text": "",
      "stayTimes": "09:00 - 10:00",
      "t_start": "2020-04-17T07:00:00",
      "t_end": "2020-04-17T08:00:00",
      "link": ""
    },
    {
      "id": 487932,
      "lat": 31.7884694700001,
      "lon": 35.205537007,
      "label": "טרם - ירושלים",
      "text": "",
      "stayTimes": "15:00 - 23:59",
      "t_start": "2020-04-20T13:00:00",
      "t_end": "2020-04-20T21:59:00",
      "link": ""
    },
    {
      "id": 487933,
      "lat": 32.0798922610001,
      "lon": 34.9024021450001,
      "label": "סופר \"שופרסל דיל\" - פתח תקווה",
      "text": "",
      "stayTimes": "11:00 - 12:00",
      "t_start": "2020-04-16T09:00:00",
      "t_end": "2020-04-16T10:00:00",
      "link": ""
    },
    {
      "id": 487934,
      "lat": 32.4704617,
      "lon": 35.0387773,
      "label": "שופרסל דיל חריש - חריש",
      "text": "",
      "stayTimes": "12:30 - 13:30",
      "t_start": "2020-04-17T10:30:00",
      "t_end": "2020-04-17T11:30:00",
      "link": ""
    },
    {
      "id": 487935,
      "lat": 32.4705928000001,
      "lon": 35.0391716,
      "label": "סופר פארם חריש - חריש",
      "text": "",
      "stayTimes": "13:30 - 13:45",
      "t_start": "2020-04-17T11:30:00",
      "t_end": "2020-04-17T11:45:00",
      "link": ""
    },
    {
      "id": 487936,
      "lat": 32.0860474580001,
      "lon": 34.832200765,
      "label": "אופטיקה 280 - בני ברק",
      "text": "",
      "stayTimes": "14:00 - 14:40",
      "t_start": "2020-04-20T12:00:00",
      "t_end": "2020-04-20T12:40:00",
      "link": ""
    },
    {
      "id": 487937,
      "lat": 32.4746736180001,
      "lon": 34.9978632830001,
      "label": "שופרסל \"שלי \" סניף פרדס חנה - פרדס חנה-כרכור",
      "text": "",
      "stayTimes": "11:30 - 11:45",
      "t_start": "2020-04-17T09:30:00",
      "t_end": "2020-04-17T09:45:00",
      "link": ""
    },
    {
      "id": 487938,
      "lat": 31.4159425080001,
      "lon": 34.579142615,
      "label": "מאפיית אוחיון - נתיבות",
      "text": "",
      "stayTimes": "20:30 - 21:00",
      "t_start": "2020-04-16T18:30:00",
      "t_end": "2020-04-16T19:00:00",
      "link": ""
    },
    {
      "id": 487939,
      "lat": 31.416068571,
      "lon": 34.5790315040001,
      "label": "מאפיית אוחיון - נתיבות",
      "text": "",
      "stayTimes": "21:00 - 21:30",
      "t_start": "2020-04-18T19:00:00",
      "t_end": "2020-04-18T19:30:00",
      "link": ""
    },
    {
      "id": 487940,
      "lat": 31.7488410980001,
      "lon": 35.2109615050001,
      "label": "יוחננוף - ירושלים",
      "text": "",
      "stayTimes": "21:00 - 22:00",
      "t_start": "2020-04-16T19:00:00",
      "t_end": "2020-04-16T20:00:00",
      "link": ""
    },
    {
      "id": 487941,
      "lat": 32.470720903,
      "lon": 35.038988143,
      "label": "יין בעיר חריש - חריש",
      "text": "",
      "stayTimes": "13:45 - 14:00",
      "t_start": "2020-04-17T11:45:00",
      "t_end": "2020-04-17T12:00:00",
      "link": ""
    },
    {
      "id": 487942,
      "lat": 32.0879306000001,
      "lon": 34.8567575000001,
      "label": "רמי לוי - פתח תקווה",
      "text": "",
      "stayTimes": "10:00 - 11:00",
      "t_start": "2020-04-16T08:00:00",
      "t_end": "2020-04-16T09:00:00",
      "link": ""
    },
    {
      "id": 487943,
      "lat": 31.7852588000001,
      "lon": 35.1830189,
      "label": "אושר עד גבעת שאול - ירושלים",
      "text": "",
      "stayTimes": "11:00 - 12:00",
      "t_start": "2020-04-22T09:00:00",
      "t_end": "2020-04-22T10:00:00",
      "link": ""
    },
    {
      "id": 487944,
      "lat": 31.6654723890001,
      "lon": 34.562808182,
      "label": "מרפאת שיניים אפרת - אשקלון",
      "text": "",
      "stayTimes": "10:30 - 12:30",
      "t_start": "2020-04-21T08:30:00",
      "t_end": "2020-04-21T10:30:00",
      "link": ""
    },
    {
      "id": 487945,
      "lat": 31.2543245000001,
      "lon": 34.7916569000001,
      "label": "הירקניה של דוד - באר שבע",
      "text": "",
      "stayTimes": "09:00 - 10:30",
      "t_start": "2020-04-17T07:00:00",
      "t_end": "2020-04-17T08:30:00",
      "link": ""
    },
    {
      "id": 487946,
      "lat": 31.9272982360001,
      "lon": 35.0383409300001,
      "label": "יש חסד - מודיעין עילית",
      "text": "",
      "stayTimes": "00:00 - 00:30",
      "t_start": "2020-04-16T22:00:00",
      "t_end": "2020-04-16T22:30:00",
      "link": ""
    },
    {
      "id": 487947,
      "lat": 32.8428574000001,
      "lon": 35.1641175,
      "label": "אל  משהדאוי  סופרמרקט - טמרה",
      "text": "",
      "stayTimes": "15:30 - 16:00",
      "t_start": "2020-04-20T13:30:00",
      "t_end": "2020-04-20T14:00:00",
      "link": ""
    },
    {
      "id": 487948,
      "lat": 32.181293979,
      "lon": 34.8952400370001,
      "label": "בית חולים מאיר מחלקת אורטופדיה - כפר סבא",
      "text": "",
      "stayTimes": "08:00 - 08:30",
      "t_start": "2020-04-17T06:00:00",
      "t_end": "2020-04-17T06:30:00",
      "link": ""
    },
    {
      "id": 487949,
      "lat": 32.1812576560001,
      "lon": 34.895211427,
      "label": "בית חולים מאיר מח' אורטופדיה - כפר סבא",
      "text": "",
      "stayTimes": "12:00 - 12:30",
      "t_start": "2020-04-17T10:00:00",
      "t_end": "2020-04-17T10:30:00",
      "link": ""
    },
    {
      "id": 487950,
      "lat": 32.1812394950001,
      "lon": 34.8952758,
      "label": "בית חולים מאיר מח' אורטופדיה - כפר סבא",
      "text": "",
      "stayTimes": "08:00 - 08:30",
      "t_start": "2020-04-18T06:00:00",
      "t_end": "2020-04-18T06:30:00",
      "link": ""
    },
    {
      "id": 487951,
      "lat": 32.1810270340001,
      "lon": 34.8948060590001,
      "label": "בית חולים מאיר מח' אורטופדיה - כפר סבא",
      "text": "",
      "stayTimes": "12:00 - 12:30",
      "t_start": "2020-04-18T10:00:00",
      "t_end": "2020-04-18T10:30:00",
      "link": ""
    },
    {
      "id": 487952,
      "lat": 32.181275817,
      "lon": 34.8952293080001,
      "label": "בית חולים מאיר מח' אורטופדיה - כפר סבא",
      "text": "",
      "stayTimes": "08:00 - 08:30",
      "t_start": "2020-04-19T06:00:00",
      "t_end": "2020-04-19T06:30:00",
      "link": ""
    },
    {
      "id": 487953,
      "lat": 32.181275817,
      "lon": 34.8952328840001,
      "label": "בית חולים מאיר מח' אורטופדיה - כפר סבא",
      "text": "",
      "stayTimes": "12:00 - 12:30",
      "t_start": "2020-04-19T10:00:00",
      "t_end": "2020-04-19T10:30:00",
      "link": ""
    },
    {
      "id": 487954,
      "lat": 32.181266737,
      "lon": 34.895215003,
      "label": "בית חולים מאיר מח' אורטופדיה - כפר סבא",
      "text": "",
      "stayTimes": "08:00 - 08:30",
      "t_start": "2020-04-20T06:00:00",
      "t_end": "2020-04-20T06:30:00",
      "link": ""
    },
    {
      "id": 487955,
      "lat": 32.1812637100001,
      "lon": 34.8952507650001,
      "label": "בית חולים מאיר מח' אורטופדיה - כפר סבא",
      "text": "",
      "stayTimes": "12:00 - 12:30",
      "t_start": "2020-04-20T10:00:00",
      "t_end": "2020-04-20T10:30:00",
      "link": ""
    },
    {
      "id": 487956,
      "lat": 31.607740259,
      "lon": 34.7593345600001,
      "label": "החייל האלמוני 6, קרית גת",
      "text": "",
      "stayTimes": "11:00 - 13:00",
      "t_start": "2020-04-21T09:00:00",
      "t_end": "2020-04-21T11:00:00",
      "link": ""
    },
    {
      "id": 487957,
      "lat": 32.0193588000001,
      "lon": 34.9614117,
      "label": "יקביי הכרמל - שוהם",
      "text": "",
      "stayTimes": "14:00 - 16:30",
      "t_start": "2020-04-21T12:00:00",
      "t_end": "2020-04-21T14:30:00",
      "link": ""
    },
    {
      "id": 487958,
      "lat": 32.9173842220001,
      "lon": 35.250529106,
      "label": "תחנת דלק YELLOW - מג'ד אל-כרום",
      "text": "",
      "stayTimes": "10:00 - 23:00",
      "t_start": "2020-04-15T08:00:00",
      "t_end": "2020-04-15T21:00:00",
      "link": ""
    },
    {
      "id": 487959,
      "lat": 32.9173842220001,
      "lon": 35.250529106,
      "label": "תחנת דלק YELLOW - מג'ד אל-כרום",
      "text": "",
      "stayTimes": "12:00 - 14:00",
      "t_start": "2020-04-18T10:00:00",
      "t_end": "2020-04-18T12:00:00",
      "link": ""
    },
    {
      "id": 487960,
      "lat": 32.047602512,
      "lon": 34.9560923880001,
      "label": "קופת חולים לאומית - אלעד",
      "text": "",
      "stayTimes": "08:00 - 08:30",
      "t_start": "2020-04-19T06:00:00",
      "t_end": "2020-04-19T06:30:00",
      "link": ""
    },
    {
      "id": 487961,
      "lat": 31.934637566,
      "lon": 35.0423227520001,
      "label": "סופרמרקט \"בר כל\" - מודיעין עילית",
      "text": "",
      "stayTimes": "20:00 - 21:00",
      "t_start": "2020-04-19T18:00:00",
      "t_end": "2020-04-19T19:00:00",
      "link": ""
    },
    {
      "id": 487962,
      "lat": 31.9302372230001,
      "lon": 35.038582725,
      "label": "סופר מרקט \"יש\" - מודיעין עילית",
      "text": "",
      "stayTimes": "10:00 - 10:30",
      "t_start": "2020-04-16T08:00:00",
      "t_end": "2020-04-16T08:30:00",
      "link": ""
    },
    {
      "id": 487963,
      "lat": 32.0900685,
      "lon": 34.867923326,
      "label": "בית חולים בלינסון - פתח תקווה",
      "text": "",
      "stayTimes": "20:30 - 21:00",
      "t_start": "2020-04-18T18:30:00",
      "t_end": "2020-04-18T19:00:00",
      "link": ""
    },
    {
      "id": 487964,
      "lat": 33.0063472950001,
      "lon": 35.0976566780001,
      "label": "זוגלובאק - שלומי",
      "text": "",
      "stayTimes": "06:00 - 17:00",
      "t_start": "2020-04-16T04:00:00",
      "t_end": "2020-04-16T15:00:00",
      "link": ""
    },
    {
      "id": 487965,
      "lat": 31.7884481940001,
      "lon": 35.207115382,
      "label": "בית אגד מרפאה - מאוחדת - ירושלים",
      "text": "",
      "stayTimes": "11:00 - 12:00",
      "t_start": "2020-04-19T09:00:00",
      "t_end": "2020-04-19T10:00:00",
      "link": ""
    },
    {
      "id": 487966,
      "lat": 33.0197082020001,
      "lon": 35.2828309440001,
      "label": "זול סטוק - מעלות-תרשיחא",
      "text": "",
      "stayTimes": "17:30 - 17:35",
      "t_start": "2020-04-19T15:30:00",
      "t_end": "2020-04-19T15:35:00",
      "link": ""
    },
    {
      "id": 487967,
      "lat": 32.952275382,
      "lon": 35.178511498,
      "label": "הום סנטר - ירכא",
      "text": "",
      "stayTimes": "10:00 - 11:30",
      "t_start": "2020-04-17T08:00:00",
      "t_end": "2020-04-17T09:30:00",
      "link": ""
    },
    {
      "id": 487968,
      "lat": 32.1847524660001,
      "lon": 34.8967412600001,
      "label": "מוניות הורדים - כפר סבא",
      "text": "",
      "stayTimes": "10:00 - 13:00",
      "t_start": "2020-04-18T08:00:00",
      "t_end": "2020-04-18T11:00:00",
      "link": ""
    },
    {
      "id": 487969,
      "lat": 32.9243927000001,
      "lon": 35.2769814000001,
      "label": "קניון דבאח - דייר אל-אסד",
      "text": "",
      "stayTimes": "08:00 - 15:30",
      "t_start": "2020-04-16T06:00:00",
      "t_end": "2020-04-16T13:30:00",
      "link": ""
    },
    {
      "id": 487970,
      "lat": 31.8084865750001,
      "lon": 35.1985345690001,
      "label": "קופ\"ח לאומית - ירושלים",
      "text": "",
      "stayTimes": "08:00 - 20:30",
      "t_start": "2020-04-20T06:00:00",
      "t_end": "2020-04-20T18:30:00",
      "link": ""
    },
    {
      "id": 487971,
      "lat": 32.066217646,
      "lon": 34.8287757260001,
      "label": "סופר סל שלי - רמת גן",
      "text": "",
      "stayTimes": "11:45 - 12:15",
      "t_start": "2020-04-19T09:45:00",
      "t_end": "2020-04-19T10:15:00",
      "link": ""
    },
    {
      "id": 487972,
      "lat": 31.7884694700001,
      "lon": 35.205537007,
      "label": "טרם שערי העיר - ירושלים",
      "text": "",
      "stayTimes": "03:00 - 06:00",
      "t_start": "2020-04-22T01:00:00",
      "t_end": "2020-04-22T04:00:00",
      "link": ""
    },
    {
      "id": 487973,
      "lat": 31.6928544,
      "lon": 35.1096686000001,
      "label": "חסד לאלפים רמות - ירושלים",
      "text": "",
      "stayTimes": "10:00 - 10:30",
      "t_start": "2020-04-22T08:00:00",
      "t_end": "2020-04-22T08:30:00",
      "link": ""
    },
    {
      "id": 487974,
      "lat": 31.7884373910001,
      "lon": 35.2064509310001,
      "label": "מעיין 2000 - ירושלים",
      "text": "",
      "stayTimes": "12:00 - 12:30",
      "t_start": "2020-04-17T10:00:00",
      "t_end": "2020-04-17T10:30:00",
      "link": ""
    },
    {
      "id": 487975,
      "lat": 31.7921554440001,
      "lon": 35.2047189260001,
      "label": "שערי רווחה - ירושלים",
      "text": "",
      "stayTimes": "18:00 - 18:30",
      "t_start": "2020-04-20T16:00:00",
      "t_end": "2020-04-20T16:30:00",
      "link": ""
    },
    {
      "id": 487976,
      "lat": 32.1681408000001,
      "lon": 34.8421635,
      "label": "הוד מרקט - הרצליה",
      "text": "",
      "stayTimes": "11:30 - 12:00",
      "t_start": "2020-04-22T09:30:00",
      "t_end": "2020-04-22T10:00:00",
      "link": ""
    },
    {
      "id": 487977,
      "lat": 31.7997442980001,
      "lon": 34.6623996050001,
      "label": "יש חסד - אשדוד",
      "text": "",
      "stayTimes": "12:00 - 12:30",
      "t_start": "2020-04-21T10:00:00",
      "t_end": "2020-04-21T10:30:00",
      "link": ""
    },
    {
      "id": 487978,
      "lat": 32.9223311590001,
      "lon": 35.071718494,
      "label": "מכולת ג'ארחי - עכו",
      "text": "",
      "stayTimes": "16:00 - 17:00",
      "t_start": "2020-04-17T14:00:00",
      "t_end": "2020-04-17T15:00:00",
      "link": ""
    },
    {
      "id": 487979,
      "lat": 32.9223773140001,
      "lon": 35.071742634,
      "label": "מכולת ג'ארחי - עכו",
      "text": "",
      "stayTimes": "16:00 - 17:30",
      "t_start": "2020-04-21T14:00:00",
      "t_end": "2020-04-21T15:30:00",
      "link": ""
    },
    {
      "id": 487980,
      "lat": 31.7511387440001,
      "lon": 35.215422888,
      "label": "רמי לוי - ירושלים",
      "text": "",
      "stayTimes": "16:00 - 18:00",
      "t_start": "2020-04-22T14:00:00",
      "t_end": "2020-04-22T16:00:00",
      "link": ""
    },
    {
      "id": 487981,
      "lat": 32.922368308,
      "lon": 35.0715629260001,
      "label": "שלון חומרי בנין - עכו",
      "text": "",
      "stayTimes": "12:00 - 18:00",
      "t_start": "2020-04-23T10:00:00",
      "t_end": "2020-04-23T16:00:00",
      "link": ""
    },
    {
      "id": 487982,
      "lat": 32.9223671830001,
      "lon": 35.071564267,
      "label": "שלון חומרי בניין - עכו",
      "text": "",
      "stayTimes": "12:00 - 20:00",
      "t_start": "2020-04-22T10:00:00",
      "t_end": "2020-04-22T18:00:00",
      "link": ""
    },
    {
      "id": 487983,
      "lat": 31.7662681210001,
      "lon": 35.1478980860001,
      "label": "סניף סופר פארם בקניון של הדסה עין כרם - ירושלים",
      "text": "",
      "stayTimes": "13:00 - 13:20",
      "t_start": "2020-04-21T11:00:00",
      "t_end": "2020-04-21T11:20:00",
      "link": ""
    },
    {
      "id": 487984,
      "lat": 32.0525778960001,
      "lon": 34.9511771420001,
      "label": "יש חסד - אלעד",
      "text": "",
      "stayTimes": "22:00 - 23:00",
      "t_start": "2020-04-19T20:00:00",
      "t_end": "2020-04-19T21:00:00",
      "link": ""
    },
    {
      "id": 487985,
      "lat": 31.766297766,
      "lon": 35.1478960750001,
      "label": "סניף סופר פארם בקניון של הדסה עין כרם - ירושלים",
      "text": "",
      "stayTimes": "09:00 - 09:10",
      "t_start": "2020-04-20T07:00:00",
      "t_end": "2020-04-20T07:10:00",
      "link": ""
    },
    {
      "id": 487986,
      "lat": 31.3976681,
      "lon": 34.7562129,
      "label": "שופר סל - רהט",
      "text": "",
      "stayTimes": "08:00 - 08:30",
      "t_start": "2020-04-19T06:00:00",
      "t_end": "2020-04-19T06:30:00",
      "link": ""
    },
    {
      "id": 487987,
      "lat": 31.396469,
      "lon": 34.757193,
      "label": "קופח לאומיחת - רהט",
      "text": "",
      "stayTimes": "16:00 - 16:30",
      "t_start": "2020-04-21T14:00:00",
      "t_end": "2020-04-21T14:30:00",
      "link": ""
    },
    {
      "id": 487988,
      "lat": 31.3182278,
      "lon": 34.6253776,
      "label": "שופרסל - אופקים",
      "text": "",
      "stayTimes": "08:00 - 11:00",
      "t_start": "2020-04-15T06:00:00",
      "t_end": "2020-04-15T09:00:00",
      "link": ""
    },
    {
      "id": 487989,
      "lat": 31.3182278,
      "lon": 34.6253776,
      "label": "שופר סל - אופקים",
      "text": "",
      "stayTimes": "18:30 - 22:00",
      "t_start": "2020-04-16T16:30:00",
      "t_end": "2020-04-16T20:00:00",
      "link": ""
    },
    {
      "id": 487990,
      "lat": 31.7144626350001,
      "lon": 34.9904344030001,
      "label": "שוק מהדרין - בית שמש",
      "text": "",
      "stayTimes": "21:30 - 22:00",
      "t_start": "2020-04-15T19:30:00",
      "t_end": "2020-04-15T20:00:00",
      "link": ""
    },
    {
      "id": 487991,
      "lat": 32.098620264,
      "lon": 34.839771022,
      "label": "נתיב החסד - בני ברק",
      "text": "",
      "stayTimes": "18:30 - 21:00",
      "t_start": "2020-04-23T16:30:00",
      "t_end": "2020-04-23T19:00:00",
      "link": ""
    },
    {
      "id": 487992,
      "lat": 32.090821981,
      "lon": 34.8388174410001,
      "label": "סופר מרקט \"יש\" - בני ברק",
      "text": "",
      "stayTimes": "07:30 - 08:30",
      "t_start": "2020-04-22T05:30:00",
      "t_end": "2020-04-22T06:30:00",
      "link": ""
    },
    {
      "id": 487993,
      "lat": 31.9302824420001,
      "lon": 35.0386059690001,
      "label": "יש חסד - מודיעין עילית",
      "text": "",
      "stayTimes": "08:00 - 15:40",
      "t_start": "2020-04-24T06:00:00",
      "t_end": "2020-04-24T13:40:00",
      "link": ""
    },
    {
      "id": 487994,
      "lat": 31.9302824420001,
      "lon": 35.0386059690001,
      "label": "יש חסד - מודיעין עילית",
      "text": "",
      "stayTimes": "07:30 - 14:45",
      "t_start": "2020-04-17T05:30:00",
      "t_end": "2020-04-17T12:45:00",
      "link": ""
    },
    {
      "id": 487995,
      "lat": 31.9302824420001,
      "lon": 35.0386059690001,
      "label": "יש חסד - מודיעין עילית",
      "text": "",
      "stayTimes": "12:00 - 20:30",
      "t_start": "2020-04-19T10:00:00",
      "t_end": "2020-04-19T18:30:00",
      "link": ""
    },
    {
      "id": 487996,
      "lat": 31.9302824420001,
      "lon": 35.0386059690001,
      "label": "יש חסד - מודיעין עילית",
      "text": "",
      "stayTimes": "14:00 - 20:00",
      "t_start": "2020-04-20T12:00:00",
      "t_end": "2020-04-20T18:00:00",
      "link": ""
    },
    {
      "id": 487997,
      "lat": 31.9302824420001,
      "lon": 35.0386059690001,
      "label": "יש חסד - מודיעין עילית",
      "text": "",
      "stayTimes": "07:30 - 16:00",
      "t_start": "2020-04-21T05:30:00",
      "t_end": "2020-04-21T14:00:00",
      "link": ""
    },
    {
      "id": 487998,
      "lat": 31.72654185,
      "lon": 34.7450478210001,
      "label": "ויקטורי - קרית מלאכי",
      "text": "",
      "stayTimes": "17:30 - 18:00",
      "t_start": "2020-04-21T15:30:00",
      "t_end": "2020-04-21T16:00:00",
      "link": ""
    },
    {
      "id": 487999,
      "lat": 32.1168797080001,
      "lon": 34.976998929,
      "label": "מרכז שר'פ - כפר קאסם",
      "text": "",
      "stayTimes": "19:30 - 20:00",
      "t_start": "2020-04-19T17:30:00",
      "t_end": "2020-04-19T18:00:00",
      "link": ""
    },
    {
      "id": 488000,
      "lat": 31.2391248480001,
      "lon": 34.769202066,
      "label": "ברכת כוהנים בית מאפה - באר שבע",
      "text": "",
      "stayTimes": "10:00 - 10:30",
      "t_start": "2020-04-17T08:00:00",
      "t_end": "2020-04-17T08:30:00",
      "link": ""
    },
    {
      "id": 488001,
      "lat": 31.8006962640001,
      "lon": 34.641055894,
      "label": "בוטיק הפיתה - אשדוד",
      "text": "",
      "stayTimes": "04:30 - 14:30",
      "t_start": "2020-04-16T02:30:00",
      "t_end": "2020-04-16T12:30:00",
      "link": ""
    },
    {
      "id": 488002,
      "lat": 31.8006962640001,
      "lon": 34.641055894,
      "label": "בוטיק הפיתה - אשדוד",
      "text": "",
      "stayTimes": "04:30 - 14:30",
      "t_start": "2020-04-17T02:30:00",
      "t_end": "2020-04-17T12:30:00",
      "link": ""
    },
    {
      "id": 488003,
      "lat": 31.8006962640001,
      "lon": 34.641055894,
      "label": "בוטיק הפיתה - אשדוד",
      "text": "",
      "stayTimes": "04:00 - 14:00",
      "t_start": "2020-04-19T02:00:00",
      "t_end": "2020-04-19T12:00:00",
      "link": ""
    },
    {
      "id": 488004,
      "lat": 31.8006962640001,
      "lon": 34.641055894,
      "label": "בוטיק הפיתה - אשדוד",
      "text": "",
      "stayTimes": "04:00 - 14:00",
      "t_start": "2020-04-20T02:00:00",
      "t_end": "2020-04-20T12:00:00",
      "link": ""
    },
    {
      "id": 488005,
      "lat": 31.8006962640001,
      "lon": 34.641055894,
      "label": "בוטיק הפיתה - אשדוד",
      "text": "",
      "stayTimes": "04:00 - 14:00",
      "t_start": "2020-04-21T02:00:00",
      "t_end": "2020-04-21T12:00:00",
      "link": ""
    },
    {
      "id": 488006,
      "lat": 31.8006962640001,
      "lon": 34.641055894,
      "label": "בוטיק הפיתה - אשדוד",
      "text": "",
      "stayTimes": "04:30 - 14:00",
      "t_start": "2020-04-22T02:30:00",
      "t_end": "2020-04-22T12:00:00",
      "link": ""
    },
    {
      "id": 488007,
      "lat": 32.952925355,
      "lon": 35.182686812,
      "label": "מולה נוף ירכא - ירכא",
      "text": "",
      "stayTimes": "08:00 - 08:30",
      "t_start": "2020-04-24T06:00:00",
      "t_end": "2020-04-24T06:30:00",
      "link": ""
    },
    {
      "id": 488008,
      "lat": 29.5576985710001,
      "lon": 34.951990596,
      "label": "בית החולים יוספטל מיון כללי - אילת",
      "text": "",
      "stayTimes": "18:00 - 19:00",
      "t_start": "2020-04-18T16:00:00",
      "t_end": "2020-04-18T17:00:00",
      "link": ""
    },
    {
      "id": 488009,
      "lat": 29.5571977220001,
      "lon": 34.9451359890001,
      "label": "קופת חולים מרפאת אופיר - אילת",
      "text": "",
      "stayTimes": "08:00 - 08:30",
      "t_start": "2020-04-20T06:00:00",
      "t_end": "2020-04-20T06:30:00",
      "link": ""
    },
    {
      "id": 488010,
      "lat": 29.5697508000001,
      "lon": 34.9572891,
      "label": "פרי ארצנו - אילת",
      "text": "",
      "stayTimes": "17:30 - 18:00",
      "t_start": "2020-04-21T15:30:00",
      "t_end": "2020-04-21T16:00:00",
      "link": ""
    },
    {
      "id": 488011,
      "lat": 33.0072517340001,
      "lon": 35.0927102630001,
      "label": "סופר פארם סניף געתון - נהריה",
      "text": "",
      "stayTimes": "12:00 - 12:15",
      "t_start": "2020-04-24T10:00:00",
      "t_end": "2020-04-24T10:15:00",
      "link": ""
    },
    {
      "id": 488012,
      "lat": 31.7797643640001,
      "lon": 34.6283885460001,
      "label": "בוטיק הפיתה - אשדוד",
      "text": "",
      "stayTimes": "07:30 - 20:00",
      "t_start": "2020-04-16T05:30:00",
      "t_end": "2020-04-16T18:00:00",
      "link": ""
    },
    {
      "id": 488013,
      "lat": 31.7797643640001,
      "lon": 34.6283885460001,
      "label": "בוטיק הפיתה - אשדוד",
      "text": "",
      "stayTimes": "07:00 - 16:00",
      "t_start": "2020-04-17T05:00:00",
      "t_end": "2020-04-17T14:00:00",
      "link": ""
    },
    {
      "id": 488014,
      "lat": 31.7797643640001,
      "lon": 34.6283885460001,
      "label": "בוטיק הפיתה - אשדוד",
      "text": "",
      "stayTimes": "06:00 - 13:30",
      "t_start": "2020-04-19T04:00:00",
      "t_end": "2020-04-19T11:30:00",
      "link": ""
    },
    {
      "id": 488015,
      "lat": 31.7797643640001,
      "lon": 34.6283885460001,
      "label": "בוטיק הפיתה - אשדוד",
      "text": "",
      "stayTimes": "12:30 - 20:00",
      "t_start": "2020-04-20T10:30:00",
      "t_end": "2020-04-20T18:00:00",
      "link": ""
    },
    {
      "id": 488016,
      "lat": 31.7797643640001,
      "lon": 34.6283885460001,
      "label": "בוטיק הפיתה - אשדוד",
      "text": "",
      "stayTimes": "12:30 - 20:00",
      "t_start": "2020-04-21T10:30:00",
      "t_end": "2020-04-21T18:00:00",
      "link": ""
    },
    {
      "id": 488017,
      "lat": 31.7797643640001,
      "lon": 34.6283885460001,
      "label": "בוטיק הפיתה - אשדוד",
      "text": "",
      "stayTimes": "12:30 - 20:00",
      "t_start": "2020-04-22T10:30:00",
      "t_end": "2020-04-22T18:00:00",
      "link": ""
    },
    {
      "id": 488018,
      "lat": 31.7504101000001,
      "lon": 35.2095757000001,
      "label": "רמי לוי האומן - ירושלים",
      "text": "",
      "stayTimes": "10:00 - 11:00",
      "t_start": "2020-04-19T08:00:00",
      "t_end": "2020-04-19T09:00:00",
      "link": ""
    },
    {
      "id": 488019,
      "lat": 31.7880877580001,
      "lon": 35.1871089590001,
      "label": "סופר \"יש\" - ירושלים",
      "text": "",
      "stayTimes": "13:30 - 15:00",
      "t_start": "2020-04-16T11:30:00",
      "t_end": "2020-04-16T13:00:00",
      "link": ""
    },
    {
      "id": 488020,
      "lat": 31.9398782000001,
      "lon": 35.0464255000001,
      "label": "סופרמרקט ברכל - מודיעין עילית",
      "text": "",
      "stayTimes": "20:00 - 21:00",
      "t_start": "2020-04-19T18:00:00",
      "t_end": "2020-04-19T19:00:00",
      "link": ""
    },
    {
      "id": 488021,
      "lat": 32.8117458,
      "lon": 35.0038105,
      "label": "חנות מפעם- שוק הפשפשים - חיפה",
      "text": "",
      "stayTimes": "09:00 - 14:00",
      "t_start": "2020-04-21T07:00:00",
      "t_end": "2020-04-21T12:00:00",
      "link": ""
    },
    {
      "id": 488022,
      "lat": 31.2576980000001,
      "lon": 34.7681700000001,
      "label": "דואר - קניון שאול המלך - באר שבע",
      "text": "",
      "stayTimes": "12:30 - 15:30",
      "t_start": "2020-04-21T10:30:00",
      "t_end": "2020-04-21T13:30:00",
      "link": ""
    },
    {
      "id": 488023,
      "lat": 31.245815979,
      "lon": 34.776824193,
      "label": "קופ\"ח כללית ט' - באר שבע",
      "text": "",
      "stayTimes": "10:00 - 11:00",
      "t_start": "2020-04-19T08:00:00",
      "t_end": "2020-04-19T09:00:00",
      "link": ""
    },
    {
      "id": 488024,
      "lat": 32.0865883170001,
      "lon": 34.8820112180001,
      "label": "סופר יש - פתח תקווה",
      "text": "",
      "stayTimes": "21:00 - 22:00",
      "t_start": "2020-04-15T19:00:00",
      "t_end": "2020-04-15T20:00:00",
      "link": ""
    },
    {
      "id": 488025,
      "lat": 32.6038847,
      "lon": 35.2930428000001,
      "label": "רמי לוי - עפולה",
      "text": "",
      "stayTimes": "12:00 - 13:00",
      "t_start": "2020-04-24T10:00:00",
      "t_end": "2020-04-24T11:00:00",
      "link": ""
    },
    {
      "id": 488026,
      "lat": 32.60272173,
      "lon": 35.2899566950001,
      "label": "בית כנסת - עפולה",
      "text": "",
      "stayTimes": "17:30 - 18:00",
      "t_start": "2020-04-24T15:30:00",
      "t_end": "2020-04-24T16:00:00",
      "link": ""
    },
    {
      "id": 488027,
      "lat": 31.377415,
      "lon": 34.736324,
      "label": "מתחם 5 קניות - רהט",
      "text": "",
      "stayTimes": "20:00 - 22:30",
      "t_start": "2020-04-21T18:00:00",
      "t_end": "2020-04-21T20:30:00",
      "link": ""
    },
    {
      "id": 488028,
      "lat": 32.0865883170001,
      "lon": 34.8820112180001,
      "label": "סופר יש - פתח תקווה",
      "text": "",
      "stayTimes": "00:00 - 00:01",
      "t_start": "2020-04-15T22:00:00",
      "t_end": "2020-04-15T22:01:00",
      "link": ""
    },
    {
      "id": 488029,
      "lat": 32.0525778960001,
      "lon": 34.9511771420001,
      "label": "סופר יש - אלעד",
      "text": "",
      "stayTimes": "08:00 - 08:30",
      "t_start": "2020-04-16T06:00:00",
      "t_end": "2020-04-16T06:30:00",
      "link": ""
    },
    {
      "id": 488030,
      "lat": 32.8897325820001,
      "lon": 35.238637537,
      "label": "מאפיית אלעין - שעב",
      "text": "",
      "stayTimes": "08:00 - 08:30",
      "t_start": "2020-04-19T06:00:00",
      "t_end": "2020-04-19T06:30:00",
      "link": ""
    },
    {
      "id": 488031,
      "lat": 32.9246137850001,
      "lon": 35.312351177,
      "label": "נפרומור כרמיאל - כרמיאל",
      "text": "",
      "stayTimes": "08:00 - 12:00",
      "t_start": "2020-04-23T06:00:00",
      "t_end": "2020-04-23T10:00:00",
      "link": ""
    },
    {
      "id": 488032,
      "lat": 32.8603543510001,
      "lon": 35.3057840210001,
      "label": "משתלת סחנין מול בנק מרכנטיל - סח'נין",
      "text": "",
      "stayTimes": "15:00 - 15:30",
      "t_start": "2020-04-20T13:00:00",
      "t_end": "2020-04-20T13:30:00",
      "link": ""
    },
    {
      "id": 488033,
      "lat": 31.7997442980001,
      "lon": 34.6623996050001,
      "label": "יש חסד - אשדוד",
      "text": "",
      "stayTimes": "15:00 - 16:00",
      "t_start": "2020-04-22T13:00:00",
      "t_end": "2020-04-22T14:00:00",
      "link": ""
    },
    {
      "id": 488034,
      "lat": 31.7997442980001,
      "lon": 34.6623996050001,
      "label": "יש חסד - אשדוד",
      "text": "",
      "stayTimes": "21:00 - 22:00",
      "t_start": "2020-04-19T19:00:00",
      "t_end": "2020-04-19T20:00:00",
      "link": ""
    },
    {
      "id": 488035,
      "lat": 31.7998053000001,
      "lon": 34.6519699,
      "label": "בית אבות אשדוד - אשדוד",
      "text": "",
      "stayTimes": "08:00 - 08:30",
      "t_start": "2020-04-21T06:00:00",
      "t_end": "2020-04-21T06:30:00",
      "link": ""
    },
    {
      "id": 488036,
      "lat": 32.6738158000001,
      "lon": 35.2351289000001,
      "label": "ביס' חטיבה מגדל אור - מגדל העמק",
      "text": "",
      "stayTimes": "09:00 - 11:00",
      "t_start": "2020-04-20T07:00:00",
      "t_end": "2020-04-20T09:00:00",
      "link": ""
    },
    {
      "id": 488037,
      "lat": 32.0865883170001,
      "lon": 34.8820112180001,
      "label": "סופר יש - פתח תקווה",
      "text": "",
      "stayTimes": "00:00 - 00:01",
      "t_start": "2020-04-16T22:00:00",
      "t_end": "2020-04-16T22:01:00",
      "link": ""
    },
    {
      "id": 488038,
      "lat": 32.0865883170001,
      "lon": 34.8820112180001,
      "label": "סופר יש - פתח תקווה",
      "text": "",
      "stayTimes": "00:00 - 00:01",
      "t_start": "2020-04-18T22:00:00",
      "t_end": "2020-04-18T22:01:00",
      "link": ""
    },
    {
      "id": 488039,
      "lat": 32.0865883170001,
      "lon": 34.8820112180001,
      "label": "סופר יש - פתח תקווה",
      "text": "",
      "stayTimes": "00:00 - 00:01",
      "t_start": "2020-04-19T22:00:00",
      "t_end": "2020-04-19T22:01:00",
      "link": ""
    },
    {
      "id": 488040,
      "lat": 32.0865883170001,
      "lon": 34.8820112180001,
      "label": "סופר יש - פתח תקווה",
      "text": "",
      "stayTimes": "00:00 - 00:01",
      "t_start": "2020-04-20T22:00:00",
      "t_end": "2020-04-20T22:01:00",
      "link": ""
    },
    {
      "id": 488041,
      "lat": 32.0865883170001,
      "lon": 34.8820112180001,
      "label": "סופר יש - פתח תקווה",
      "text": "",
      "stayTimes": "00:00 - 00:01",
      "t_start": "2020-04-21T22:00:00",
      "t_end": "2020-04-21T22:01:00",
      "link": ""
    },
    {
      "id": 488042,
      "lat": 32.0865883170001,
      "lon": 34.8820112180001,
      "label": "סופר יש - פתח תקווה",
      "text": "",
      "stayTimes": "00:00 - 00:01",
      "t_start": "2020-04-22T22:00:00",
      "t_end": "2020-04-22T22:01:00",
      "link": ""
    },
    {
      "id": 488043,
      "lat": 32.0865883170001,
      "lon": 34.8820112180001,
      "label": "סופר יש - פתח תקווה",
      "text": "",
      "stayTimes": "11:00 - 11:40",
      "t_start": "2020-04-24T09:00:00",
      "t_end": "2020-04-24T09:40:00",
      "link": ""
    },
    {
      "id": 488044,
      "lat": 32.07702062,
      "lon": 34.85419662,
      "label": "סופר פארם - גבעת שמואל",
      "text": "",
      "stayTimes": "11:00 - 11:15",
      "t_start": "2020-04-17T09:00:00",
      "t_end": "2020-04-17T09:15:00",
      "link": ""
    },
    {
      "id": 488045,
      "lat": 32.0751450000001,
      "lon": 34.854613,
      "label": "סופר חביב - גבעת שמואל",
      "text": "",
      "stayTimes": "11:00 - 11:30",
      "t_start": "2020-04-16T09:00:00",
      "t_end": "2020-04-16T09:30:00",
      "link": ""
    },
    {
      "id": 488046,
      "lat": 32.087737739,
      "lon": 34.881144862,
      "label": "סופר פארם - פתח תקווה",
      "text": "",
      "stayTimes": "11:40 - 12:15",
      "t_start": "2020-04-24T09:40:00",
      "t_end": "2020-04-24T10:15:00",
      "link": ""
    },
    {
      "id": 488047,
      "lat": 32.852242431,
      "lon": 35.20116899,
      "label": "הבית האיטלקי חנות רהיטים - טמרה",
      "text": "",
      "stayTimes": "19:00 - 20:00",
      "t_start": "2020-04-20T17:00:00",
      "t_end": "2020-04-20T18:00:00",
      "link": ""
    },
    {
      "id": 488048,
      "lat": 31.9258448000001,
      "lon": 35.0439081000001,
      "label": "סופר \" בר כל\" נתיבות המשפט 64 - מודיעין עילית",
      "text": "",
      "stayTimes": "07:30 - 08:00",
      "t_start": "2020-04-24T05:30:00",
      "t_end": "2020-04-24T06:00:00",
      "link": ""
    },
    {
      "id": 488049,
      "lat": 32.1059981940001,
      "lon": 34.9388189900001,
      "label": "יינות ביתן - ראש העין",
      "text": "",
      "stayTimes": "07:30 - 08:30",
      "t_start": "2020-04-17T05:30:00",
      "t_end": "2020-04-17T06:30:00",
      "link": ""
    },
    {
      "id": 488050,
      "lat": 31.7365867,
      "lon": 34.7521718,
      "label": "חברת נטו קרית מלאכי - קרית מלאכי",
      "text": "",
      "stayTimes": "00:00 - 15:00",
      "t_start": "2020-04-14T22:00:00",
      "t_end": "2020-04-15T13:00:00",
      "link": ""
    },
    {
      "id": 488051,
      "lat": 31.7365867,
      "lon": 34.7521718,
      "label": "חברת נטו קריית מלאכי - קרית מלאכי",
      "text": "",
      "stayTimes": "00:00 - 15:00",
      "t_start": "2020-04-15T22:00:00",
      "t_end": "2020-04-16T13:00:00",
      "link": ""
    },
    {
      "id": 488052,
      "lat": 31.7365867,
      "lon": 34.7521718,
      "label": "חברת נטו קרית מלאכי - קרית מלאכי",
      "text": "",
      "stayTimes": "00:00 - 15:00",
      "t_start": "2020-04-18T22:00:00",
      "t_end": "2020-04-19T13:00:00",
      "link": ""
    },
    {
      "id": 488053,
      "lat": 31.296262396,
      "lon": 34.927918606,
      "label": "קופת חולים כללית - חורה",
      "text": "",
      "stayTimes": "08:30 - 09:00",
      "t_start": "2020-04-23T06:30:00",
      "t_end": "2020-04-23T07:00:00",
      "link": ""
    },
    {
      "id": 488054,
      "lat": 32.783842238,
      "lon": 35.019843892,
      "label": "בית אבות  מעון הרופא - חיפה",
      "text": "",
      "stayTimes": "01:00 - 07:30",
      "t_start": "2020-04-20T23:00:00",
      "t_end": "2020-04-21T05:30:00",
      "link": ""
    },
    {
      "id": 488055,
      "lat": 32.0859816380001,
      "lon": 34.8394351330001,
      "label": "יש חסד - בני ברק",
      "text": "",
      "stayTimes": "21:30 - 22:30",
      "t_start": "2020-04-21T19:30:00",
      "t_end": "2020-04-21T20:30:00",
      "link": ""
    },
    {
      "id": 488056,
      "lat": 32.6587434250001,
      "lon": 35.1090300910001,
      "label": "מרפאת קופח כללית - הנוריות - יקנעם עילית",
      "text": "",
      "stayTimes": "10:00 - 10:40",
      "t_start": "2020-04-21T08:00:00",
      "t_end": "2020-04-21T08:40:00",
      "link": ""
    },
    {
      "id": 488057,
      "lat": 32.256608,
      "lon": 34.91846,
      "label": "מעון חברת נעורים - תל מונד",
      "text": "",
      "stayTimes": "07:00 - 21:00",
      "t_start": "2020-04-16T05:00:00",
      "t_end": "2020-04-16T19:00:00",
      "link": ""
    },
    {
      "id": 488058,
      "lat": 32.256608,
      "lon": 34.91846,
      "label": "מעון חברת נעורים - תל מונד",
      "text": "",
      "stayTimes": "07:00 - 14:00",
      "t_start": "2020-04-17T05:00:00",
      "t_end": "2020-04-17T12:00:00",
      "link": ""
    },
    {
      "id": 488059,
      "lat": 32.256608,
      "lon": 34.91846,
      "label": "מעון חברת נעורים - תל מונד",
      "text": "",
      "stayTimes": "14:00 - 21:00",
      "t_start": "2020-04-20T12:00:00",
      "t_end": "2020-04-20T19:00:00",
      "link": ""
    },
    {
      "id": 488060,
      "lat": 32.2826063730001,
      "lon": 34.9087456990001,
      "label": "משטרת שדות קדימה - קדימה-צורן",
      "text": "",
      "stayTimes": "11:00 - 17:30",
      "t_start": "2020-04-22T09:00:00",
      "t_end": "2020-04-22T15:30:00",
      "link": ""
    },
    {
      "id": 488061,
      "lat": 31.814293956,
      "lon": 34.7764854500001,
      "label": "מעון מוריה - גדרה",
      "text": "",
      "stayTimes": "08:00 - 14:00",
      "t_start": "2020-04-15T06:00:00",
      "t_end": "2020-04-15T12:00:00",
      "link": ""
    },
    {
      "id": 488062,
      "lat": 32.103574462,
      "lon": 34.834644,
      "label": "חלמיש חנות ריצוף - בני ברק",
      "text": "",
      "stayTimes": "11:30 - 13:00",
      "t_start": "2020-04-24T09:30:00",
      "t_end": "2020-04-24T11:00:00",
      "link": ""
    },
    {
      "id": 488063,
      "lat": 32.098060515,
      "lon": 34.825575814,
      "label": "פרפקט ליין - רמת גן",
      "text": "",
      "stayTimes": "10:00 - 11:30",
      "t_start": "2020-04-24T08:00:00",
      "t_end": "2020-04-24T09:30:00",
      "link": ""
    },
    {
      "id": 488064,
      "lat": 32.0628766900001,
      "lon": 34.780424113,
      "label": "משרד רו\"ח \"BDO\" - תל אביב - יפו",
      "text": "",
      "stayTimes": "10:00 - 18:00",
      "t_start": "2020-04-19T08:00:00",
      "t_end": "2020-04-19T16:00:00",
      "link": ""
    },
    {
      "id": 488065,
      "lat": 31.7741936,
      "lon": 35.1753018000001,
      "label": "יד ושם - ירושלים",
      "text": "",
      "stayTimes": "17:00 - 18:00",
      "t_start": "2020-04-22T15:00:00",
      "t_end": "2020-04-22T16:00:00",
      "link": ""
    },
    {
      "id": 488066,
      "lat": 31.785044661,
      "lon": 35.174665213,
      "label": "טיפת חלב - ירושלים",
      "text": "",
      "stayTimes": "09:30 - 10:00",
      "t_start": "2020-04-19T07:30:00",
      "t_end": "2020-04-19T08:00:00",
      "link": ""
    },
    {
      "id": 488067,
      "lat": 33.018336,
      "lon": 35.0921828,
      "label": "סופרמרקט חוף הדקל - נהריה",
      "text": "",
      "stayTimes": "16:00 - 17:00",
      "t_start": "2020-04-25T14:00:00",
      "t_end": "2020-04-25T15:00:00",
      "link": ""
    },
    {
      "id": 488068,
      "lat": 31.814293956,
      "lon": 34.7764854500001,
      "label": "מעון מוריה - גדרה",
      "text": "",
      "stayTimes": "08:00 - 14:00",
      "t_start": "2020-04-16T06:00:00",
      "t_end": "2020-04-16T12:00:00",
      "link": ""
    },
    {
      "id": 488069,
      "lat": 31.814293956,
      "lon": 34.7764854500001,
      "label": "מעון מוריה - גדרה",
      "text": "",
      "stayTimes": "08:00 - 14:00",
      "t_start": "2020-04-17T06:00:00",
      "t_end": "2020-04-17T12:00:00",
      "link": ""
    },
    {
      "id": 488070,
      "lat": 31.814293956,
      "lon": 34.7764854500001,
      "label": "מעון מוריה - גדרה",
      "text": "",
      "stayTimes": "08:00 - 14:00",
      "t_start": "2020-04-18T06:00:00",
      "t_end": "2020-04-18T12:00:00",
      "link": ""
    },
    {
      "id": 488071,
      "lat": 31.814293956,
      "lon": 34.7764854500001,
      "label": "מעון מוריה - גדרה",
      "text": "",
      "stayTimes": "08:00 - 14:00",
      "t_start": "2020-04-19T06:00:00",
      "t_end": "2020-04-19T12:00:00",
      "link": ""
    },
    {
      "id": 488072,
      "lat": 31.814293956,
      "lon": 34.7764854500001,
      "label": "מעון מוריה - גדרה",
      "text": "",
      "stayTimes": "08:00 - 14:00",
      "t_start": "2020-04-20T06:00:00",
      "t_end": "2020-04-20T12:00:00",
      "link": ""
    },
    {
      "id": 488073,
      "lat": 31.814293956,
      "lon": 34.7764854500001,
      "label": "מעון מוריה - גדרה",
      "text": "",
      "stayTimes": "08:00 - 14:00",
      "t_start": "2020-04-21T06:00:00",
      "t_end": "2020-04-21T12:00:00",
      "link": ""
    },
    {
      "id": 488074,
      "lat": 31.814293956,
      "lon": 34.7764854500001,
      "label": "מעון מוריה - גדרה",
      "text": "",
      "stayTimes": "08:00 - 14:00",
      "t_start": "2020-04-22T06:00:00",
      "t_end": "2020-04-22T12:00:00",
      "link": ""
    },
    {
      "id": 488075,
      "lat": 31.9398782000001,
      "lon": 35.0464255000001,
      "label": "ברכול מסילת יוסף - מודיעין עילית",
      "text": "",
      "stayTimes": "16:00 - 17:00",
      "t_start": "2020-04-19T14:00:00",
      "t_end": "2020-04-19T15:00:00",
      "link": ""
    },
    {
      "id": 488076,
      "lat": 32.0871815630001,
      "lon": 34.8816455100001,
      "label": "בנק לאומי - פתח תקווה",
      "text": "",
      "stayTimes": "08:30 - 09:00",
      "t_start": "2020-04-26T06:30:00",
      "t_end": "2020-04-26T07:00:00",
      "link": ""
    },
    {
      "id": 488077,
      "lat": 32.0994975,
      "lon": 34.8755340000001,
      "label": "חצי חינם - פתח תקווה",
      "text": "",
      "stayTimes": "16:00 - 18:00",
      "t_start": "2020-04-22T14:00:00",
      "t_end": "2020-04-22T16:00:00",
      "link": ""
    },
    {
      "id": 488078,
      "lat": 31.9291810400001,
      "lon": 35.0446982980001,
      "label": "סופר \" בר כל\" נתיבות המשפט - מודיעין עילית",
      "text": "",
      "stayTimes": "07:00 - 07:30",
      "t_start": "2020-04-21T05:00:00",
      "t_end": "2020-04-21T05:30:00",
      "link": ""
    },
    {
      "id": 488079,
      "lat": 31.416792851,
      "lon": 34.571979212,
      "label": "אלי זול - נתיבות",
      "text": "",
      "stayTimes": "20:00 - 22:00",
      "t_start": "2020-04-22T18:00:00",
      "t_end": "2020-04-22T20:00:00",
      "link": ""
    },
    {
      "id": 488080,
      "lat": 31.6897848,
      "lon": 34.5711191,
      "label": "סופר דוידי - אשקלון",
      "text": "",
      "stayTimes": "09:30 - 10:00",
      "t_start": "2020-04-20T07:30:00",
      "t_end": "2020-04-20T08:00:00",
      "link": ""
    },
    {
      "id": 488081,
      "lat": 31.42669033,
      "lon": 34.5882351330001,
      "label": "סופר צרכניית מדשן - נתיבות",
      "text": "",
      "stayTimes": "09:00 - 09:30",
      "t_start": "2020-04-20T07:00:00",
      "t_end": "2020-04-20T07:30:00",
      "link": ""
    },
    {
      "id": 488082,
      "lat": 31.9398782000001,
      "lon": 35.0464255000001,
      "label": "בר כל - מודיעין עילית",
      "text": "",
      "stayTimes": "16:00 - 17:00",
      "t_start": "2020-04-21T14:00:00",
      "t_end": "2020-04-21T15:00:00",
      "link": ""
    },
    {
      "id": 488083,
      "lat": 31.296262396,
      "lon": 34.927918606,
      "label": "קופת חולים - חורה",
      "text": "",
      "stayTimes": "08:00 - 08:30",
      "t_start": "2020-04-26T06:00:00",
      "t_end": "2020-04-26T06:30:00",
      "link": ""
    },
    {
      "id": 488084,
      "lat": 31.2450719,
      "lon": 34.7955749000001,
      "label": "סניף דואר המרכזי שד רגר רחוב הנשיאים - באר שבע",
      "text": "",
      "stayTimes": "11:00 - 13:30",
      "t_start": "2020-04-22T09:00:00",
      "t_end": "2020-04-22T11:30:00",
      "link": ""
    },
    {
      "id": 488085,
      "lat": 31.3003944000001,
      "lon": 34.935686,
      "label": "מרפאת שירותי בריאות כללית חורה. - חורה",
      "text": "",
      "stayTimes": "14:00 - 15:00",
      "t_start": "2020-04-26T12:00:00",
      "t_end": "2020-04-26T13:00:00",
      "link": ""
    },
    {
      "id": 488086,
      "lat": 32.8564491000001,
      "lon": 35.1787834,
      "label": "סופר פארם סניף טמרה - טמרה",
      "text": "",
      "stayTimes": "16:30 - 17:00",
      "t_start": "2020-04-23T14:30:00",
      "t_end": "2020-04-23T15:00:00",
      "link": ""
    },
    {
      "id": 488087,
      "lat": 31.8135049000001,
      "lon": 34.6500062000001,
      "label": "בית הדר - אשדוד",
      "text": "",
      "stayTimes": "08:00 - 08:30",
      "t_start": "2020-04-15T06:00:00",
      "t_end": "2020-04-15T06:30:00",
      "link": ""
    },
    {
      "id": 488088,
      "lat": 32.9469460930001,
      "lon": 35.174164638,
      "label": "מרכז המזון -מרכזה - ירכא",
      "text": "",
      "stayTimes": "10:00 - 10:30",
      "t_start": "2020-04-22T08:00:00",
      "t_end": "2020-04-22T08:30:00",
      "link": ""
    },
    {
      "id": 488089,
      "lat": 31.3952914000001,
      "lon": 34.7594843000001,
      "label": "דואר - רהט",
      "text": "",
      "stayTimes": "10:00 - 11:00",
      "t_start": "2020-04-19T08:00:00",
      "t_end": "2020-04-19T09:00:00",
      "link": ""
    },
    {
      "id": 488090,
      "lat": 32.6036544460001,
      "lon": 35.2960462290001,
      "label": "מקלות וניל - עפולה",
      "text": "",
      "stayTimes": "07:30 - 07:40",
      "t_start": "2020-04-16T05:30:00",
      "t_end": "2020-04-16T05:40:00",
      "link": ""
    },
    {
      "id": 488091,
      "lat": 32.6486540000001,
      "lon": 35.288241,
      "label": "בית אבות אור העמק - מזרע",
      "text": "",
      "stayTimes": "08:00 - 17:00",
      "t_start": "2020-04-16T06:00:00",
      "t_end": "2020-04-16T15:00:00",
      "link": ""
    },
    {
      "id": 488092,
      "lat": 32.6486540000001,
      "lon": 35.288241,
      "label": "בית אבות אור העמק - מזרע",
      "text": "",
      "stayTimes": "17:00 - 22:00",
      "t_start": "2020-04-17T15:00:00",
      "t_end": "2020-04-17T20:00:00",
      "link": ""
    },
    {
      "id": 488093,
      "lat": 32.6486540000001,
      "lon": 35.288241,
      "label": "בית אבות אור העמק - מזרע",
      "text": "",
      "stayTimes": "07:00 - 10:30",
      "t_start": "2020-04-17T05:00:00",
      "t_end": "2020-04-17T08:30:00",
      "link": ""
    },
    {
      "id": 488094,
      "lat": 31.296262396,
      "lon": 34.927918606,
      "label": "קופת חולים - חורה",
      "text": "",
      "stayTimes": "11:00 - 13:00",
      "t_start": "2020-04-22T09:00:00",
      "t_end": "2020-04-22T11:00:00",
      "link": ""
    },
    {
      "id": 488095,
      "lat": 32.6486540000001,
      "lon": 35.288241,
      "label": "בית אבות אור העמק - מזרע",
      "text": "",
      "stayTimes": "12:30 - 15:40",
      "t_start": "2020-04-17T10:30:00",
      "t_end": "2020-04-17T13:40:00",
      "link": ""
    },
    {
      "id": 488096,
      "lat": 31.675718885,
      "lon": 34.558126859,
      "label": "דיור מוגן \"זהבית\" - אשקלון",
      "text": "",
      "stayTimes": "08:00 - 08:30",
      "t_start": "2020-04-16T06:00:00",
      "t_end": "2020-04-16T06:30:00",
      "link": ""
    },
    {
      "id": 488097,
      "lat": 31.6757736690001,
      "lon": 34.5581590460001,
      "label": "דיור מוגן זהבית - אשקלון",
      "text": "",
      "stayTimes": "08:00 - 08:30",
      "t_start": "2020-04-16T06:00:00",
      "t_end": "2020-04-16T06:30:00",
      "link": ""
    },
    {
      "id": 488098,
      "lat": 32.048746506,
      "lon": 34.8427672490001,
      "label": "בית חולים שיבא מעון יולדות - רמת גן",
      "text": "",
      "stayTimes": "12:00 - 17:00",
      "t_start": "2020-04-15T10:00:00",
      "t_end": "2020-04-15T15:00:00",
      "link": ""
    },
    {
      "id": 488099,
      "lat": 31.6743269340001,
      "lon": 34.5583682710001,
      "label": "סופר הטייסים - אשקלון",
      "text": "",
      "stayTimes": "11:00 - 11:30",
      "t_start": "2020-04-16T09:00:00",
      "t_end": "2020-04-16T09:30:00",
      "link": ""
    },
    {
      "id": 488100,
      "lat": 31.6577452000001,
      "lon": 34.5884741,
      "label": "טיב טעם - אשקלון",
      "text": "",
      "stayTimes": "14:30 - 15:30",
      "t_start": "2020-04-15T12:30:00",
      "t_end": "2020-04-15T13:30:00",
      "link": ""
    },
    {
      "id": 488101,
      "lat": 31.6743269340001,
      "lon": 34.5583682710001,
      "label": "חנות אוכל טייסים - אשקלון",
      "text": "",
      "stayTimes": "13:00 - 13:30",
      "t_start": "2020-04-15T11:00:00",
      "t_end": "2020-04-15T11:30:00",
      "link": ""
    },
    {
      "id": 488102,
      "lat": 31.6757736690001,
      "lon": 34.558126859,
      "label": "דיור מוגן זהבית - אשקלון",
      "text": "",
      "stayTimes": "08:00 - 23:30",
      "t_start": "2020-04-15T06:00:00",
      "t_end": "2020-04-15T21:30:00",
      "link": ""
    },
    {
      "id": 488103,
      "lat": 31.746205118,
      "lon": 34.9999872510001,
      "label": "זול ובגדול - בית שמש",
      "text": "",
      "stayTimes": "11:00 - 11:30",
      "t_start": "2020-04-16T09:00:00",
      "t_end": "2020-04-16T09:30:00",
      "link": ""
    },
    {
      "id": 488104,
      "lat": 31.786257753,
      "lon": 35.1836297,
      "label": "מוסך מאפיית \"ברמן\" - ירושלים",
      "text": "",
      "stayTimes": "07:30 - 16:30",
      "t_start": "2020-04-16T05:30:00",
      "t_end": "2020-04-16T14:30:00",
      "link": ""
    },
    {
      "id": 488105,
      "lat": 31.793497605,
      "lon": 35.205474683,
      "label": "בית אבות גני אורה - ירושלים",
      "text": "",
      "stayTimes": "08:00 - 08:30",
      "t_start": "2020-04-15T06:00:00",
      "t_end": "2020-04-15T06:30:00",
      "link": ""
    },
    {
      "id": 488106,
      "lat": 31.3733931,
      "lon": 34.8092845,
      "label": "מחסני השוק להבים - להבים",
      "text": "",
      "stayTimes": "11:00 - 11:30",
      "t_start": "2020-04-16T09:00:00",
      "t_end": "2020-04-16T09:30:00",
      "link": ""
    },
    {
      "id": 488107,
      "lat": 32.1823231000001,
      "lon": 34.8954868000001,
      "label": "בי\"ח מאיר- יחידה זיהומולוגית - כפר סבא",
      "text": "",
      "stayTimes": "08:30 - 09:00",
      "t_start": "2020-04-17T06:30:00",
      "t_end": "2020-04-17T07:00:00",
      "link": ""
    },
    {
      "id": 488108,
      "lat": 32.1841665000001,
      "lon": 34.8531795000001,
      "label": "סופר פארם - רעננה",
      "text": "",
      "stayTimes": "18:15 - 18:30",
      "t_start": "2020-04-16T16:15:00",
      "t_end": "2020-04-16T16:30:00",
      "link": ""
    },
    {
      "id": 488109,
      "lat": 32.1836543000001,
      "lon": 34.8530601000001,
      "label": "טיב טעם - רעננה",
      "text": "",
      "stayTimes": "19:00 - 19:30",
      "t_start": "2020-04-16T17:00:00",
      "t_end": "2020-04-16T17:30:00",
      "link": ""
    },
    {
      "id": 488110,
      "lat": 32.09055499,
      "lon": 34.867065283,
      "label": "מיון בית חולים בלינסון - פתח תקווה",
      "text": "",
      "stayTimes": "13:00 - 23:30",
      "t_start": "2020-04-16T11:00:00",
      "t_end": "2020-04-16T21:30:00",
      "link": ""
    },
    {
      "id": 488111,
      "lat": 32.232983893,
      "lon": 34.9755923590001,
      "label": "\"ירקות ממדוח\" - טירה",
      "text": "",
      "stayTimes": "09:30 - 09:40",
      "t_start": "2020-04-17T07:30:00",
      "t_end": "2020-04-17T07:40:00",
      "link": ""
    },
    {
      "id": 488112,
      "lat": 32.9238802100001,
      "lon": 35.277418852,
      "label": "סופרמרקט- דאבאח ובניו - דייר אל-אסד",
      "text": "",
      "stayTimes": "15:00 - 20:30",
      "t_start": "2020-04-15T13:00:00",
      "t_end": "2020-04-15T18:30:00",
      "link": ""
    },
    {
      "id": 488113,
      "lat": 32.9230336680001,
      "lon": 35.27955389,
      "label": "סופרמרקט- דבאח ובניו - דייר אל-אסד",
      "text": "",
      "stayTimes": "12:30 - 21:00",
      "t_start": "2020-04-16T10:30:00",
      "t_end": "2020-04-16T19:00:00",
      "link": ""
    },
    {
      "id": 488114,
      "lat": 32.9244025410001,
      "lon": 35.276978969,
      "label": "סופרמרקט- דבאח ובניו - דייר אל-אסד",
      "text": "",
      "stayTimes": "15:00 - 18:00",
      "t_start": "2020-04-17T13:00:00",
      "t_end": "2020-04-17T16:00:00",
      "link": ""
    },
    {
      "id": 488115,
      "lat": 31.7135938260001,
      "lon": 34.9981497320001,
      "label": "בסט סופר - בית שמש",
      "text": "",
      "stayTimes": "21:30 - 22:30",
      "t_start": "2020-04-15T19:30:00",
      "t_end": "2020-04-15T20:30:00",
      "link": ""
    },
    {
      "id": 488116,
      "lat": 32.1823231000001,
      "lon": 34.8954868000001,
      "label": "בי\"ח מאיר- מחלקה פנימית ד' - כפר סבא",
      "text": "",
      "stayTimes": "07:00 - 19:00",
      "t_start": "2020-04-15T05:00:00",
      "t_end": "2020-04-15T17:00:00",
      "link": ""
    },
    {
      "id": 488117,
      "lat": 32.028290579,
      "lon": 34.7483266520001,
      "label": "בי\"ח שיקומי בית בלב - בת ים",
      "text": "",
      "stayTimes": "10:00 - 11:00",
      "t_start": "2020-04-17T08:00:00",
      "t_end": "2020-04-17T09:00:00",
      "link": ""
    },
    {
      "id": 488118,
      "lat": 32.181691662,
      "lon": 34.8960960370001,
      "label": "רשת BE פארם - כפר סבא",
      "text": "",
      "stayTimes": "09:05 - 09:10",
      "t_start": "2020-04-17T07:05:00",
      "t_end": "2020-04-17T07:10:00",
      "link": ""
    },
    {
      "id": 488119,
      "lat": 32.9235495,
      "lon": 35.3140916,
      "label": "מפעל דבאח בכרמיאל - כרמיאל",
      "text": "",
      "stayTimes": "07:00 - 18:00",
      "t_start": "2020-04-15T05:00:00",
      "t_end": "2020-04-15T16:00:00",
      "link": ""
    },
    {
      "id": 488120,
      "lat": 31.8153024150001,
      "lon": 35.2149615700001,
      "label": "הוסטל הלב והמעין רמת שלמה - ירושלים",
      "text": "",
      "stayTimes": "13:30 - 21:30",
      "t_start": "2020-04-16T11:30:00",
      "t_end": "2020-04-16T19:30:00",
      "link": ""
    },
    {
      "id": 488121,
      "lat": 32.182385713,
      "lon": 34.895502509,
      "label": "מיון נשימתי בי\"ח מאיר - כפר סבא",
      "text": "",
      "stayTimes": "18:30 - 23:59",
      "t_start": "2020-04-18T16:30:00",
      "t_end": "2020-04-18T21:59:00",
      "link": ""
    },
    {
      "id": 488122,
      "lat": 31.6928544,
      "lon": 35.1096686000001,
      "label": "חסד לאלפים - ביתר עילית",
      "text": "",
      "stayTimes": "02:00 - 03:00",
      "t_start": "2020-04-16T00:00:00",
      "t_end": "2020-04-16T01:00:00",
      "link": ""
    },
    {
      "id": 488123,
      "lat": 31.41472,
      "lon": 34.578362,
      "label": "בית כנסת קול יעקוב - נתיבות",
      "text": "",
      "stayTimes": "13:00 - 15:30",
      "t_start": "2020-04-16T11:00:00",
      "t_end": "2020-04-16T13:30:00",
      "link": ""
    },
    {
      "id": 488124,
      "lat": 32.0295718300001,
      "lon": 34.845199742,
      "label": "קופ\"ח כללית - אור יהודה",
      "text": "",
      "stayTimes": "10:00 - 12:00",
      "t_start": "2020-04-16T08:00:00",
      "t_end": "2020-04-16T10:00:00",
      "link": ""
    },
    {
      "id": 488125,
      "lat": 32.0862216,
      "lon": 34.8530480000001,
      "label": "סופר ברקת - גבעת שמואל",
      "text": "",
      "stayTimes": "12:00 - 13:00",
      "t_start": "2020-04-17T10:00:00",
      "t_end": "2020-04-17T11:00:00",
      "link": ""
    },
    {
      "id": 488126,
      "lat": 31.697211822,
      "lon": 35.120860248,
      "label": "סופר שפע חיים - ביתר עילית",
      "text": "",
      "stayTimes": "09:00 - 11:00",
      "t_start": "2020-04-16T07:00:00",
      "t_end": "2020-04-16T09:00:00",
      "link": ""
    },
    {
      "id": 488127,
      "lat": 32.6413986200001,
      "lon": 35.3596814090001,
      "label": "\"יכין\" אלון תבור, מחלקת ירקות - עפולה",
      "text": "",
      "stayTimes": "06:30 - 10:30",
      "t_start": "2020-04-16T04:30:00",
      "t_end": "2020-04-16T08:30:00",
      "link": ""
    },
    {
      "id": 488128,
      "lat": 32.621038034,
      "lon": 35.3165950600001,
      "label": "מיון ביח' העמק - עפולה",
      "text": "",
      "stayTimes": "10:30 - 11:30",
      "t_start": "2020-04-16T08:30:00",
      "t_end": "2020-04-16T09:30:00",
      "link": ""
    },
    {
      "id": 488129,
      "lat": 32.7130058700001,
      "lon": 35.3357284310001,
      "label": "מרכאזה - נוף הגליל",
      "text": "",
      "stayTimes": "12:30 - 13:45",
      "t_start": "2020-04-16T10:30:00",
      "t_end": "2020-04-16T11:45:00",
      "link": ""
    },
    {
      "id": 488130,
      "lat": 31.792128765,
      "lon": 34.667103534,
      "label": "סופר נתיב החסד - אשדוד",
      "text": "",
      "stayTimes": "09:30 - 10:30",
      "t_start": "2020-04-15T07:30:00",
      "t_end": "2020-04-15T08:30:00",
      "link": ""
    },
    {
      "id": 488131,
      "lat": 31.7921053800001,
      "lon": 34.667089359,
      "label": "סופר נתיב החסד - אשדוד",
      "text": "",
      "stayTimes": "09:30 - 10:30",
      "t_start": "2020-04-16T07:30:00",
      "t_end": "2020-04-16T08:30:00",
      "link": ""
    },
    {
      "id": 488132,
      "lat": 32.0999678970001,
      "lon": 34.8952338130001,
      "label": "שופרסל דיל - פתח תקווה",
      "text": "",
      "stayTimes": "08:00 - 08:30",
      "t_start": "2020-04-16T06:00:00",
      "t_end": "2020-04-16T06:30:00",
      "link": ""
    },
    {
      "id": 488133,
      "lat": 32.6933943000001,
      "lon": 35.3034068000001,
      "label": "משהדאוי קינג סטור - נוף הגליל",
      "text": "",
      "stayTimes": "14:00 - 14:45",
      "t_start": "2020-04-16T12:00:00",
      "t_end": "2020-04-16T12:45:00",
      "link": ""
    },
    {
      "id": 488134,
      "lat": 32.0256611360001,
      "lon": 34.7573726840001,
      "label": "בית חולים אברבנל - בת ים",
      "text": "",
      "stayTimes": "00:00 - 23:59",
      "t_start": "2020-04-14T22:00:00",
      "t_end": "2020-04-15T21:59:00",
      "link": ""
    },
    {
      "id": 488135,
      "lat": 32.0256611360001,
      "lon": 34.7573726840001,
      "label": "בית חולים אברבנל - בת ים",
      "text": "",
      "stayTimes": "00:00 - 23:59",
      "t_start": "2020-04-15T22:00:00",
      "t_end": "2020-04-16T21:59:00",
      "link": ""
    },
    {
      "id": 488136,
      "lat": 32.0481437330001,
      "lon": 34.8442158660001,
      "label": "בית חולים שיבא,פנימית א - רמת גן",
      "text": "",
      "stayTimes": "00:00 - 07:30",
      "t_start": "2020-04-14T22:00:00",
      "t_end": "2020-04-15T05:30:00",
      "link": ""
    },
    {
      "id": 488137,
      "lat": 32.0482594110001,
      "lon": 34.843937505,
      "label": "בית חולים שיבא,פנימית א - רמת גן",
      "text": "",
      "stayTimes": "07:00 - 19:30",
      "t_start": "2020-04-16T05:00:00",
      "t_end": "2020-04-16T17:30:00",
      "link": ""
    },
    {
      "id": 488138,
      "lat": 32.0482649940001,
      "lon": 34.8439179160001,
      "label": "בית חולים שיבא,פנימית א - רמת גן",
      "text": "",
      "stayTimes": "19:00 - 23:59",
      "t_start": "2020-04-17T17:00:00",
      "t_end": "2020-04-17T21:59:00",
      "link": ""
    },
    {
      "id": 488139,
      "lat": 32.0482649960001,
      "lon": 34.8439345130001,
      "label": "בית חולים שיבא,פנימית א - רמת גן",
      "text": "",
      "stayTimes": "00:00 - 07:30",
      "t_start": "2020-04-17T22:00:00",
      "t_end": "2020-04-18T05:30:00",
      "link": ""
    },
    {
      "id": 488140,
      "lat": 31.7880137970001,
      "lon": 34.6440177630001,
      "label": "מרפאה בבית פרימאק - אשדוד",
      "text": "",
      "stayTimes": "17:30 - 18:30",
      "t_start": "2020-04-16T15:30:00",
      "t_end": "2020-04-16T16:30:00",
      "link": ""
    },
    {
      "id": 488141,
      "lat": 32.1024538980001,
      "lon": 34.896089196,
      "label": "פלאפון - פתח תקווה",
      "text": "",
      "stayTimes": "09:15 - 09:30",
      "t_start": "2020-04-17T07:15:00",
      "t_end": "2020-04-17T07:30:00",
      "link": ""
    },
    {
      "id": 488142,
      "lat": 32.083765934,
      "lon": 34.8073842680001,
      "label": "MF MOBILE - רמת גן",
      "text": "",
      "stayTimes": "06:00 - 10:00",
      "t_start": "2020-04-16T04:00:00",
      "t_end": "2020-04-16T08:00:00",
      "link": ""
    },
    {
      "id": 488143,
      "lat": 32.0835023160001,
      "lon": 34.8072072420001,
      "label": "MF MOBILE - רמת גן",
      "text": "",
      "stayTimes": "11:00 - 13:00",
      "t_start": "2020-04-16T09:00:00",
      "t_end": "2020-04-16T11:00:00",
      "link": ""
    },
    {
      "id": 488144,
      "lat": 32.621038034,
      "lon": 35.3165950600001,
      "label": "מח' אורולוגית ביח' העמק - עפולה",
      "text": "",
      "stayTimes": "08:00 - 23:30",
      "t_start": "2020-04-16T06:00:00",
      "t_end": "2020-04-16T21:30:00",
      "link": ""
    },
    {
      "id": 488145,
      "lat": 32.621038034,
      "lon": 35.3165950600001,
      "label": "מח' אורולוגית ביח' העמק - עפולה",
      "text": "",
      "stayTimes": "08:00 - 23:30",
      "t_start": "2020-04-17T06:00:00",
      "t_end": "2020-04-17T21:30:00",
      "link": ""
    },
    {
      "id": 488146,
      "lat": 32.621038034,
      "lon": 35.3165950600001,
      "label": "מח' אורולוגית ביח' העמק - עפולה",
      "text": "",
      "stayTimes": "08:00 - 23:30",
      "t_start": "2020-04-18T06:00:00",
      "t_end": "2020-04-18T21:30:00",
      "link": ""
    },
    {
      "id": 488147,
      "lat": 32.621038034,
      "lon": 35.3165950600001,
      "label": "מיון פנימי ביח' העמק - עפולה",
      "text": "",
      "stayTimes": "17:30 - 23:59",
      "t_start": "2020-04-16T15:30:00",
      "t_end": "2020-04-16T21:59:00",
      "link": ""
    },
    {
      "id": 488148,
      "lat": 32.621038034,
      "lon": 35.3165950600001,
      "label": "מיון פנימי ביח' העמק - עפולה",
      "text": "",
      "stayTimes": "00:00 - 23:30",
      "t_start": "2020-04-16T22:00:00",
      "t_end": "2020-04-17T21:30:00",
      "link": ""
    },
    {
      "id": 488149,
      "lat": 32.0452360780001,
      "lon": 34.842521306,
      "label": "מיון תל השומר - רמת גן",
      "text": "",
      "stayTimes": "08:00 - 10:30",
      "t_start": "2020-04-20T06:00:00",
      "t_end": "2020-04-20T08:30:00",
      "link": ""
    },
    {
      "id": 488150,
      "lat": 32.621038034,
      "lon": 35.3165950600001,
      "label": "מח' אורולוגית ביח' העמק - עפולה",
      "text": "",
      "stayTimes": "08:00 - 23:30",
      "t_start": "2020-04-15T06:00:00",
      "t_end": "2020-04-15T21:30:00",
      "link": ""
    },
    {
      "id": 488151,
      "lat": 31.6928544,
      "lon": 35.1096686000001,
      "label": "חסד לאלפים - ביתר עילית",
      "text": "",
      "stayTimes": "02:00 - 03:00",
      "t_start": "2020-04-16T00:00:00",
      "t_end": "2020-04-16T01:00:00",
      "link": ""
    },
    {
      "id": 488152,
      "lat": 32.642628013,
      "lon": 35.0918972360001,
      "label": "שופרסל ביג - יקנעם עילית",
      "text": "",
      "stayTimes": "09:00 - 10:00",
      "t_start": "2020-04-17T07:00:00",
      "t_end": "2020-04-17T08:00:00",
      "link": ""
    },
    {
      "id": 488153,
      "lat": 32.7338385,
      "lon": 35.1403368000001,
      "label": "מוסך רכב, ח'אלד זובידאת - בסמת טבעון",
      "text": "",
      "stayTimes": "14:00 - 14:30",
      "t_start": "2020-04-17T12:00:00",
      "t_end": "2020-04-17T12:30:00",
      "link": ""
    },
    {
      "id": 488154,
      "lat": 31.2135308480001,
      "lon": 34.8110135210001,
      "label": "סופר אושר עד - באר שבע",
      "text": "",
      "stayTimes": "08:00 - 08:30",
      "t_start": "2020-04-17T06:00:00",
      "t_end": "2020-04-17T06:30:00",
      "link": ""
    },
    {
      "id": 488155,
      "lat": 32.0484680760001,
      "lon": 34.8434910710001,
      "label": "בית חולים שיבא,פנימית א - רמת גן",
      "text": "",
      "stayTimes": "07:00 - 19:00",
      "t_start": "2020-04-16T05:00:00",
      "t_end": "2020-04-16T17:00:00",
      "link": ""
    },
    {
      "id": 488156,
      "lat": 32.0484680760001,
      "lon": 34.8434910710001,
      "label": "בית חולים שיבא,פנימית א - רמת גן",
      "text": "",
      "stayTimes": "07:00 - 19:00",
      "t_start": "2020-04-19T05:00:00",
      "t_end": "2020-04-19T17:00:00",
      "link": ""
    },
    {
      "id": 488157,
      "lat": 32.0525778960001,
      "lon": 34.9511771420001,
      "label": "יש חסד - אלעד",
      "text": "",
      "stayTimes": "11:30 - 11:50",
      "t_start": "2020-04-19T09:30:00",
      "t_end": "2020-04-19T09:50:00",
      "link": ""
    },
    {
      "id": 488158,
      "lat": 32.0556761820001,
      "lon": 34.9606221220001,
      "label": "דואר - אלעד",
      "text": "",
      "stayTimes": "10:50 - 11:15",
      "t_start": "2020-04-19T08:50:00",
      "t_end": "2020-04-19T09:15:00",
      "link": ""
    },
    {
      "id": 488159,
      "lat": 32.0946102820001,
      "lon": 34.8857519630001,
      "label": "HOT MOBILE - פתח תקווה",
      "text": "",
      "stayTimes": "12:00 - 12:45",
      "t_start": "2020-04-17T10:00:00",
      "t_end": "2020-04-17T10:45:00",
      "link": ""
    },
    {
      "id": 488160,
      "lat": 31.7915405540001,
      "lon": 35.1995432150001,
      "label": "תחנת מד\"א שנלר - ירושלים",
      "text": "",
      "stayTimes": "15:30 - 17:00",
      "t_start": "2020-04-16T13:30:00",
      "t_end": "2020-04-16T15:00:00",
      "link": ""
    },
    {
      "id": 488161,
      "lat": 31.7915405540001,
      "lon": 35.1995432150001,
      "label": "תחנת מד\"א שנלר - ירושלים",
      "text": "",
      "stayTimes": "15:30 - 17:00",
      "t_start": "2020-04-16T13:30:00",
      "t_end": "2020-04-16T15:00:00",
      "link": ""
    },
    {
      "id": 488162,
      "lat": 32.090821981,
      "lon": 34.8388174410001,
      "label": "\"יש\" - בני ברק",
      "text": "",
      "stayTimes": "19:30 - 20:00",
      "t_start": "2020-04-16T17:30:00",
      "t_end": "2020-04-16T18:00:00",
      "link": ""
    },
    {
      "id": 488163,
      "lat": 31.7915405540001,
      "lon": 35.1995432150001,
      "label": "תחנת מד\"א שנלר - ירושלים",
      "text": "",
      "stayTimes": "15:30 - 17:00",
      "t_start": "2020-04-16T13:30:00",
      "t_end": "2020-04-16T15:00:00",
      "link": ""
    },
    {
      "id": 488164,
      "lat": 31.7010023,
      "lon": 35.1119254000001,
      "label": "שפע זול - ביתר עילית",
      "text": "",
      "stayTimes": "21:00 - 21:30",
      "t_start": "2020-04-15T19:00:00",
      "t_end": "2020-04-15T19:30:00",
      "link": ""
    },
    {
      "id": 488165,
      "lat": 31.753177212,
      "lon": 35.212837075,
      "label": "אושר עד - ירושלים",
      "text": "",
      "stayTimes": "13:00 - 14:00",
      "t_start": "2020-04-16T11:00:00",
      "t_end": "2020-04-16T12:00:00",
      "link": ""
    },
    {
      "id": 488166,
      "lat": 32.80547125,
      "lon": 35.001583135,
      "label": "נתיב החסד - חיפה",
      "text": "",
      "stayTimes": "09:00 - 10:00",
      "t_start": "2020-04-17T07:00:00",
      "t_end": "2020-04-17T08:00:00",
      "link": ""
    },
    {
      "id": 488167,
      "lat": 32.263651538,
      "lon": 35.017031773,
      "label": "סופר \"ביג סטור\" - טייבה",
      "text": "",
      "stayTimes": "21:55 - 22:35",
      "t_start": "2020-04-15T19:55:00",
      "t_end": "2020-04-15T20:35:00",
      "link": ""
    },
    {
      "id": 488168,
      "lat": 31.72654185,
      "lon": 34.7450478210001,
      "label": "ויקטורי - קרית מלאכי",
      "text": "",
      "stayTimes": "11:00 - 16:00",
      "t_start": "2020-04-16T09:00:00",
      "t_end": "2020-04-16T14:00:00",
      "link": ""
    },
    {
      "id": 488169,
      "lat": 32.9166121530001,
      "lon": 35.250258011,
      "label": "תחנת  דלק YELLO - מג'ד אל-כרום",
      "text": "",
      "stayTimes": "14:00 - 15:00",
      "t_start": "2020-04-19T12:00:00",
      "t_end": "2020-04-19T13:00:00",
      "link": ""
    },
    {
      "id": 488170,
      "lat": 32.9240333440001,
      "lon": 35.2762804970001,
      "label": "מקאטו - דייר אל-אסד",
      "text": "",
      "stayTimes": "15:00 - 15:30",
      "t_start": "2020-04-17T13:00:00",
      "t_end": "2020-04-17T13:30:00",
      "link": ""
    },
    {
      "id": 488171,
      "lat": 32.138536,
      "lon": 34.8439339,
      "label": "מרפאת מכבי - רמת השרון",
      "text": "",
      "stayTimes": "15:00 - 16:00",
      "t_start": "2020-04-16T13:00:00",
      "t_end": "2020-04-16T14:00:00",
      "link": ""
    },
    {
      "id": 488172,
      "lat": 31.424246152,
      "lon": 34.598053834,
      "label": "קופת חולים מכבי - נתיבות",
      "text": "",
      "stayTimes": "12:00 - 12:30",
      "t_start": "2020-04-17T10:00:00",
      "t_end": "2020-04-17T10:30:00",
      "link": ""
    },
    {
      "id": 488173,
      "lat": 32.4855131,
      "lon": 34.9698419000001,
      "label": "מרכז גריאטרי שוהם - פרדס חנה-כרכור",
      "text": "",
      "stayTimes": "07:00 - 15:00",
      "t_start": "2020-04-19T05:00:00",
      "t_end": "2020-04-19T13:00:00",
      "link": ""
    },
    {
      "id": 488174,
      "lat": 31.7535868320001,
      "lon": 35.214401308,
      "label": "שופרסל - ירושלים",
      "text": "",
      "stayTimes": "04:58 - 15:42",
      "t_start": "2020-04-16T02:58:00",
      "t_end": "2020-04-16T13:42:00",
      "link": ""
    },
    {
      "id": 488175,
      "lat": 31.7535868320001,
      "lon": 35.214401308,
      "label": "שופרסל - ירושלים",
      "text": "",
      "stayTimes": "00:01 - 07:19",
      "t_start": "2020-04-16T22:01:00",
      "t_end": "2020-04-17T05:19:00",
      "link": ""
    },
    {
      "id": 488176,
      "lat": 31.7535868320001,
      "lon": 35.214401308,
      "label": "שופרסל - ירושלים",
      "text": "",
      "stayTimes": "04:49 - 14:11",
      "t_start": "2020-04-19T02:49:00",
      "t_end": "2020-04-19T12:11:00",
      "link": ""
    },
    {
      "id": 488177,
      "lat": 32.4855131,
      "lon": 34.9698419000001,
      "label": "מרכז גריאטרי שוהם - פרדס חנה-כרכור",
      "text": "",
      "stayTimes": "07:00 - 15:00",
      "t_start": "2020-04-17T05:00:00",
      "t_end": "2020-04-17T13:00:00",
      "link": ""
    }
  ],
  "update_time": 1588126388
}