{
  "points": [
    {
      "id": 442134,
      "lat": 31.8142224540001,
      "lon": 34.77642057,
      "label": "מעון מוריה - גדרה",
      "text": "",
      "stayTimes": "05:30 - 06:00",
      "t_start": "2020-04-05T03:30:00",
      "t_end": "2020-04-05T04:00:00",
      "link": ""
    },
    {
      "id": 442135,
      "lat": 31.8142139,
      "lon": 34.7764126000001,
      "label": "מעון מוריה - גדרה",
      "text": "",
      "stayTimes": "14:00 - 22:00",
      "t_start": "2020-04-05T12:00:00",
      "t_end": "2020-04-05T20:00:00",
      "link": ""
    },
    {
      "id": 442136,
      "lat": 32.6494422000001,
      "lon": 35.2905623,
      "label": "טיב טעם - מזרע",
      "text": "",
      "stayTimes": "09:00 - 09:30",
      "t_start": "2020-04-08T07:00:00",
      "t_end": "2020-04-08T07:30:00",
      "link": ""
    },
    {
      "id": 442137,
      "lat": 32.1823231000001,
      "lon": 34.8954868000001,
      "label": "ביה\"ח מאיר - כפר סבא",
      "text": "",
      "stayTimes": "08:00 - 08:30",
      "t_start": "2020-04-05T06:00:00",
      "t_end": "2020-04-05T06:30:00",
      "link": ""
    },
    {
      "id": 442138,
      "lat": 32.0469554490001,
      "lon": 34.8448678510001,
      "label": "מעבדה מרכזית תל השומר - רמת גן",
      "text": "",
      "stayTimes": "07:30 - 09:00",
      "t_start": "2020-04-05T05:30:00",
      "t_end": "2020-04-05T07:00:00",
      "link": ""
    },
    {
      "id": 442139,
      "lat": 32.0444342870001,
      "lon": 34.7691806880001,
      "label": "מעבדה לבריאות הציבור אבו כביר - תל אביב - יפו",
      "text": "",
      "stayTimes": "09:30 - 12:00",
      "t_start": "2020-04-05T07:30:00",
      "t_end": "2020-04-05T10:00:00",
      "link": ""
    },
    {
      "id": 442140,
      "lat": 32.0906142640001,
      "lon": 34.945982932,
      "label": "פינוי מדא לבית חולים - ראש העין",
      "text": "",
      "stayTimes": "00:00 - 00:00",
      "t_start": "2020-04-04T22:00:00",
      "t_end": "2020-04-04T22:00:00",
      "link": ""
    },
    {
      "id": 442141,
      "lat": 32.028290579,
      "lon": 34.7483266520001,
      "label": "בית חולים בית בלב - בת ים",
      "text": "",
      "stayTimes": "08:00 - 16:00",
      "t_start": "2020-04-05T06:00:00",
      "t_end": "2020-04-05T14:00:00",
      "link": ""
    },
    {
      "id": 442142,
      "lat": 32.1673930440001,
      "lon": 34.8412880870001,
      "label": "סופר פארם - הרצליה",
      "text": "",
      "stayTimes": "12:00 - 12:30",
      "t_start": "2020-04-05T10:00:00",
      "t_end": "2020-04-05T10:30:00",
      "link": ""
    },
    {
      "id": 442143,
      "lat": 32.167390137,
      "lon": 34.841294954,
      "label": "חנות פארם - הרצליה",
      "text": "",
      "stayTimes": "12:30 - 13:00",
      "t_start": "2020-04-05T10:30:00",
      "t_end": "2020-04-05T11:00:00",
      "link": ""
    },
    {
      "id": 442144,
      "lat": 32.1818416,
      "lon": 34.8698910000001,
      "label": "ויקטורי - רעננה",
      "text": "",
      "stayTimes": "19:00 - 20:00",
      "t_start": "2020-04-05T17:00:00",
      "t_end": "2020-04-05T18:00:00",
      "link": ""
    },
    {
      "id": 442145,
      "lat": 31.8135049000001,
      "lon": 34.6500062000001,
      "label": "בית הדר - אשדוד",
      "text": "",
      "stayTimes": "08:00 - 08:30",
      "t_start": "2020-04-15T06:00:00",
      "t_end": "2020-04-15T06:30:00",
      "link": ""
    },
    {
      "id": 442146,
      "lat": 32.1058370000001,
      "lon": 34.8923941,
      "label": "סופר \"אושר עד\" - פתח תקווה",
      "text": "",
      "stayTimes": "14:00 - 15:00",
      "t_start": "2020-04-05T12:00:00",
      "t_end": "2020-04-05T13:00:00",
      "link": ""
    },
    {
      "id": 442147,
      "lat": 32.6486540000001,
      "lon": 35.288241,
      "label": "בית אבות אור העמק - מזרע",
      "text": "",
      "stayTimes": "07:00 - 14:00",
      "t_start": "2020-04-08T05:00:00",
      "t_end": "2020-04-08T12:00:00",
      "link": ""
    },
    {
      "id": 442148,
      "lat": 32.6486540000001,
      "lon": 35.288241,
      "label": "בית אבות אור העמק - מזרע",
      "text": "",
      "stayTimes": "16:00 - 18:00",
      "t_start": "2020-04-08T14:00:00",
      "t_end": "2020-04-08T16:00:00",
      "link": ""
    },
    {
      "id": 442149,
      "lat": 32.6486540000001,
      "lon": 35.288241,
      "label": "בית אבות אור העמק - מזרע",
      "text": "",
      "stayTimes": "07:10 - 17:00",
      "t_start": "2020-04-12T05:10:00",
      "t_end": "2020-04-12T15:00:00",
      "link": ""
    },
    {
      "id": 442150,
      "lat": 32.04834607,
      "lon": 34.9577129480001,
      "label": "זול כל - אלעד",
      "text": "",
      "stayTimes": "18:00 - 18:10",
      "t_start": "2020-04-12T16:00:00",
      "t_end": "2020-04-12T16:10:00",
      "link": ""
    },
    {
      "id": 442151,
      "lat": 32.1722288730001,
      "lon": 34.9248283950001,
      "label": "מרכז לסר- ביצים - כפר סבא",
      "text": "",
      "stayTimes": "15:00 - 16:00",
      "t_start": "2020-04-06T13:00:00",
      "t_end": "2020-04-06T14:00:00",
      "link": ""
    },
    {
      "id": 442152,
      "lat": 32.0541667000001,
      "lon": 34.9638889,
      "label": "נתיב החסד - אלעד",
      "text": "",
      "stayTimes": "15:00 - 15:30",
      "t_start": "2020-04-05T13:00:00",
      "t_end": "2020-04-05T13:30:00",
      "link": ""
    },
    {
      "id": 442153,
      "lat": 32.0504166260001,
      "lon": 34.9503998230001,
      "label": "כולל סנטר - אלעד",
      "text": "",
      "stayTimes": "10:45 - 11:30",
      "t_start": "2020-04-05T08:45:00",
      "t_end": "2020-04-05T09:30:00",
      "link": ""
    },
    {
      "id": 442154,
      "lat": 32.7791922000001,
      "lon": 35.5029054,
      "label": "סופר מרקט יוחננוף - טבריה",
      "text": "",
      "stayTimes": "07:00 - 13:00",
      "t_start": "2020-04-05T05:00:00",
      "t_end": "2020-04-05T11:00:00",
      "link": ""
    },
    {
      "id": 442155,
      "lat": 31.9485812,
      "lon": 34.7889725000001,
      "label": "מרכז גריאטרי ראש\"צ - ראשון לציון",
      "text": "",
      "stayTimes": "08:00 - 08:30",
      "t_start": "2020-04-05T06:00:00",
      "t_end": "2020-04-05T06:30:00",
      "link": ""
    },
    {
      "id": 442156,
      "lat": 32.0525832270001,
      "lon": 34.9512222270001,
      "label": "סופר \"יש חסד\" - אלעד",
      "text": "",
      "stayTimes": "11:00 - 12:20",
      "t_start": "2020-04-05T09:00:00",
      "t_end": "2020-04-05T10:20:00",
      "link": ""
    },
    {
      "id": 442157,
      "lat": 32.0480153020001,
      "lon": 34.9546538440001,
      "label": "סופר \"שוק מהדרין\" - אלעד",
      "text": "",
      "stayTimes": "21:00 - 21:30",
      "t_start": "2020-04-05T19:00:00",
      "t_end": "2020-04-05T19:30:00",
      "link": ""
    },
    {
      "id": 442158,
      "lat": 31.8030403000001,
      "lon": 35.2161090000001,
      "label": "מעון אורים - ירושלים",
      "text": "",
      "stayTimes": "08:00 - 08:30",
      "t_start": "2020-04-05T06:00:00",
      "t_end": "2020-04-05T06:30:00",
      "link": ""
    },
    {
      "id": 442159,
      "lat": 32.0675613000001,
      "lon": 34.7946249,
      "label": "סופר \"אושר עד\" - תל אביב - יפו",
      "text": "",
      "stayTimes": "12:30 - 14:00",
      "t_start": "2020-04-05T10:30:00",
      "t_end": "2020-04-05T12:00:00",
      "link": ""
    },
    {
      "id": 442160,
      "lat": 31.416920222,
      "lon": 34.5902385630001,
      "label": "סופר כהן אזור התעשיה - נתיבות",
      "text": "",
      "stayTimes": "16:00 - 18:00",
      "t_start": "2020-04-05T14:00:00",
      "t_end": "2020-04-05T16:00:00",
      "link": ""
    },
    {
      "id": 442161,
      "lat": 32.6821624,
      "lon": 35.2773957000001,
      "label": "בית מרקחת  של קופ\"ח כללית - יפיע",
      "text": "",
      "stayTimes": "10:00 - 10:30",
      "t_start": "2020-04-05T08:00:00",
      "t_end": "2020-04-05T08:30:00",
      "link": ""
    },
    {
      "id": 442162,
      "lat": 32.1823231000001,
      "lon": 34.8954868000001,
      "label": "מאיר - כפר סבא",
      "text": "",
      "stayTimes": "07:00 - 22:00",
      "t_start": "2020-04-06T05:00:00",
      "t_end": "2020-04-06T20:00:00",
      "link": ""
    },
    {
      "id": 442163,
      "lat": 32.1823231000001,
      "lon": 34.8954868000001,
      "label": "מאיר - כפר סבא",
      "text": "",
      "stayTimes": "07:00 - 16:30",
      "t_start": "2020-04-07T05:00:00",
      "t_end": "2020-04-07T14:30:00",
      "link": ""
    },
    {
      "id": 442164,
      "lat": 32.451313,
      "lon": 34.8957780000001,
      "label": "רנטגן הלל יפה - חדרה",
      "text": "",
      "stayTimes": "14:30 - 22:30",
      "t_start": "2020-04-08T12:30:00",
      "t_end": "2020-04-08T20:30:00",
      "link": ""
    },
    {
      "id": 442165,
      "lat": 32.4623320160001,
      "lon": 35.046626772,
      "label": "שופרסל אקספרס - חריש",
      "text": "",
      "stayTimes": "19:30 - 20:00",
      "t_start": "2020-04-07T17:30:00",
      "t_end": "2020-04-07T18:00:00",
      "link": ""
    },
    {
      "id": 442166,
      "lat": 31.814233394,
      "lon": 34.776429153,
      "label": "מעון מוריה - גדרה",
      "text": "",
      "stayTimes": "05:30 - 14:30",
      "t_start": "2020-04-06T03:30:00",
      "t_end": "2020-04-06T12:30:00",
      "link": ""
    },
    {
      "id": 442167,
      "lat": 31.814216984,
      "lon": 34.7764141330001,
      "label": "מעון מוריה - גדרה",
      "text": "",
      "stayTimes": "05:30 - 14:30",
      "t_start": "2020-04-07T03:30:00",
      "t_end": "2020-04-07T12:30:00",
      "link": ""
    },
    {
      "id": 442168,
      "lat": 31.8142128550001,
      "lon": 34.7764177930001,
      "label": "מעון מוריה - גדרה",
      "text": "",
      "stayTimes": "05:30 - 14:30",
      "t_start": "2020-04-08T03:30:00",
      "t_end": "2020-04-08T12:30:00",
      "link": ""
    },
    {
      "id": 442169,
      "lat": 32.0862991000001,
      "lon": 34.8348894000001,
      "label": "רשת נתיב החסד - בני ברק",
      "text": "",
      "stayTimes": "07:00 - 09:00",
      "t_start": "2020-04-07T05:00:00",
      "t_end": "2020-04-07T07:00:00",
      "link": ""
    },
    {
      "id": 442170,
      "lat": 32.0891573540001,
      "lon": 34.8440267920001,
      "label": "רשת נתיב החסד - בני ברק",
      "text": "",
      "stayTimes": "12:30 - 13:00",
      "t_start": "2020-04-07T10:30:00",
      "t_end": "2020-04-07T11:00:00",
      "link": ""
    },
    {
      "id": 442171,
      "lat": 32.0796249000001,
      "lon": 34.8411712000001,
      "label": "ברכול - בני ברק",
      "text": "",
      "stayTimes": "11:00 - 12:00",
      "t_start": "2020-04-07T09:00:00",
      "t_end": "2020-04-07T10:00:00",
      "link": ""
    },
    {
      "id": 442172,
      "lat": 32.086883636,
      "lon": 34.826847243,
      "label": "רשת נתיב החסד - בני ברק",
      "text": "",
      "stayTimes": "09:30 - 10:30",
      "t_start": "2020-04-07T07:30:00",
      "t_end": "2020-04-07T08:30:00",
      "link": ""
    },
    {
      "id": 442173,
      "lat": 32.0692707000001,
      "lon": 34.8386134,
      "label": "ברכול - רמת גן",
      "text": "",
      "stayTimes": "09:00 - 12:30",
      "t_start": "2020-04-06T07:00:00",
      "t_end": "2020-04-06T10:30:00",
      "link": ""
    },
    {
      "id": 442174,
      "lat": 32.0751126710001,
      "lon": 34.838131892,
      "label": "נתיב החסד - בני ברק",
      "text": "",
      "stayTimes": "09:00 - 10:00",
      "t_start": "2020-04-05T07:00:00",
      "t_end": "2020-04-05T08:00:00",
      "link": ""
    },
    {
      "id": 442175,
      "lat": 32.1018083000001,
      "lon": 34.8298623000001,
      "label": "רמי לוי - בני ברק",
      "text": "",
      "stayTimes": "18:00 - 19:00",
      "t_start": "2020-04-06T16:00:00",
      "t_end": "2020-04-06T17:00:00",
      "link": ""
    },
    {
      "id": 442176,
      "lat": 32.098441286,
      "lon": 34.8242140410001,
      "label": "ויקטורי בקניון איילון - רמת גן",
      "text": "",
      "stayTimes": "19:00 - 20:00",
      "t_start": "2020-04-06T17:00:00",
      "t_end": "2020-04-06T18:00:00",
      "link": ""
    },
    {
      "id": 442177,
      "lat": 32.0905605450001,
      "lon": 34.8670575350001,
      "label": "בית חולים בלינסון - פתח תקווה",
      "text": "",
      "stayTimes": "07:45 - 12:15",
      "t_start": "2020-04-06T05:45:00",
      "t_end": "2020-04-06T10:15:00",
      "link": ""
    },
    {
      "id": 442178,
      "lat": 32.0885839650001,
      "lon": 34.889469504,
      "label": "קופת חולים לאומית - פתח תקווה",
      "text": "",
      "stayTimes": "08:00 - 08:20",
      "t_start": "2020-04-05T06:00:00",
      "t_end": "2020-04-05T06:20:00",
      "link": ""
    },
    {
      "id": 442179,
      "lat": 31.8142224540001,
      "lon": 34.7764119880001,
      "label": "מעון מוריה - גדרה",
      "text": "",
      "stayTimes": "05:30 - 14:30",
      "t_start": "2020-04-12T03:30:00",
      "t_end": "2020-04-12T12:30:00",
      "link": ""
    },
    {
      "id": 442180,
      "lat": 32.6486540000001,
      "lon": 35.288241,
      "label": "בית אבות אור העמק - מזרע",
      "text": "",
      "stayTimes": "07:10 - 14:00",
      "t_start": "2020-04-14T05:10:00",
      "t_end": "2020-04-14T12:00:00",
      "link": ""
    },
    {
      "id": 442181,
      "lat": 32.6486540000001,
      "lon": 35.288241,
      "label": "בית אבות אור העמק - מזרע",
      "text": "",
      "stayTimes": "17:30 - 20:00",
      "t_start": "2020-04-13T15:30:00",
      "t_end": "2020-04-13T18:00:00",
      "link": ""
    },
    {
      "id": 442182,
      "lat": 32.0967519980001,
      "lon": 34.840960135,
      "label": "נתיב החסד - בני ברק",
      "text": "",
      "stayTimes": "12:00 - 14:30",
      "t_start": "2020-04-05T10:00:00",
      "t_end": "2020-04-05T12:30:00",
      "link": ""
    },
    {
      "id": 442183,
      "lat": 32.0986354120001,
      "lon": 34.839776977,
      "label": "נתיב החסד - בני ברק",
      "text": "",
      "stayTimes": "14:30 - 16:30",
      "t_start": "2020-04-05T12:30:00",
      "t_end": "2020-04-05T14:30:00",
      "link": ""
    },
    {
      "id": 442184,
      "lat": 32.0974892090001,
      "lon": 34.836421236,
      "label": "נתיב החסד - בני ברק",
      "text": "",
      "stayTimes": "08:00 - 09:00",
      "t_start": "2020-04-05T06:00:00",
      "t_end": "2020-04-05T07:00:00",
      "link": ""
    },
    {
      "id": 442185,
      "lat": 32.1655278000001,
      "lon": 34.8419696,
      "label": "קופת חולים מאוחדת - הרצליה",
      "text": "",
      "stayTimes": "13:30 - 14:00",
      "t_start": "2020-04-05T11:30:00",
      "t_end": "2020-04-05T12:00:00",
      "link": ""
    },
    {
      "id": 442186,
      "lat": 32.0827834,
      "lon": 34.8426542,
      "label": "צרכניה אחיעזר - בני ברק",
      "text": "",
      "stayTimes": "19:00 - 20:00",
      "t_start": "2020-04-05T17:00:00",
      "t_end": "2020-04-05T18:00:00",
      "link": ""
    },
    {
      "id": 442187,
      "lat": 31.9839168010001,
      "lon": 34.7689122560001,
      "label": "סופר רמי לוי מתחם G סינמה סיטי - ראשון לציון",
      "text": "",
      "stayTimes": "12:30 - 13:06",
      "t_start": "2020-04-06T10:30:00",
      "t_end": "2020-04-06T11:06:00",
      "link": ""
    },
    {
      "id": 442188,
      "lat": 32.0833881,
      "lon": 34.8405592,
      "label": "קופ\"ח מכבי בני ברק רח\" קהנמן 64 - בני ברק",
      "text": "",
      "stayTimes": "17:40 - 18:10",
      "t_start": "2020-04-06T15:40:00",
      "t_end": "2020-04-06T16:10:00",
      "link": ""
    },
    {
      "id": 442189,
      "lat": 31.764983806,
      "lon": 35.1494208570001,
      "label": "מח' תינוקות בי\"ח הדסה - ירושלים",
      "text": "",
      "stayTimes": "07:00 - 14:00",
      "t_start": "2020-04-06T05:00:00",
      "t_end": "2020-04-06T12:00:00",
      "link": ""
    },
    {
      "id": 442190,
      "lat": 31.7868018410001,
      "lon": 35.2099549070001,
      "label": "מוקד ערב של קופת חולים מאוחדת - ירושלים",
      "text": "",
      "stayTimes": "21:00 - 23:00",
      "t_start": "2020-04-05T19:00:00",
      "t_end": "2020-04-05T21:00:00",
      "link": ""
    },
    {
      "id": 442191,
      "lat": 31.7867898440001,
      "lon": 35.2099478700001,
      "label": "קופת חולים מאוחדת - ירושלים",
      "text": "",
      "stayTimes": "12:00 - 12:45",
      "t_start": "2020-04-06T10:00:00",
      "t_end": "2020-04-06T10:45:00",
      "link": ""
    },
    {
      "id": 442192,
      "lat": 31.7892705800001,
      "lon": 35.2181986470001,
      "label": "קופת חולים מאוחדת פסגת זאב - ירושלים",
      "text": "",
      "stayTimes": "16:45 - 17:00",
      "t_start": "2020-04-05T14:45:00",
      "t_end": "2020-04-05T15:00:00",
      "link": ""
    },
    {
      "id": 442193,
      "lat": 32.1557439000001,
      "lon": 34.8911459,
      "label": "\"שקדיה\" - הוד השרון",
      "text": "",
      "stayTimes": "08:00 - 08:30",
      "t_start": "2020-04-08T06:00:00",
      "t_end": "2020-04-08T06:30:00",
      "link": ""
    },
    {
      "id": 442194,
      "lat": 32.1558361,
      "lon": 34.8911464,
      "label": "בית מרקחת של מכבי - הוד השרון",
      "text": "",
      "stayTimes": "08:00 - 08:30",
      "t_start": "2020-04-08T06:00:00",
      "t_end": "2020-04-08T06:30:00",
      "link": ""
    },
    {
      "id": 442195,
      "lat": 32.1558146,
      "lon": 34.8910203,
      "label": "מעדניה - הוד השרון",
      "text": "",
      "stayTimes": "08:00 - 08:30",
      "t_start": "2020-04-08T06:00:00",
      "t_end": "2020-04-08T06:30:00",
      "link": ""
    },
    {
      "id": 442196,
      "lat": 32.1591120000001,
      "lon": 34.8883456,
      "label": "מגה בעיר - הוד השרון",
      "text": "",
      "stayTimes": "08:00 - 08:30",
      "t_start": "2020-04-08T06:00:00",
      "t_end": "2020-04-08T06:30:00",
      "link": ""
    },
    {
      "id": 442197,
      "lat": 32.1690857,
      "lon": 34.8775149000001,
      "label": "חנות משק - גבעת ח\"ן",
      "text": "",
      "stayTimes": "08:00 - 08:30",
      "t_start": "2020-04-08T06:00:00",
      "t_end": "2020-04-08T06:30:00",
      "link": ""
    },
    {
      "id": 442198,
      "lat": 32.1432281,
      "lon": 34.891664,
      "label": "סופר בקניון עזריאל - הוד השרון",
      "text": "",
      "stayTimes": "08:00 - 08:30",
      "t_start": "2020-04-08T06:00:00",
      "t_end": "2020-04-08T06:30:00",
      "link": ""
    },
    {
      "id": 442199,
      "lat": 32.0710518220001,
      "lon": 34.8022676530001,
      "label": "בית הקברות רמב\"מ - גבעתיים",
      "text": "",
      "stayTimes": "08:00 - 21:00",
      "t_start": "2020-04-08T06:00:00",
      "t_end": "2020-04-08T19:00:00",
      "link": ""
    },
    {
      "id": 442200,
      "lat": 32.779623171,
      "lon": 35.5114331830001,
      "label": "הנשיא ויצמן 1017, טבריה",
      "text": "",
      "stayTimes": "12:00 - 13:30",
      "t_start": "2020-04-07T10:00:00",
      "t_end": "2020-04-07T11:30:00",
      "link": ""
    },
    {
      "id": 442201,
      "lat": 32.7792120440001,
      "lon": 35.50291163,
      "label": "החרושת 10, טבריה",
      "text": "",
      "stayTimes": "13:45 - 14:15",
      "t_start": "2020-04-07T11:45:00",
      "t_end": "2020-04-07T12:15:00",
      "link": ""
    },
    {
      "id": 442202,
      "lat": 32.7791922000001,
      "lon": 35.5029054,
      "label": "סופר מרקט יוחננוף - טבריה",
      "text": "",
      "stayTimes": "07:30 - 07:45",
      "t_start": "2020-04-05T05:30:00",
      "t_end": "2020-04-05T05:45:00",
      "link": ""
    },
    {
      "id": 442203,
      "lat": 32.0556009000001,
      "lon": 34.8631348000001,
      "label": "סופר \"מגה\" - קרית אונו",
      "text": "",
      "stayTimes": "07:00 - 07:30",
      "t_start": "2020-04-07T05:00:00",
      "t_end": "2020-04-07T05:30:00",
      "link": ""
    },
    {
      "id": 442204,
      "lat": 32.0880423,
      "lon": 34.8884476000001,
      "label": "סניף דואר - פתח תקווה",
      "text": "",
      "stayTimes": "12:00 - 12:30",
      "t_start": "2020-04-07T10:00:00",
      "t_end": "2020-04-07T10:30:00",
      "link": ""
    },
    {
      "id": 442205,
      "lat": 32.4587389500001,
      "lon": 35.0443252960001,
      "label": "שופרסל אקספרס - חריש",
      "text": "",
      "stayTimes": "08:00 - 08:30",
      "t_start": "2020-04-06T06:00:00",
      "t_end": "2020-04-06T06:30:00",
      "link": ""
    },
    {
      "id": 442206,
      "lat": 32.0796249000001,
      "lon": 34.8411712000001,
      "label": "בר כל - בני ברק",
      "text": "",
      "stayTimes": "12:30 - 14:00",
      "t_start": "2020-04-07T10:30:00",
      "t_end": "2020-04-07T12:00:00",
      "link": ""
    },
    {
      "id": 442207,
      "lat": 31.7553923200001,
      "lon": 35.223620322,
      "label": "טרם - ירושלים",
      "text": "",
      "stayTimes": "09:30 - 10:30",
      "t_start": "2020-04-06T07:30:00",
      "t_end": "2020-04-06T08:30:00",
      "link": ""
    },
    {
      "id": 442208,
      "lat": 31.8652568000001,
      "lon": 35.1681530000001,
      "label": "סופר מחסני השוק - גבעת זאב",
      "text": "",
      "stayTimes": "21:30 - 22:30",
      "t_start": "2020-04-07T19:30:00",
      "t_end": "2020-04-07T20:30:00",
      "link": ""
    },
    {
      "id": 442209,
      "lat": 31.8652905930001,
      "lon": 35.1678811200001,
      "label": "מרקטו 2000 - גבעת זאב",
      "text": "",
      "stayTimes": "11:00 - 11:30",
      "t_start": "2020-04-08T09:00:00",
      "t_end": "2020-04-08T09:30:00",
      "link": ""
    },
    {
      "id": 442210,
      "lat": 32.182369911,
      "lon": 34.8955200460001,
      "label": "בית חולים מאיר - כפר סבא",
      "text": "",
      "stayTimes": "19:00 - 19:30",
      "t_start": "2020-04-08T17:00:00",
      "t_end": "2020-04-08T17:30:00",
      "link": ""
    },
    {
      "id": 442211,
      "lat": 31.7926447730001,
      "lon": 35.2241985920001,
      "label": "סופר - ירושלים",
      "text": "",
      "stayTimes": "09:00 - 09:30",
      "t_start": "2020-04-05T07:00:00",
      "t_end": "2020-04-05T07:30:00",
      "link": ""
    },
    {
      "id": 442212,
      "lat": 31.937298766,
      "lon": 35.043176385,
      "label": "ברכת הרשבי - מודיעין עילית",
      "text": "",
      "stayTimes": "13:00 - 13:15",
      "t_start": "2020-04-05T11:00:00",
      "t_end": "2020-04-05T11:15:00",
      "link": ""
    },
    {
      "id": 442213,
      "lat": 32.4351603000001,
      "lon": 34.9089263000001,
      "label": "שופרסל דיל שערי חדרה - חדרה",
      "text": "",
      "stayTimes": "11:00 - 12:00",
      "t_start": "2020-04-05T09:00:00",
      "t_end": "2020-04-05T10:00:00",
      "link": ""
    },
    {
      "id": 442214,
      "lat": 32.4362153000001,
      "lon": 34.9211945000001,
      "label": "בנק הפועלים - חדרה",
      "text": "",
      "stayTimes": "09:00 - 10:00",
      "t_start": "2020-04-05T07:00:00",
      "t_end": "2020-04-05T08:00:00",
      "link": ""
    },
    {
      "id": 442215,
      "lat": 32.4357942,
      "lon": 34.9163935,
      "label": "קופרת חולים כללית קורן - חדרה",
      "text": "",
      "stayTimes": "08:00 - 08:30",
      "t_start": "2020-04-05T06:00:00",
      "t_end": "2020-04-05T06:30:00",
      "link": ""
    },
    {
      "id": 442216,
      "lat": 31.9648014000001,
      "lon": 34.7920651000001,
      "label": "פיצריה ירושלמית - ראשון לציון",
      "text": "",
      "stayTimes": "13:00 - 22:00",
      "t_start": "2020-04-05T11:00:00",
      "t_end": "2020-04-05T20:00:00",
      "link": ""
    },
    {
      "id": 442217,
      "lat": 31.9648014000001,
      "lon": 34.7920651000001,
      "label": "פיצריה ירושלמית - ראשון לציון",
      "text": "",
      "stayTimes": "15:00 - 22:00",
      "t_start": "2020-04-06T13:00:00",
      "t_end": "2020-04-06T20:00:00",
      "link": ""
    },
    {
      "id": 442218,
      "lat": 31.8030403000001,
      "lon": 35.2161090000001,
      "label": "מעון הורים שומרי החומות - ירושלים",
      "text": "",
      "stayTimes": "08:00 - 08:30",
      "t_start": "2020-04-06T06:00:00",
      "t_end": "2020-04-06T06:30:00",
      "link": ""
    },
    {
      "id": 442219,
      "lat": 31.7852588000001,
      "lon": 35.1830189,
      "label": "אושר עד גבעת שאול - ירושלים",
      "text": "",
      "stayTimes": "17:00 - 19:00",
      "t_start": "2020-04-05T15:00:00",
      "t_end": "2020-04-05T17:00:00",
      "link": ""
    },
    {
      "id": 442220,
      "lat": 31.771007561,
      "lon": 35.183845385,
      "label": "שפע ברכת השם - בית וגן - ירושלים",
      "text": "",
      "stayTimes": "12:00 - 13:00",
      "t_start": "2020-04-07T10:00:00",
      "t_end": "2020-04-07T11:00:00",
      "link": ""
    },
    {
      "id": 442221,
      "lat": 32.3283018290001,
      "lon": 34.8567293560001,
      "label": "חנות חשמל של רובי - נתניה",
      "text": "",
      "stayTimes": "10:30 - 16:30",
      "t_start": "2020-04-05T08:30:00",
      "t_end": "2020-04-05T14:30:00",
      "link": ""
    },
    {
      "id": 442222,
      "lat": 32.7890532000001,
      "lon": 35.5335639,
      "label": "יהודה הלוי 113, טבריה",
      "text": "",
      "stayTimes": "12:30 - 18:00",
      "t_start": "2020-04-06T10:30:00",
      "t_end": "2020-04-06T16:00:00",
      "link": ""
    },
    {
      "id": 442223,
      "lat": 32.7789031,
      "lon": 35.5167485000001,
      "label": "אור חיים 11, טבריה",
      "text": "",
      "stayTimes": "11:00 - 11:45",
      "t_start": "2020-04-05T09:00:00",
      "t_end": "2020-04-05T09:45:00",
      "link": ""
    },
    {
      "id": 442224,
      "lat": 32.0773136,
      "lon": 34.8423142,
      "label": "שוק העיר - בני ברק",
      "text": "",
      "stayTimes": "09:00 - 10:30",
      "t_start": "2020-04-08T07:00:00",
      "t_end": "2020-04-08T08:30:00",
      "link": ""
    },
    {
      "id": 442225,
      "lat": 32.4587369380001,
      "lon": 35.044326749,
      "label": "שופר סל אקספרס - חריש",
      "text": "",
      "stayTimes": "08:00 - 08:30",
      "t_start": "2020-04-08T06:00:00",
      "t_end": "2020-04-08T06:30:00",
      "link": ""
    },
    {
      "id": 442226,
      "lat": 31.7932316000001,
      "lon": 35.3288288000001,
      "label": "מפעל \"הר שפי\" - מעלה אדומים",
      "text": "",
      "stayTimes": "08:00 - 17:00",
      "t_start": "2020-04-05T06:00:00",
      "t_end": "2020-04-05T15:00:00",
      "link": ""
    },
    {
      "id": 442227,
      "lat": 32.0989093530001,
      "lon": 34.829728135,
      "label": "סופר אושר עד - בני ברק",
      "text": "",
      "stayTimes": "07:00 - 23:00",
      "t_start": "2020-04-05T05:00:00",
      "t_end": "2020-04-05T21:00:00",
      "link": ""
    },
    {
      "id": 442228,
      "lat": 32.098967524,
      "lon": 34.829788212,
      "label": "סופר אושר עד - בני ברק",
      "text": "",
      "stayTimes": "07:00 - 23:00",
      "t_start": "2020-04-06T05:00:00",
      "t_end": "2020-04-06T21:00:00",
      "link": ""
    },
    {
      "id": 442229,
      "lat": 32.0988889000001,
      "lon": 34.8297222,
      "label": "סופר עושר עד - בני ברק",
      "text": "",
      "stayTimes": "07:00 - 23:00",
      "t_start": "2020-04-07T05:00:00",
      "t_end": "2020-04-07T21:00:00",
      "link": ""
    },
    {
      "id": 442230,
      "lat": 31.7948177000001,
      "lon": 34.6407751,
      "label": "סופר פאפא - אשדוד",
      "text": "",
      "stayTimes": "14:00 - 14:30",
      "t_start": "2020-04-07T12:00:00",
      "t_end": "2020-04-07T12:30:00",
      "link": ""
    },
    {
      "id": 442231,
      "lat": 32.7890532000001,
      "lon": 35.5335639,
      "label": "יהודה הלוי 113, טבריה",
      "text": "",
      "stayTimes": "12:30 - 18:00",
      "t_start": "2020-04-06T10:30:00",
      "t_end": "2020-04-06T16:00:00",
      "link": ""
    },
    {
      "id": 442232,
      "lat": 32.779251238,
      "lon": 35.516785172,
      "label": "דואר ישראל - טבריה",
      "text": "",
      "stayTimes": "11:00 - 11:45",
      "t_start": "2020-04-05T09:00:00",
      "t_end": "2020-04-05T09:45:00",
      "link": ""
    },
    {
      "id": 442233,
      "lat": 31.7937868810001,
      "lon": 35.3337773370001,
      "label": "רמי לוי - סניף מעלה אדומים - מעלה אדומים",
      "text": "",
      "stayTimes": "10:00 - 12:00",
      "t_start": "2020-04-07T08:00:00",
      "t_end": "2020-04-07T10:00:00",
      "link": ""
    },
    {
      "id": 442234,
      "lat": 32.079536365,
      "lon": 34.835004128,
      "label": "מכולת נחמיה - בני ברק",
      "text": "",
      "stayTimes": "10:00 - 10:30",
      "t_start": "2020-04-06T08:00:00",
      "t_end": "2020-04-06T08:30:00",
      "link": ""
    },
    {
      "id": 442235,
      "lat": 31.9661207720001,
      "lon": 34.8019810280001,
      "label": "חניון ניסן יעקובי - ראשון לציון",
      "text": "",
      "stayTimes": "06:30 - 15:00",
      "t_start": "2020-04-05T04:30:00",
      "t_end": "2020-04-05T13:00:00",
      "link": ""
    },
    {
      "id": 442236,
      "lat": 31.7919300120001,
      "lon": 35.2045671670001,
      "label": "סופר \"שערי רווחה\" - ירושלים",
      "text": "",
      "stayTimes": "16:30 - 16:45",
      "t_start": "2020-04-05T14:30:00",
      "t_end": "2020-04-05T14:45:00",
      "link": ""
    },
    {
      "id": 442237,
      "lat": 31.7947479000001,
      "lon": 35.2084070000001,
      "label": "בית מרקחת בקניון \"רב שפע\" - ירושלים",
      "text": "",
      "stayTimes": "21:00 - 21:20",
      "t_start": "2020-04-05T19:00:00",
      "t_end": "2020-04-05T19:20:00",
      "link": ""
    },
    {
      "id": 442238,
      "lat": 32.6494422000001,
      "lon": 35.2905623,
      "label": "טיב טעם - מזרע",
      "text": "",
      "stayTimes": "09:00 - 09:30",
      "t_start": "2020-04-14T07:00:00",
      "t_end": "2020-04-14T07:30:00",
      "link": ""
    },
    {
      "id": 442239,
      "lat": 32.6035835000001,
      "lon": 35.2960555000001,
      "label": "מקלות וניל - עפולה",
      "text": "",
      "stayTimes": "07:30 - 07:40",
      "t_start": "2020-04-16T05:30:00",
      "t_end": "2020-04-16T05:40:00",
      "link": ""
    },
    {
      "id": 442240,
      "lat": 32.6486540000001,
      "lon": 35.288241,
      "label": "בית אבות אור העמק - מזרע",
      "text": "",
      "stayTimes": "08:00 - 17:00",
      "t_start": "2020-04-16T06:00:00",
      "t_end": "2020-04-16T15:00:00",
      "link": ""
    },
    {
      "id": 442241,
      "lat": 31.75548095,
      "lon": 35.2236184770001,
      "label": "טרם סניף היילת - ירושלים",
      "text": "",
      "stayTimes": "09:30 - 10:30",
      "t_start": "2020-04-06T07:30:00",
      "t_end": "2020-04-06T08:30:00",
      "link": ""
    },
    {
      "id": 442242,
      "lat": 32.3969300000001,
      "lon": 35.035914,
      "label": "סופר אל באיין-כפר גת - ג'ת",
      "text": "",
      "stayTimes": "12:00 - 13:00",
      "t_start": "2020-04-06T10:00:00",
      "t_end": "2020-04-06T11:00:00",
      "link": ""
    },
    {
      "id": 442243,
      "lat": 32.7930742,
      "lon": 35.5343003,
      "label": "גלידות פלדמן - טבריה",
      "text": "",
      "stayTimes": "13:30 - 14:30",
      "t_start": "2020-04-08T11:30:00",
      "t_end": "2020-04-08T12:30:00",
      "link": ""
    },
    {
      "id": 442244,
      "lat": 32.7931494000001,
      "lon": 35.5336308,
      "label": "חנות חד פעמי מולטי סרביס - טבריה",
      "text": "",
      "stayTimes": "20:30 - 21:30",
      "t_start": "2020-04-07T18:30:00",
      "t_end": "2020-04-07T19:30:00",
      "link": ""
    },
    {
      "id": 442245,
      "lat": 32.7892867370001,
      "lon": 35.5350182060001,
      "label": "סופרמרקט שופרסל דיל - טבריה",
      "text": "",
      "stayTimes": "12:00 - 13:30",
      "t_start": "2020-04-08T10:00:00",
      "t_end": "2020-04-08T11:30:00",
      "link": ""
    },
    {
      "id": 442246,
      "lat": 32.7892461500001,
      "lon": 35.535012841,
      "label": "סופרמרקט שופרסל דיל - טבריה",
      "text": "",
      "stayTimes": "18:00 - 20:00",
      "t_start": "2020-04-07T16:00:00",
      "t_end": "2020-04-07T18:00:00",
      "link": ""
    },
    {
      "id": 442247,
      "lat": 32.077318516,
      "lon": 34.8423142010001,
      "label": "שוק העיר - בני ברק",
      "text": "",
      "stayTimes": "16:00 - 17:00",
      "t_start": "2020-04-05T14:00:00",
      "t_end": "2020-04-05T15:00:00",
      "link": ""
    },
    {
      "id": 442248,
      "lat": 31.9429862000001,
      "lon": 34.8759535,
      "label": "מוטי מרקט - לוד",
      "text": "",
      "stayTimes": "10:30 - 12:30",
      "t_start": "2020-04-07T08:30:00",
      "t_end": "2020-04-07T10:30:00",
      "link": ""
    },
    {
      "id": 442249,
      "lat": 32.7791922000001,
      "lon": 35.5029054,
      "label": "סופרמרקט יוחננוף - טבריה",
      "text": "",
      "stayTimes": "14:00 - 16:00",
      "t_start": "2020-04-06T12:00:00",
      "t_end": "2020-04-06T14:00:00",
      "link": ""
    },
    {
      "id": 442250,
      "lat": 32.0908013000001,
      "lon": 34.8389312,
      "label": "חנות \"יש\" - בני ברק",
      "text": "",
      "stayTimes": "14:30 - 15:30",
      "t_start": "2020-04-06T12:30:00",
      "t_end": "2020-04-06T13:30:00",
      "link": ""
    },
    {
      "id": 442251,
      "lat": 32.0899676000001,
      "lon": 34.8385091000001,
      "label": "שיווק ישיר - בני ברק",
      "text": "",
      "stayTimes": "16:00 - 16:45",
      "t_start": "2020-04-06T14:00:00",
      "t_end": "2020-04-06T14:45:00",
      "link": ""
    },
    {
      "id": 442252,
      "lat": 32.7246002000001,
      "lon": 35.0581080000001,
      "label": "מרפאת מאוחדת סניף ראשי - עספיא",
      "text": "",
      "stayTimes": "08:20 - 08:50",
      "t_start": "2020-04-05T06:20:00",
      "t_end": "2020-04-05T06:50:00",
      "link": ""
    },
    {
      "id": 442253,
      "lat": 31.7867965,
      "lon": 34.6446318000001,
      "label": "מכולת הציונות - אשדוד",
      "text": "",
      "stayTimes": "17:30 - 18:00",
      "t_start": "2020-04-06T15:30:00",
      "t_end": "2020-04-06T16:00:00",
      "link": ""
    },
    {
      "id": 442254,
      "lat": 31.9485812,
      "lon": 34.7889725000001,
      "label": "מרכז גריאטרי מלבן - ראשון לציון",
      "text": "",
      "stayTimes": "07:00 - 15:00",
      "t_start": "2020-04-05T05:00:00",
      "t_end": "2020-04-05T13:00:00",
      "link": ""
    },
    {
      "id": 442255,
      "lat": 32.1023710000001,
      "lon": 35.207100978,
      "label": "סופרפארם גוד פארם - אריאל",
      "text": "",
      "stayTimes": "10:00 - 10:15",
      "t_start": "2020-04-08T08:00:00",
      "t_end": "2020-04-08T08:15:00",
      "link": ""
    },
    {
      "id": 442256,
      "lat": 32.5055083030001,
      "lon": 35.054321266,
      "label": "סופר אלג'זירה סניף אלערק - כפר קרע",
      "text": "",
      "stayTimes": "15:00 - 15:30",
      "t_start": "2020-04-06T13:00:00",
      "t_end": "2020-04-06T13:30:00",
      "link": ""
    },
    {
      "id": 442257,
      "lat": 32.6210762000001,
      "lon": 35.3165964,
      "label": "מיון בית חולים עפולה - עפולה",
      "text": "",
      "stayTimes": "08:00 - 14:30",
      "t_start": "2020-04-07T06:00:00",
      "t_end": "2020-04-07T12:30:00",
      "link": ""
    },
    {
      "id": 442258,
      "lat": 32.0055320000001,
      "lon": 34.8854112000001,
      "label": "נמל תעופה בן גוריון - נמל תעופה בן-גוריון",
      "text": "",
      "stayTimes": "11:50 - 12:20",
      "t_start": "2020-04-09T09:50:00",
      "t_end": "2020-04-09T10:20:00",
      "link": ""
    },
    {
      "id": 442259,
      "lat": 31.8142139,
      "lon": 34.7764126000001,
      "label": "מעון מוריה - גדרה",
      "text": "",
      "stayTimes": "05:30 - 14:30",
      "t_start": "2020-04-13T03:30:00",
      "t_end": "2020-04-13T12:30:00",
      "link": ""
    },
    {
      "id": 442260,
      "lat": 31.8142139,
      "lon": 34.7764126000001,
      "label": "מעון מוריה - גדרה",
      "text": "",
      "stayTimes": "05:30 - 12:00",
      "t_start": "2020-04-14T03:30:00",
      "t_end": "2020-04-14T10:00:00",
      "link": ""
    },
    {
      "id": 442261,
      "lat": 32.6486540000001,
      "lon": 35.288241,
      "label": "בית אבות אור העמק - מזרע",
      "text": "",
      "stayTimes": "17:00 - 22:00",
      "t_start": "2020-04-17T15:00:00",
      "t_end": "2020-04-17T20:00:00",
      "link": ""
    },
    {
      "id": 442262,
      "lat": 32.0824614000001,
      "lon": 34.8430837000001,
      "label": "חסדי דויד המלך סופר - בני ברק",
      "text": "",
      "stayTimes": "09:00 - 10:00",
      "t_start": "2020-04-07T07:00:00",
      "t_end": "2020-04-07T08:00:00",
      "link": ""
    },
    {
      "id": 442263,
      "lat": 32.0856737070001,
      "lon": 34.843682755,
      "label": "נתיב החסד - בני ברק",
      "text": "",
      "stayTimes": "10:00 - 10:30",
      "t_start": "2020-04-08T08:00:00",
      "t_end": "2020-04-08T08:30:00",
      "link": ""
    },
    {
      "id": 442264,
      "lat": 31.6180253000001,
      "lon": 34.7537390000001,
      "label": "סופר רחמים קרית גת - קרית גת",
      "text": "",
      "stayTimes": "10:00 - 10:30",
      "t_start": "2020-04-07T08:00:00",
      "t_end": "2020-04-07T08:30:00",
      "link": ""
    },
    {
      "id": 442265,
      "lat": 31.618117496,
      "lon": 34.75365649,
      "label": "סופר רחמים - קרית גת",
      "text": "",
      "stayTimes": "10:00 - 10:30",
      "t_start": "2020-04-05T08:00:00",
      "t_end": "2020-04-05T08:30:00",
      "link": ""
    },
    {
      "id": 442266,
      "lat": 32.0362056000001,
      "lon": 34.7620058000001,
      "label": "\"שופרסל\" הלוחמים 62 חולון - חולון",
      "text": "",
      "stayTimes": "07:30 - 07:40",
      "t_start": "2020-04-05T05:30:00",
      "t_end": "2020-04-05T05:40:00",
      "link": ""
    },
    {
      "id": 442267,
      "lat": 32.0684001000001,
      "lon": 34.8220410000001,
      "label": "\"מגה בעיר\" עוזיאל 113 רמת גן - רמת גן",
      "text": "",
      "stayTimes": "11:10 - 11:20",
      "t_start": "2020-04-05T09:10:00",
      "t_end": "2020-04-05T09:20:00",
      "link": ""
    },
    {
      "id": 442268,
      "lat": 32.0715940000001,
      "lon": 34.828264,
      "label": "\"פרש מרקט\" בקניון מרום נווה רמת גן - רמת גן",
      "text": "",
      "stayTimes": "15:00 - 15:15",
      "t_start": "2020-04-06T13:00:00",
      "t_end": "2020-04-06T13:15:00",
      "link": ""
    },
    {
      "id": 442269,
      "lat": 31.9485812,
      "lon": 34.7889725000001,
      "label": "מרכז גריאטרי מלבן - ראשון לציון",
      "text": "",
      "stayTimes": "07:00 - 15:00",
      "t_start": "2020-04-07T05:00:00",
      "t_end": "2020-04-07T13:00:00",
      "link": ""
    },
    {
      "id": 442270,
      "lat": 32.0813121,
      "lon": 34.7704048000001,
      "label": "\"שופרסל\" בן יהודה 79 תל אביב - תל אביב - יפו",
      "text": "",
      "stayTimes": "08:20 - 08:50",
      "t_start": "2020-04-06T06:20:00",
      "t_end": "2020-04-06T06:50:00",
      "link": ""
    },
    {
      "id": 442271,
      "lat": 32.0539889,
      "lon": 34.7647012,
      "label": "\"סופר ברקת\" רח' שלבים 27 תל אביב - תל אביב - יפו",
      "text": "",
      "stayTimes": "07:30 - 07:45",
      "t_start": "2020-04-06T05:30:00",
      "t_end": "2020-04-06T05:45:00",
      "link": ""
    },
    {
      "id": 442272,
      "lat": 32.04893229,
      "lon": 34.7668330600001,
      "label": "\" מפעל סנפיר ים\" - תל אביב - יפו",
      "text": "",
      "stayTimes": "09:15 - 09:45",
      "t_start": "2020-04-05T07:15:00",
      "t_end": "2020-04-05T07:45:00",
      "link": ""
    },
    {
      "id": 442273,
      "lat": 32.051057429,
      "lon": 34.7538797560001,
      "label": "\"שופרסל\" ביפו אנדרמודה רח' דרור 2 תל אביב - תל אביב - יפו",
      "text": "",
      "stayTimes": "08:00 - 08:15",
      "t_start": "2020-04-06T06:00:00",
      "t_end": "2020-04-06T06:15:00",
      "link": ""
    },
    {
      "id": 442274,
      "lat": 32.0562844,
      "lon": 34.7697156,
      "label": "\"שופרסל\" פלורטין 27 תל אביב - תל אביב - יפו",
      "text": "",
      "stayTimes": "10:45 - 11:00",
      "t_start": "2020-04-05T08:45:00",
      "t_end": "2020-04-05T09:00:00",
      "link": ""
    },
    {
      "id": 442275,
      "lat": 32.047802716,
      "lon": 34.7777715920001,
      "label": "\" סופר ברקת\" קיבוץ גלויות 106 תל אביב - תל אביב - יפו",
      "text": "",
      "stayTimes": "07:00 - 07:15",
      "t_start": "2020-04-06T05:00:00",
      "t_end": "2020-04-06T05:15:00",
      "link": ""
    },
    {
      "id": 442276,
      "lat": 32.042469,
      "lon": 34.78076,
      "label": "\"גלידה אמרקאית\" ישראל גורי 34 תל אביב - תל אביב - יפו",
      "text": "",
      "stayTimes": "10:30 - 10:40",
      "t_start": "2020-04-05T08:30:00",
      "t_end": "2020-04-05T08:40:00",
      "link": ""
    },
    {
      "id": 442277,
      "lat": 32.7846748000001,
      "lon": 34.9861212000001,
      "label": "רולדין - חיפה",
      "text": "",
      "stayTimes": "13:00 - 13:10",
      "t_start": "2020-04-10T11:00:00",
      "t_end": "2020-04-10T11:10:00",
      "link": ""
    },
    {
      "id": 442278,
      "lat": 32.7733010000001,
      "lon": 35.04452,
      "label": "מנטה תחנת דלק - נשר",
      "text": "",
      "stayTimes": "18:30 - 19:00",
      "t_start": "2020-04-07T16:30:00",
      "t_end": "2020-04-07T17:00:00",
      "link": ""
    },
    {
      "id": 442279,
      "lat": 31.9110217240001,
      "lon": 34.8064108790001,
      "label": "ויקטורי - רחובות",
      "text": "",
      "stayTimes": "17:30 - 18:30",
      "t_start": "2020-04-06T15:30:00",
      "t_end": "2020-04-06T16:30:00",
      "link": ""
    },
    {
      "id": 442280,
      "lat": 31.69806163,
      "lon": 35.1008720130001,
      "label": "סופר \" שבע ברכות השם\" - ביתר עילית",
      "text": "",
      "stayTimes": "08:30 - 09:30",
      "t_start": "2020-04-06T06:30:00",
      "t_end": "2020-04-06T07:30:00",
      "link": ""
    },
    {
      "id": 442281,
      "lat": 31.7051188,
      "lon": 35.1168587000001,
      "label": "סופר \"יש חסד\" - ביתר עילית",
      "text": "",
      "stayTimes": "12:30 - 13:00",
      "t_start": "2020-04-08T10:30:00",
      "t_end": "2020-04-08T11:00:00",
      "link": ""
    },
    {
      "id": 442282,
      "lat": 32.8163604000001,
      "lon": 34.9915912000001,
      "label": "בית אבות נוף הגפן - חיפה",
      "text": "",
      "stayTimes": "07:00 - 13:30",
      "t_start": "2020-04-08T05:00:00",
      "t_end": "2020-04-08T11:30:00",
      "link": ""
    },
    {
      "id": 442283,
      "lat": 32.7245491,
      "lon": 35.1139211,
      "label": "בית אבות מול כרמל בקיבוץ שער העמקים - שער העמקים",
      "text": "",
      "stayTimes": "15:00 - 23:00",
      "t_start": "2020-04-08T13:00:00",
      "t_end": "2020-04-08T21:00:00",
      "link": ""
    },
    {
      "id": 442284,
      "lat": 32.7884388000001,
      "lon": 34.9863803000001,
      "label": "דואר ישראל אחוזה (מוריה) - חיפה",
      "text": "",
      "stayTimes": "08:45 - 09:00",
      "t_start": "2020-04-07T06:45:00",
      "t_end": "2020-04-07T07:00:00",
      "link": ""
    },
    {
      "id": 442285,
      "lat": 32.7830556000001,
      "lon": 34.9594444000001,
      "label": "שופרסל פארק מתם - חיפה",
      "text": "",
      "stayTimes": "20:30 - 21:00",
      "t_start": "2020-04-07T18:30:00",
      "t_end": "2020-04-07T19:00:00",
      "link": ""
    },
    {
      "id": 442286,
      "lat": 32.8034440000001,
      "lon": 34.9857153,
      "label": "סופר פארם \"כיכר האודיטוריום\" - חיפה",
      "text": "",
      "stayTimes": "12:00 - 12:15",
      "t_start": "2020-04-10T10:00:00",
      "t_end": "2020-04-10T10:15:00",
      "link": ""
    },
    {
      "id": 442287,
      "lat": 32.8033077000001,
      "lon": 34.9859483000001,
      "label": "חנות \"היין והסיגר\" \"כיכר האודיטוריום\" - חיפה",
      "text": "",
      "stayTimes": "12:30 - 12:40",
      "t_start": "2020-04-10T10:30:00",
      "t_end": "2020-04-10T10:40:00",
      "link": ""
    },
    {
      "id": 442288,
      "lat": 32.803503791,
      "lon": 34.9860512920001,
      "label": "סופר מגה בעיר \"כיכר האודיטוריום\" - חיפה",
      "text": "",
      "stayTimes": "12:45 - 12:55",
      "t_start": "2020-04-10T10:45:00",
      "t_end": "2020-04-10T10:55:00",
      "link": ""
    },
    {
      "id": 442289,
      "lat": 32.8175226000001,
      "lon": 34.972657,
      "label": "מכולת שכונתית - חיפה",
      "text": "",
      "stayTimes": "15:00 - 15:15",
      "t_start": "2020-04-08T13:00:00",
      "t_end": "2020-04-08T13:15:00",
      "link": ""
    },
    {
      "id": 442290,
      "lat": 32.098810889,
      "lon": 34.9453303170001,
      "label": "תחנת משטרה - ראש העין",
      "text": "",
      "stayTimes": "07:30 - 16:00",
      "t_start": "2020-04-05T05:30:00",
      "t_end": "2020-04-05T14:00:00",
      "link": ""
    },
    {
      "id": 442291,
      "lat": 32.0988002,
      "lon": 34.9453306,
      "label": "תחנת משטרה - ראש העין",
      "text": "",
      "stayTimes": "07:30 - 16:00",
      "t_start": "2020-04-06T05:30:00",
      "t_end": "2020-04-06T14:00:00",
      "link": ""
    },
    {
      "id": 442292,
      "lat": 32.0988002,
      "lon": 34.9453306,
      "label": "תחנת משטרה - ראש העין",
      "text": "",
      "stayTimes": "07:30 - 16:00",
      "t_start": "2020-04-07T05:30:00",
      "t_end": "2020-04-07T14:00:00",
      "link": ""
    },
    {
      "id": 442293,
      "lat": 32.0988002,
      "lon": 34.9453306,
      "label": "תחנת משטרה - ראש העין",
      "text": "",
      "stayTimes": "07:30 - 11:00",
      "t_start": "2020-04-08T05:30:00",
      "t_end": "2020-04-08T09:00:00",
      "link": ""
    },
    {
      "id": 442294,
      "lat": 32.0552349000001,
      "lon": 34.9606875000001,
      "label": "סופר שפע - אלעד",
      "text": "",
      "stayTimes": "10:00 - 10:30",
      "t_start": "2020-04-05T08:00:00",
      "t_end": "2020-04-05T08:30:00",
      "link": ""
    },
    {
      "id": 442295,
      "lat": 31.7051188,
      "lon": 35.1168587000001,
      "label": "סופר יש חסד - ביתר עילית",
      "text": "",
      "stayTimes": "13:30 - 14:30",
      "t_start": "2020-04-05T11:30:00",
      "t_end": "2020-04-05T12:30:00",
      "link": ""
    },
    {
      "id": 442296,
      "lat": 31.9899838050001,
      "lon": 34.763943124,
      "label": "טיב טעם - ראשון לציון",
      "text": "",
      "stayTimes": "15:00 - 15:30",
      "t_start": "2020-04-07T13:00:00",
      "t_end": "2020-04-07T13:30:00",
      "link": ""
    },
    {
      "id": 442297,
      "lat": 31.7137227000001,
      "lon": 34.9984664,
      "label": "בנק הדואר רמת בית שמש - בית שמש",
      "text": "",
      "stayTimes": "12:30 - 13:30",
      "t_start": "2020-04-06T10:30:00",
      "t_end": "2020-04-06T11:30:00",
      "link": ""
    },
    {
      "id": 442298,
      "lat": 31.7142751000001,
      "lon": 34.9879125000001,
      "label": "בית מרקחת רפואה פארם רמה א - בית שמש",
      "text": "",
      "stayTimes": "13:30 - 14:00",
      "t_start": "2020-04-06T11:30:00",
      "t_end": "2020-04-06T12:00:00",
      "link": ""
    },
    {
      "id": 442299,
      "lat": 31.6932602360001,
      "lon": 35.11354685,
      "label": "כוילל סטור - ביתר עילית",
      "text": "",
      "stayTimes": "10:00 - 11:30",
      "t_start": "2020-04-05T08:00:00",
      "t_end": "2020-04-05T09:30:00",
      "link": ""
    },
    {
      "id": 442300,
      "lat": 31.9648014000001,
      "lon": 34.7920651000001,
      "label": "פיצריה ירושלמית - ראשון לציון",
      "text": "",
      "stayTimes": "13:00 - 22:00",
      "t_start": "2020-04-07T11:00:00",
      "t_end": "2020-04-07T20:00:00",
      "link": ""
    },
    {
      "id": 442301,
      "lat": 31.4231960000001,
      "lon": 34.5952540000001,
      "label": "נתיבות",
      "text": "",
      "stayTimes": "12:30 - 13:00",
      "t_start": "2020-04-06T10:30:00",
      "t_end": "2020-04-06T11:00:00",
      "link": ""
    },
    {
      "id": 442302,
      "lat": 31.7547715000001,
      "lon": 34.992852,
      "label": "חנות נוחות סונול - בית שמש",
      "text": "",
      "stayTimes": "11:30 - 12:00",
      "t_start": "2020-04-07T09:30:00",
      "t_end": "2020-04-07T10:00:00",
      "link": ""
    },
    {
      "id": 442303,
      "lat": 31.7545424910001,
      "lon": 34.9927935600001,
      "label": "קלית יבגי - בית שמש",
      "text": "",
      "stayTimes": "12:00 - 12:15",
      "t_start": "2020-04-07T10:00:00",
      "t_end": "2020-04-07T10:15:00",
      "link": ""
    },
    {
      "id": 442304,
      "lat": 31.7892954000001,
      "lon": 35.2064971,
      "label": "\"טרם\" - ירושלים",
      "text": "",
      "stayTimes": "13:00 - 13:30",
      "t_start": "2020-04-05T11:00:00",
      "t_end": "2020-04-05T11:30:00",
      "link": ""
    },
    {
      "id": 442305,
      "lat": 31.7892954000001,
      "lon": 35.2064971,
      "label": "\"טרם\" - ירושלים",
      "text": "",
      "stayTimes": "13:00 - 13:30",
      "t_start": "2020-04-05T11:00:00",
      "t_end": "2020-04-05T11:30:00",
      "link": ""
    },
    {
      "id": 442306,
      "lat": 32.50602381,
      "lon": 35.0584389740001,
      "label": "ג'יג'י פארם כפר קרע - כפר קרע",
      "text": "",
      "stayTimes": "14:45 - 15:15",
      "t_start": "2020-04-06T12:45:00",
      "t_end": "2020-04-06T13:15:00",
      "link": ""
    },
    {
      "id": 442307,
      "lat": 32.4582558000001,
      "lon": 35.0517596,
      "label": "מתחם בנייה ומגורים בצוותא חריש - חריש",
      "text": "",
      "stayTimes": "12:00 - 14:00",
      "t_start": "2020-04-08T10:00:00",
      "t_end": "2020-04-08T12:00:00",
      "link": ""
    },
    {
      "id": 442308,
      "lat": 32.4582558000001,
      "lon": 35.0517596,
      "label": "מתחם בניה ומגורים בצוותא חריש - חריש",
      "text": "",
      "stayTimes": "12:00 - 14:00",
      "t_start": "2020-04-07T10:00:00",
      "t_end": "2020-04-07T12:00:00",
      "link": ""
    },
    {
      "id": 442309,
      "lat": 31.2432213000001,
      "lon": 34.7989584000001,
      "label": "מכבי פארם סניף רכבת באר שבע - באר שבע",
      "text": "",
      "stayTimes": "12:00 - 15:00",
      "t_start": "2020-04-05T10:00:00",
      "t_end": "2020-04-05T13:00:00",
      "link": ""
    },
    {
      "id": 442310,
      "lat": 31.7360973,
      "lon": 34.9926081,
      "label": "קניון לב הרמה סופר יש חסד - בית שמש",
      "text": "",
      "stayTimes": "17:00 - 18:00",
      "t_start": "2020-04-05T15:00:00",
      "t_end": "2020-04-05T16:00:00",
      "link": ""
    },
    {
      "id": 442311,
      "lat": 31.71286739,
      "lon": 34.9876848660001,
      "label": "קופת חולים לאומית רמה א' - בית שמש",
      "text": "",
      "stayTimes": "10:00 - 10:30",
      "t_start": "2020-04-06T08:00:00",
      "t_end": "2020-04-06T08:30:00",
      "link": ""
    },
    {
      "id": 442312,
      "lat": 32.0779937,
      "lon": 34.8285547,
      "label": "בני תורה - בני ברק",
      "text": "",
      "stayTimes": "12:00 - 13:00",
      "t_start": "2020-04-06T10:00:00",
      "t_end": "2020-04-06T11:00:00",
      "link": ""
    },
    {
      "id": 442313,
      "lat": 32.0862216,
      "lon": 34.8530480000001,
      "label": "סופר ברקת - גבעת שמואל",
      "text": "",
      "stayTimes": "07:30 - 08:00",
      "t_start": "2020-04-08T05:30:00",
      "t_end": "2020-04-08T06:00:00",
      "link": ""
    },
    {
      "id": 442314,
      "lat": 31.2505170000001,
      "lon": 34.7840818,
      "label": "ספי דוג מרבד הקסמים ב\"ש - באר שבע",
      "text": "",
      "stayTimes": "12:00 - 15:00",
      "t_start": "2020-04-06T10:00:00",
      "t_end": "2020-04-06T13:00:00",
      "link": ""
    },
    {
      "id": 442315,
      "lat": 31.7967271750001,
      "lon": 35.242129306,
      "label": "בית חולים הדסה עין כרם - ירושלים",
      "text": "",
      "stayTimes": "06:00 - 14:00",
      "t_start": "2020-04-05T04:00:00",
      "t_end": "2020-04-05T12:00:00",
      "link": ""
    },
    {
      "id": 442316,
      "lat": 31.764661303,
      "lon": 35.148473337,
      "label": "בית חולים הדסה עין כרם - ירושלים",
      "text": "",
      "stayTimes": "06:00 - 14:00",
      "t_start": "2020-04-06T04:00:00",
      "t_end": "2020-04-06T12:00:00",
      "link": ""
    },
    {
      "id": 442317,
      "lat": 31.9005931990001,
      "lon": 34.814680293,
      "label": "בית חולים הדסה עין כרם - ירושלים",
      "text": "",
      "stayTimes": "06:00 - 14:00",
      "t_start": "2020-04-07T04:00:00",
      "t_end": "2020-04-07T12:00:00",
      "link": ""
    },
    {
      "id": 442318,
      "lat": 31.7646485650001,
      "lon": 35.149663376,
      "label": "בית חולים הדסה עין כרם - ירושלים",
      "text": "",
      "stayTimes": "06:00 - 14:00",
      "t_start": "2020-04-08T04:00:00",
      "t_end": "2020-04-08T12:00:00",
      "link": ""
    },
    {
      "id": 442319,
      "lat": 32.0891032000001,
      "lon": 34.8380488,
      "label": "שפע ברכת השם - בני ברק",
      "text": "",
      "stayTimes": "22:00 - 22:30",
      "t_start": "2020-04-07T20:00:00",
      "t_end": "2020-04-07T20:30:00",
      "link": ""
    },
    {
      "id": 442320,
      "lat": 32.3220808740001,
      "lon": 34.8715314300001,
      "label": "רמי לוי - נתניה",
      "text": "",
      "stayTimes": "17:30 - 18:30",
      "t_start": "2020-04-13T15:30:00",
      "t_end": "2020-04-13T16:30:00",
      "link": ""
    },
    {
      "id": 442321,
      "lat": 32.6486540000001,
      "lon": 35.288241,
      "label": "בית אבות אור העמק - מזרע",
      "text": "",
      "stayTimes": "07:00 - 10:30",
      "t_start": "2020-04-17T05:00:00",
      "t_end": "2020-04-17T08:30:00",
      "link": ""
    },
    {
      "id": 442322,
      "lat": 32.4612614330001,
      "lon": 34.9720260770001,
      "label": "מעון לאנשים עם צרכים מיוחדים - פרדס חנה-כרכור",
      "text": "",
      "stayTimes": "09:00 - 18:00",
      "t_start": "2020-04-05T07:00:00",
      "t_end": "2020-04-05T16:00:00",
      "link": ""
    },
    {
      "id": 442323,
      "lat": 31.958583,
      "lon": 34.792875,
      "label": "בית אבות הבולגרי - ראשון לציון",
      "text": "",
      "stayTimes": "07:00 - 15:00",
      "t_start": "2020-04-10T05:00:00",
      "t_end": "2020-04-10T13:00:00",
      "link": ""
    },
    {
      "id": 442324,
      "lat": 32.7940463,
      "lon": 34.9895710000001,
      "label": "עיריית חיפה - חיפה",
      "text": "",
      "stayTimes": "08:00 - 13:30",
      "t_start": "2020-04-07T06:00:00",
      "t_end": "2020-04-07T11:30:00",
      "link": ""
    },
    {
      "id": 442325,
      "lat": 32.8204286000001,
      "lon": 34.9589282000001,
      "label": "יש - חיפה",
      "text": "",
      "stayTimes": "16:00 - 16:10",
      "t_start": "2020-04-05T14:00:00",
      "t_end": "2020-04-05T14:10:00",
      "link": ""
    },
    {
      "id": 442326,
      "lat": 32.8204286000001,
      "lon": 34.9589282000001,
      "label": "יש - חיפה",
      "text": "",
      "stayTimes": "16:00 - 16:10",
      "t_start": "2020-04-05T14:00:00",
      "t_end": "2020-04-05T14:10:00",
      "link": ""
    },
    {
      "id": 442327,
      "lat": 32.084959,
      "lon": 34.8440880000001,
      "label": "מעייני הישועה - בני ברק",
      "text": "",
      "stayTimes": "07:00 - 19:00",
      "t_start": "2020-04-05T05:00:00",
      "t_end": "2020-04-05T17:00:00",
      "link": ""
    },
    {
      "id": 442328,
      "lat": 32.084959,
      "lon": 34.8440880000001,
      "label": "מעייני הישועה - בני ברק",
      "text": "",
      "stayTimes": "07:00 - 19:00",
      "t_start": "2020-04-06T05:00:00",
      "t_end": "2020-04-06T17:00:00",
      "link": ""
    },
    {
      "id": 442329,
      "lat": 32.084959,
      "lon": 34.8440880000001,
      "label": "מעייני הישועה - בני ברק",
      "text": "",
      "stayTimes": "07:00 - 19:00",
      "t_start": "2020-04-07T05:00:00",
      "t_end": "2020-04-07T17:00:00",
      "link": ""
    },
    {
      "id": 442330,
      "lat": 32.0770430000001,
      "lon": 34.841146,
      "label": "מאפיית מסורת - בני ברק",
      "text": "",
      "stayTimes": "08:00 - 15:30",
      "t_start": "2020-04-08T06:00:00",
      "t_end": "2020-04-08T13:30:00",
      "link": ""
    },
    {
      "id": 442331,
      "lat": 32.0908013000001,
      "lon": 34.8389312,
      "label": "יש - בני ברק - בני ברק",
      "text": "",
      "stayTimes": "12:00 - 14:00",
      "t_start": "2020-04-10T10:00:00",
      "t_end": "2020-04-10T12:00:00",
      "link": ""
    },
    {
      "id": 442332,
      "lat": 31.7744048500001,
      "lon": 35.185934205,
      "label": "בי\"ח שערי צדק+- מיון ביולוגי - ירושלים",
      "text": "",
      "stayTimes": "08:00 - 16:00",
      "t_start": "2020-04-06T06:00:00",
      "t_end": "2020-04-06T14:00:00",
      "link": ""
    },
    {
      "id": 442333,
      "lat": 31.7511262,
      "lon": 35.2154249000001,
      "label": "סופר רמי לוי - ירושלים",
      "text": "",
      "stayTimes": "08:00 - 09:00",
      "t_start": "2020-04-07T06:00:00",
      "t_end": "2020-04-07T07:00:00",
      "link": ""
    },
    {
      "id": 442334,
      "lat": 31.79218568,
      "lon": 35.2099435710001,
      "label": "שערי רווחה סופר - ירושלים",
      "text": "",
      "stayTimes": "22:30 - 23:00",
      "t_start": "2020-04-07T20:30:00",
      "t_end": "2020-04-07T21:00:00",
      "link": ""
    },
    {
      "id": 442335,
      "lat": 31.7866726,
      "lon": 35.2248145,
      "label": "שומרי חומות - ירושלים",
      "text": "",
      "stayTimes": "07:00 - 23:00",
      "t_start": "2020-04-08T05:00:00",
      "t_end": "2020-04-08T21:00:00",
      "link": ""
    },
    {
      "id": 442336,
      "lat": 31.8031149380001,
      "lon": 35.2161618120001,
      "label": "שומרי חומות - ירושלים",
      "text": "",
      "stayTimes": "07:00 - 23:30",
      "t_start": "2020-04-09T05:00:00",
      "t_end": "2020-04-09T21:30:00",
      "link": ""
    },
    {
      "id": 442337,
      "lat": 31.9375099000001,
      "lon": 34.8864369,
      "label": "יוחננוף - רמלה",
      "text": "",
      "stayTimes": "14:45 - 15:45",
      "t_start": "2020-04-05T12:45:00",
      "t_end": "2020-04-05T13:45:00",
      "link": ""
    },
    {
      "id": 442338,
      "lat": 31.9266720000001,
      "lon": 34.8777440000001,
      "label": "סופר פארם - רמלה",
      "text": "",
      "stayTimes": "13:20 - 13:30",
      "t_start": "2020-04-10T11:20:00",
      "t_end": "2020-04-10T11:30:00",
      "link": ""
    },
    {
      "id": 442339,
      "lat": 31.8117019000001,
      "lon": 34.6571174000001,
      "label": "קנקון- חנות בשרים - אשדוד",
      "text": "",
      "stayTimes": "13:00 - 13:30",
      "t_start": "2020-04-06T11:00:00",
      "t_end": "2020-04-06T11:30:00",
      "link": ""
    },
    {
      "id": 442340,
      "lat": 31.7649503000001,
      "lon": 35.1494106000001,
      "label": "הדסה עין כרם - ירושלים",
      "text": "",
      "stayTimes": "08:00 - 23:30",
      "t_start": "2020-04-06T06:00:00",
      "t_end": "2020-04-06T21:30:00",
      "link": ""
    },
    {
      "id": 442341,
      "lat": 32.0543710000001,
      "lon": 34.872843,
      "label": "הגבעה 27, סביון",
      "text": "",
      "stayTimes": "07:00 - 15:30",
      "t_start": "2020-04-06T05:00:00",
      "t_end": "2020-04-06T13:30:00",
      "link": ""
    },
    {
      "id": 442342,
      "lat": 31.7919167000001,
      "lon": 35.2045525,
      "label": "שערי רווחה - ירושלים",
      "text": "",
      "stayTimes": "18:00 - 23:30",
      "t_start": "2020-04-05T16:00:00",
      "t_end": "2020-04-05T21:30:00",
      "link": ""
    },
    {
      "id": 442343,
      "lat": 31.7919167000001,
      "lon": 35.2045525,
      "label": "שערי רווחה - ירושלים",
      "text": "",
      "stayTimes": "09:00 - 11:00",
      "t_start": "2020-04-06T07:00:00",
      "t_end": "2020-04-06T09:00:00",
      "link": ""
    },
    {
      "id": 442344,
      "lat": 31.6928594720001,
      "lon": 35.109663832,
      "label": "מכולת חסד לאלפים - ביתר עילית",
      "text": "",
      "stayTimes": "06:30 - 15:00",
      "t_start": "2020-04-06T04:30:00",
      "t_end": "2020-04-06T13:00:00",
      "link": ""
    },
    {
      "id": 442345,
      "lat": 31.8701646380001,
      "lon": 34.821669722,
      "label": "יוחננוף צומת בילו - קרית עקרון",
      "text": "",
      "stayTimes": "15:30 - 17:30",
      "t_start": "2020-04-06T13:30:00",
      "t_end": "2020-04-06T15:30:00",
      "link": ""
    },
    {
      "id": 442346,
      "lat": 32.0747840000001,
      "lon": 34.8372921000001,
      "label": "בית אבות ויזניץ - בני ברק",
      "text": "",
      "stayTimes": "08:00 - 16:30",
      "t_start": "2020-04-07T06:00:00",
      "t_end": "2020-04-07T14:30:00",
      "link": ""
    },
    {
      "id": 442347,
      "lat": 32.0747840000001,
      "lon": 34.8372921000001,
      "label": "בית אבות ויזניץ - בני ברק",
      "text": "",
      "stayTimes": "08:00 - 22:30",
      "t_start": "2020-04-08T06:00:00",
      "t_end": "2020-04-08T20:30:00",
      "link": ""
    },
    {
      "id": 442348,
      "lat": 32.0747840000001,
      "lon": 34.8372921000001,
      "label": "בית אבות ויזניץ - בני ברק",
      "text": "",
      "stayTimes": "08:00 - 22:30",
      "t_start": "2020-04-09T06:00:00",
      "t_end": "2020-04-09T20:30:00",
      "link": ""
    },
    {
      "id": 442349,
      "lat": 32.0747840000001,
      "lon": 34.8372921000001,
      "label": "בית אבות ויזניץ - בני ברק",
      "text": "",
      "stayTimes": "08:00 - 16:00",
      "t_start": "2020-04-06T06:00:00",
      "t_end": "2020-04-06T14:00:00",
      "link": ""
    },
    {
      "id": 442350,
      "lat": 31.7889897630001,
      "lon": 35.2018585010001,
      "label": "בנק הדאר - ירושלים",
      "text": "",
      "stayTimes": "07:30 - 13:00",
      "t_start": "2020-04-10T05:30:00",
      "t_end": "2020-04-10T11:00:00",
      "link": ""
    },
    {
      "id": 442351,
      "lat": 31.8170118670001,
      "lon": 35.1948838530001,
      "label": "שוק העיר, קניון רמות - ירושלים",
      "text": "",
      "stayTimes": "13:15 - 13:45",
      "t_start": "2020-04-10T11:15:00",
      "t_end": "2020-04-10T11:45:00",
      "link": ""
    },
    {
      "id": 442352,
      "lat": 32.974255038,
      "lon": 35.2230471990001,
      "label": "תחנת דלק בג'ת סאן - ג'ת",
      "text": "",
      "stayTimes": "11:00 - 11:30",
      "t_start": "2020-04-07T09:00:00",
      "t_end": "2020-04-07T09:30:00",
      "link": ""
    },
    {
      "id": 442353,
      "lat": 31.7885096310001,
      "lon": 34.644733264,
      "label": "מאניה - אשדוד",
      "text": "",
      "stayTimes": "13:30 - 14:00",
      "t_start": "2020-04-06T11:30:00",
      "t_end": "2020-04-06T12:00:00",
      "link": ""
    },
    {
      "id": 442354,
      "lat": 31.8142139,
      "lon": 34.7764126000001,
      "label": "מעון מוריה - גדרה",
      "text": "",
      "stayTimes": "08:00 - 08:30",
      "t_start": "2020-04-08T06:00:00",
      "t_end": "2020-04-08T06:30:00",
      "link": ""
    },
    {
      "id": 442355,
      "lat": 31.7675203000001,
      "lon": 35.2953086000001,
      "label": "טרם - מעלה אדומים",
      "text": "",
      "stayTimes": "15:00 - 23:30",
      "t_start": "2020-04-06T13:00:00",
      "t_end": "2020-04-06T21:30:00",
      "link": ""
    },
    {
      "id": 442356,
      "lat": 31.6948502000001,
      "lon": 35.1181495000001,
      "label": "טרם - ביתר עילית",
      "text": "",
      "stayTimes": "19:00 - 23:30",
      "t_start": "2020-04-07T17:00:00",
      "t_end": "2020-04-07T21:30:00",
      "link": ""
    },
    {
      "id": 442357,
      "lat": 31.7566910000001,
      "lon": 34.98792,
      "label": "טרם ומוקד - בית שמש",
      "text": "",
      "stayTimes": "08:00 - 22:00",
      "t_start": "2020-04-08T06:00:00",
      "t_end": "2020-04-08T20:00:00",
      "link": ""
    },
    {
      "id": 442358,
      "lat": 31.714425582,
      "lon": 34.987793627,
      "label": "מאפיית נחמה - בית שמש",
      "text": "",
      "stayTimes": "23:00 - 23:30",
      "t_start": "2020-04-06T21:00:00",
      "t_end": "2020-04-06T21:30:00",
      "link": ""
    },
    {
      "id": 442359,
      "lat": 31.7841582470001,
      "lon": 35.208512388,
      "label": "YELLOW - ירושלים",
      "text": "",
      "stayTimes": "09:00 - 11:00",
      "t_start": "2020-04-07T07:00:00",
      "t_end": "2020-04-07T09:00:00",
      "link": ""
    },
    {
      "id": 442360,
      "lat": 31.7845158000001,
      "lon": 35.2103903,
      "label": "סופר צ'יפ - ירושלים",
      "text": "",
      "stayTimes": "20:00 - 21:00",
      "t_start": "2020-04-07T18:00:00",
      "t_end": "2020-04-07T19:00:00",
      "link": ""
    },
    {
      "id": 442361,
      "lat": 32.088034077,
      "lon": 34.8599886710001,
      "label": "יכין סנטר שופרסל פ\"ת - פתח תקווה",
      "text": "",
      "stayTimes": "22:00 - 23:00",
      "t_start": "2020-04-09T20:00:00",
      "t_end": "2020-04-09T21:00:00",
      "link": ""
    },
    {
      "id": 442362,
      "lat": 32.0834682,
      "lon": 34.8157170000001,
      "label": "ויקטורי קניון איילון - רמת גן",
      "text": "",
      "stayTimes": "15:00 - 16:00",
      "t_start": "2020-04-10T13:00:00",
      "t_end": "2020-04-10T14:00:00",
      "link": ""
    },
    {
      "id": 442363,
      "lat": 32.357862606,
      "lon": 35.0271061890001,
      "label": "סופר לארג' זמר - זמר",
      "text": "",
      "stayTimes": "09:00 - 11:00",
      "t_start": "2020-04-09T07:00:00",
      "t_end": "2020-04-09T09:00:00",
      "link": ""
    },
    {
      "id": 442364,
      "lat": 32.3582654000001,
      "lon": 35.0264863,
      "label": "סופר לארג' זמר - זמר",
      "text": "",
      "stayTimes": "11:00 - 17:00",
      "t_start": "2020-04-06T09:00:00",
      "t_end": "2020-04-06T15:00:00",
      "link": ""
    },
    {
      "id": 442365,
      "lat": 32.358104283,
      "lon": 35.0272015570001,
      "label": "סופר לארג' זמר - זמר",
      "text": "",
      "stayTimes": "11:00 - 17:00",
      "t_start": "2020-04-07T09:00:00",
      "t_end": "2020-04-07T15:00:00",
      "link": ""
    },
    {
      "id": 442366,
      "lat": 32.0899676000001,
      "lon": 34.8385091000001,
      "label": "שיווק ישיר - בני ברק",
      "text": "",
      "stayTimes": "23:30 - 00:00",
      "t_start": "2020-04-07T21:30:00",
      "t_end": "2020-04-07T22:00:00",
      "link": ""
    },
    {
      "id": 442367,
      "lat": 32.0830876000001,
      "lon": 34.8289867,
      "label": "שלומי פירות וירקות - בני ברק",
      "text": "",
      "stayTimes": "20:00 - 20:30",
      "t_start": "2020-04-07T18:00:00",
      "t_end": "2020-04-07T18:30:00",
      "link": ""
    },
    {
      "id": 442368,
      "lat": 32.0922033000001,
      "lon": 34.8335467000001,
      "label": "השקדייה - בני ברק",
      "text": "",
      "stayTimes": "23:00 - 23:30",
      "t_start": "2020-04-07T21:00:00",
      "t_end": "2020-04-07T21:30:00",
      "link": ""
    },
    {
      "id": 442369,
      "lat": 32.5331253000001,
      "lon": 35.1485816000001,
      "label": "בית מרקחת בשכונת אלשאגור ליד תחנת הדלק - אום אל-פחם",
      "text": "",
      "stayTimes": "11:00 - 12:00",
      "t_start": "2020-04-07T09:00:00",
      "t_end": "2020-04-07T10:00:00",
      "link": ""
    },
    {
      "id": 442370,
      "lat": 31.789191074,
      "lon": 35.215509539,
      "label": "קופת חולים לאומית, רחוב עמוס פינת מלכי ישראל. בבית מרקחת - ירושלים",
      "text": "",
      "stayTimes": "11:00 - 13:00",
      "t_start": "2020-04-07T09:00:00",
      "t_end": "2020-04-07T11:00:00",
      "link": ""
    },
    {
      "id": 442371,
      "lat": 31.811206812,
      "lon": 35.219663333,
      "label": "קופת חולים כללית - ירושלים",
      "text": "",
      "stayTimes": "10:30 - 11:00",
      "t_start": "2020-04-07T08:30:00",
      "t_end": "2020-04-07T09:00:00",
      "link": ""
    },
    {
      "id": 442372,
      "lat": 31.7992033400001,
      "lon": 35.206211759,
      "label": "ברכול - ירושלים",
      "text": "",
      "stayTimes": "13:00 - 13:30",
      "t_start": "2020-04-07T11:00:00",
      "t_end": "2020-04-07T11:30:00",
      "link": ""
    },
    {
      "id": 442373,
      "lat": 31.8112446000001,
      "lon": 34.6540808,
      "label": "יוחננוף - אשדוד",
      "text": "",
      "stayTimes": "12:00 - 15:00",
      "t_start": "2020-04-07T10:00:00",
      "t_end": "2020-04-07T13:00:00",
      "link": ""
    },
    {
      "id": 442374,
      "lat": 31.8408456000001,
      "lon": 35.2481814000001,
      "label": "שוק מהדרין יינות ביתן נווה יעקב - ירושלים",
      "text": "",
      "stayTimes": "11:00 - 12:30",
      "t_start": "2020-04-08T09:00:00",
      "t_end": "2020-04-08T10:30:00",
      "link": ""
    },
    {
      "id": 442375,
      "lat": 31.8407370740001,
      "lon": 35.250050645,
      "label": "צרכניית אביר יעקב - ירושלים",
      "text": "",
      "stayTimes": "10:00 - 11:00",
      "t_start": "2020-04-08T08:00:00",
      "t_end": "2020-04-08T09:00:00",
      "link": ""
    },
    {
      "id": 442376,
      "lat": 31.7808453000001,
      "lon": 35.2238573000001,
      "label": "מוקד עיריית ירושלים - ירושלים",
      "text": "",
      "stayTimes": "08:00 - 14:30",
      "t_start": "2020-04-08T06:00:00",
      "t_end": "2020-04-08T12:30:00",
      "link": ""
    },
    {
      "id": 442377,
      "lat": 31.7534878000001,
      "lon": 35.2130043000001,
      "label": "אושר עד - ירושלים",
      "text": "",
      "stayTimes": "08:00 - 09:00",
      "t_start": "2020-04-05T06:00:00",
      "t_end": "2020-04-05T07:00:00",
      "link": ""
    },
    {
      "id": 442378,
      "lat": 31.7651568000001,
      "lon": 35.1829921,
      "label": "סופר שערי תורה - ירושלים",
      "text": "",
      "stayTimes": "09:30 - 10:00",
      "t_start": "2020-04-05T07:30:00",
      "t_end": "2020-04-05T08:00:00",
      "link": ""
    },
    {
      "id": 442379,
      "lat": 31.266476857,
      "lon": 34.800399498,
      "label": "מכולת שכונתית - באר שבע",
      "text": "",
      "stayTimes": "14:00 - 14:30",
      "t_start": "2020-04-06T12:00:00",
      "t_end": "2020-04-06T12:30:00",
      "link": ""
    },
    {
      "id": 442380,
      "lat": 31.2399585000001,
      "lon": 34.7938263,
      "label": "מחסני השוק בית אשל - באר שבע",
      "text": "",
      "stayTimes": "12:00 - 14:00",
      "t_start": "2020-04-06T10:00:00",
      "t_end": "2020-04-06T12:00:00",
      "link": ""
    },
    {
      "id": 442381,
      "lat": 31.7672563,
      "lon": 35.3014487,
      "label": "יינות ביתן -סופר - מעלה אדומים",
      "text": "",
      "stayTimes": "09:00 - 10:00",
      "t_start": "2020-04-05T07:00:00",
      "t_end": "2020-04-05T08:00:00",
      "link": ""
    },
    {
      "id": 442382,
      "lat": 32.1052778000001,
      "lon": 34.8944444000001,
      "label": "סופר יוחננוף - פתח תקווה",
      "text": "",
      "stayTimes": "08:00 - 16:30",
      "t_start": "2020-04-05T06:00:00",
      "t_end": "2020-04-05T14:30:00",
      "link": ""
    },
    {
      "id": 442383,
      "lat": 32.1052778000001,
      "lon": 34.8944444000001,
      "label": "סופר יוחננוף - פתח תקווה",
      "text": "",
      "stayTimes": "08:20 - 20:15",
      "t_start": "2020-04-06T06:20:00",
      "t_end": "2020-04-06T18:15:00",
      "link": ""
    },
    {
      "id": 442384,
      "lat": 31.773199,
      "lon": 35.185261,
      "label": "מח' גריאטרית שע\"צ - ירושלים",
      "text": "",
      "stayTimes": "08:00 - 08:30",
      "t_start": "2020-04-08T06:00:00",
      "t_end": "2020-04-08T06:30:00",
      "link": ""
    },
    {
      "id": 442385,
      "lat": 32.0530444560001,
      "lon": 34.9613862370001,
      "label": "יינות ביתן - אלעד",
      "text": "",
      "stayTimes": "07:00 - 13:00",
      "t_start": "2020-04-08T05:00:00",
      "t_end": "2020-04-08T11:00:00",
      "link": ""
    },
    {
      "id": 442386,
      "lat": 31.798347,
      "lon": 35.2146930000001,
      "label": "עזרת תורה 2, ירושלים",
      "text": "",
      "stayTimes": "08:00 - 08:30",
      "t_start": "2020-04-10T06:00:00",
      "t_end": "2020-04-10T06:30:00",
      "link": ""
    },
    {
      "id": 442387,
      "lat": 32.1058370000001,
      "lon": 34.8923941,
      "label": "סופר אושר עד - פתח תקווה",
      "text": "",
      "stayTimes": "07:30 - 13:00",
      "t_start": "2020-04-05T05:30:00",
      "t_end": "2020-04-05T11:00:00",
      "link": ""
    },
    {
      "id": 442388,
      "lat": 32.9236277000001,
      "lon": 35.3080387000001,
      "label": "רמי לוי - כרמיאל",
      "text": "",
      "stayTimes": "23:00 - 23:30",
      "t_start": "2020-04-07T21:00:00",
      "t_end": "2020-04-07T21:30:00",
      "link": ""
    },
    {
      "id": 442389,
      "lat": 32.8618235000001,
      "lon": 35.0982910000001,
      "label": "אושר עד - קרית ביאליק",
      "text": "",
      "stayTimes": "13:00 - 13:30",
      "t_start": "2020-04-06T11:00:00",
      "t_end": "2020-04-06T11:30:00",
      "link": ""
    },
    {
      "id": 442390,
      "lat": 31.2576606000001,
      "lon": 34.7678661,
      "label": "שופרסל דיל קניון שאול המלך - באר שבע",
      "text": "",
      "stayTimes": "09:00 - 10:00",
      "t_start": "2020-04-10T07:00:00",
      "t_end": "2020-04-10T08:00:00",
      "link": ""
    },
    {
      "id": 442391,
      "lat": 31.783149092,
      "lon": 35.1786684310001,
      "label": "מכולת ויזניץ - ירושלים",
      "text": "",
      "stayTimes": "12:00 - 16:00",
      "t_start": "2020-04-05T10:00:00",
      "t_end": "2020-04-05T14:00:00",
      "link": ""
    },
    {
      "id": 442392,
      "lat": 32.098961606,
      "lon": 34.8304834240001,
      "label": "סופר אושר עד - בני ברק",
      "text": "",
      "stayTimes": "10:30 - 12:00",
      "t_start": "2020-04-06T08:30:00",
      "t_end": "2020-04-06T10:00:00",
      "link": ""
    },
    {
      "id": 442393,
      "lat": 31.816270192,
      "lon": 35.250043158,
      "label": "קופ\"ח כללית - ירושלים",
      "text": "",
      "stayTimes": "08:30 - 09:00",
      "t_start": "2020-04-06T06:30:00",
      "t_end": "2020-04-06T07:00:00",
      "link": ""
    },
    {
      "id": 442394,
      "lat": 31.753439144,
      "lon": 35.2131473520001,
      "label": "קניון הדר - אושר עד - ירושלים",
      "text": "",
      "stayTimes": "12:00 - 14:00",
      "t_start": "2020-04-05T10:00:00",
      "t_end": "2020-04-05T12:00:00",
      "link": ""
    },
    {
      "id": 442395,
      "lat": 31.81624514,
      "lon": 35.250021458,
      "label": "קופ\"ח כללית - ירושלים",
      "text": "",
      "stayTimes": "08:30 - 10:00",
      "t_start": "2020-04-06T06:30:00",
      "t_end": "2020-04-06T08:00:00",
      "link": ""
    },
    {
      "id": 442396,
      "lat": 31.690607507,
      "lon": 35.10848851,
      "label": "חנות \"שפע ברכת האל\" - ביתר עילית",
      "text": "",
      "stayTimes": "13:50 - 14:10",
      "t_start": "2020-04-10T11:50:00",
      "t_end": "2020-04-10T12:10:00",
      "link": ""
    },
    {
      "id": 442397,
      "lat": 31.8084006500001,
      "lon": 35.220103921,
      "label": "תחנת טיפת חלב 29 - ירושלים",
      "text": "",
      "stayTimes": "13:00 - 19:00",
      "t_start": "2020-04-05T11:00:00",
      "t_end": "2020-04-05T17:00:00",
      "link": ""
    },
    {
      "id": 442398,
      "lat": 31.6929213450001,
      "lon": 35.109670984,
      "label": "צרכניית חסד לאלפים - ביתר עילית",
      "text": "",
      "stayTimes": "07:00 - 08:00",
      "t_start": "2020-04-06T05:00:00",
      "t_end": "2020-04-06T06:00:00",
      "link": ""
    },
    {
      "id": 442399,
      "lat": 31.6929193170001,
      "lon": 35.1096566790001,
      "label": "צרכניית  חסד לאלפים - ביתר עילית",
      "text": "",
      "stayTimes": "08:00 - 08:30",
      "t_start": "2020-04-06T06:00:00",
      "t_end": "2020-04-06T06:30:00",
      "link": ""
    },
    {
      "id": 442400,
      "lat": 31.693066587,
      "lon": 35.1096842580001,
      "label": "צרכניית  חסד לאלופים - ביתר עילית",
      "text": "",
      "stayTimes": "07:00 - 07:30",
      "t_start": "2020-04-08T05:00:00",
      "t_end": "2020-04-08T05:30:00",
      "link": ""
    },
    {
      "id": 442401,
      "lat": 31.6962839,
      "lon": 35.1177878,
      "label": "צרכיית שפע ברכת השם - ביתר עילית",
      "text": "",
      "stayTimes": "07:00 - 07:30",
      "t_start": "2020-04-07T05:00:00",
      "t_end": "2020-04-07T05:30:00",
      "link": ""
    },
    {
      "id": 442402,
      "lat": 31.7051188,
      "lon": 35.1168587000001,
      "label": "צרכנית יש חסד - ביתר עילית",
      "text": "",
      "stayTimes": "08:30 - 09:00",
      "t_start": "2020-04-07T06:30:00",
      "t_end": "2020-04-07T07:00:00",
      "link": ""
    },
    {
      "id": 442403,
      "lat": 31.6656187580001,
      "lon": 34.5670478480001,
      "label": "מאוחדת - אשקלון",
      "text": "",
      "stayTimes": "16:00 - 16:30",
      "t_start": "2020-04-07T14:00:00",
      "t_end": "2020-04-07T14:30:00",
      "link": ""
    },
    {
      "id": 442404,
      "lat": 31.665634992,
      "lon": 34.567055001,
      "label": "מאוחדת - אשקלון",
      "text": "",
      "stayTimes": "16:30 - 16:40",
      "t_start": "2020-04-05T14:30:00",
      "t_end": "2020-04-05T14:40:00",
      "link": ""
    },
    {
      "id": 442405,
      "lat": 31.7707530000001,
      "lon": 35.243902,
      "label": "קופ\"ח כללית אלחכמה - ירושלים",
      "text": "",
      "stayTimes": "09:30 - 10:00",
      "t_start": "2020-04-05T07:30:00",
      "t_end": "2020-04-05T08:00:00",
      "link": ""
    },
    {
      "id": 442406,
      "lat": 31.784478289,
      "lon": 35.2239904630001,
      "label": "קופת חולים כללית - ירושלים",
      "text": "",
      "stayTimes": "10:00 - 10:30",
      "t_start": "2020-04-07T08:00:00",
      "t_end": "2020-04-07T08:30:00",
      "link": ""
    },
    {
      "id": 442407,
      "lat": 32.2711266000001,
      "lon": 34.8889732000001,
      "label": "\"ביקור רופא\" - אבן יהודה",
      "text": "",
      "stayTimes": "20:00 - 20:20",
      "t_start": "2020-04-07T18:00:00",
      "t_end": "2020-04-07T18:20:00",
      "link": ""
    },
    {
      "id": 442408,
      "lat": 32.0520222590001,
      "lon": 34.9500734000001,
      "label": "מקווה - אלעד",
      "text": "",
      "stayTimes": "21:00 - 21:30",
      "t_start": "2020-04-11T19:00:00",
      "t_end": "2020-04-11T19:30:00",
      "link": ""
    },
    {
      "id": 442409,
      "lat": 32.1058370000001,
      "lon": 34.8923941,
      "label": "סופר - אושר עד - פתח תקווה",
      "text": "",
      "stayTimes": "06:30 - 17:00",
      "t_start": "2020-04-05T04:30:00",
      "t_end": "2020-04-05T15:00:00",
      "link": ""
    },
    {
      "id": 442410,
      "lat": 32.1058370000001,
      "lon": 34.8923941,
      "label": "סופר - אושר עד - פתח תקווה",
      "text": "",
      "stayTimes": "06:30 - 17:00",
      "t_start": "2020-04-06T04:30:00",
      "t_end": "2020-04-06T15:00:00",
      "link": ""
    },
    {
      "id": 442411,
      "lat": 32.1058370000001,
      "lon": 34.8923941,
      "label": "סופר - אושר עד - פתח תקווה",
      "text": "",
      "stayTimes": "06:30 - 17:00",
      "t_start": "2020-04-07T04:30:00",
      "t_end": "2020-04-07T15:00:00",
      "link": ""
    },
    {
      "id": 442412,
      "lat": 32.3221471300001,
      "lon": 34.98073587,
      "label": "מכולת - בארותיים",
      "text": "",
      "stayTimes": "13:30 - 15:50",
      "t_start": "2020-04-07T11:30:00",
      "t_end": "2020-04-07T13:50:00",
      "link": ""
    },
    {
      "id": 442413,
      "lat": 32.0791613000001,
      "lon": 34.8384143000001,
      "label": "יש חסד - בני ברק",
      "text": "",
      "stayTimes": "09:00 - 10:30",
      "t_start": "2020-04-07T07:00:00",
      "t_end": "2020-04-07T08:30:00",
      "link": ""
    },
    {
      "id": 442414,
      "lat": 32.1058543,
      "lon": 34.9402346000001,
      "label": "יינות ביתן - ראש העין",
      "text": "",
      "stayTimes": "14:30 - 15:30",
      "t_start": "2020-04-07T12:30:00",
      "t_end": "2020-04-07T13:30:00",
      "link": ""
    },
    {
      "id": 442415,
      "lat": 32.1080556000001,
      "lon": 34.9641667000001,
      "label": "ויקטורי פארק סיבל - ראש העין",
      "text": "",
      "stayTimes": "16:00 - 18:00",
      "t_start": "2020-04-06T14:00:00",
      "t_end": "2020-04-06T16:00:00",
      "link": ""
    },
    {
      "id": 442416,
      "lat": 31.6641894000001,
      "lon": 34.5632752000001,
      "label": "סופר ויקטורי אשקלון תחנה מרכזית רח בן גוריון 17 - אשקלון",
      "text": "",
      "stayTimes": "08:00 - 08:30",
      "t_start": "2020-04-06T06:00:00",
      "t_end": "2020-04-06T06:30:00",
      "link": ""
    },
    {
      "id": 442417,
      "lat": 31.799197,
      "lon": 35.2062189000001,
      "label": "ברכול - ירושלים",
      "text": "",
      "stayTimes": "13:00 - 13:30",
      "t_start": "2020-04-07T11:00:00",
      "t_end": "2020-04-07T11:30:00",
      "link": ""
    },
    {
      "id": 442418,
      "lat": 31.7843729030001,
      "lon": 35.223957086,
      "label": "קופת חולים כללית - ירושלים",
      "text": "",
      "stayTimes": "10:00 - 10:30",
      "t_start": "2020-04-07T08:00:00",
      "t_end": "2020-04-07T08:30:00",
      "link": ""
    },
    {
      "id": 442419,
      "lat": 31.8167972000001,
      "lon": 35.2024772,
      "label": "קופ\"ח כללית רמות - ירושלים",
      "text": "",
      "stayTimes": "11:00 - 12:15",
      "t_start": "2020-04-07T09:00:00",
      "t_end": "2020-04-07T10:15:00",
      "link": ""
    },
    {
      "id": 442420,
      "lat": 32.0529938,
      "lon": 34.9612355,
      "label": "יינות ביתן - אלעד",
      "text": "",
      "stayTimes": "07:00 - 17:00",
      "t_start": "2020-04-07T05:00:00",
      "t_end": "2020-04-07T15:00:00",
      "link": ""
    },
    {
      "id": 442421,
      "lat": 32.5972833000001,
      "lon": 34.949844,
      "label": "סופר \"חוואשי\" מנימרקט - פוריידיס",
      "text": "",
      "stayTimes": "14:00 - 14:30",
      "t_start": "2020-04-09T12:00:00",
      "t_end": "2020-04-09T12:30:00",
      "link": ""
    },
    {
      "id": 442422,
      "lat": 32.0282193,
      "lon": 34.7483546,
      "label": "בית אבות \"בית בלב\" מחלקה ב' שיקום אורטופדי - בת ים",
      "text": "",
      "stayTimes": "07:00 - 13:00",
      "t_start": "2020-04-09T05:00:00",
      "t_end": "2020-04-09T11:00:00",
      "link": ""
    },
    {
      "id": 442423,
      "lat": 32.052559,
      "lon": 34.9512194000001,
      "label": "סופר יש - אלעד",
      "text": "",
      "stayTimes": "11:00 - 12:00",
      "t_start": "2020-04-06T09:00:00",
      "t_end": "2020-04-06T10:00:00",
      "link": ""
    },
    {
      "id": 442424,
      "lat": 31.782977085,
      "lon": 35.1787483100001,
      "label": "מכולת ויזניץ - ירושלים",
      "text": "",
      "stayTimes": "12:00 - 16:00",
      "t_start": "2020-04-06T10:00:00",
      "t_end": "2020-04-06T14:00:00",
      "link": ""
    },
    {
      "id": 442425,
      "lat": 31.7879930060001,
      "lon": 35.1884990140001,
      "label": "סופר פארם - ירושלים",
      "text": "",
      "stayTimes": "12:00 - 13:30",
      "t_start": "2020-04-05T10:00:00",
      "t_end": "2020-04-05T11:30:00",
      "link": ""
    },
    {
      "id": 442426,
      "lat": 31.7909930000001,
      "lon": 35.1961147000001,
      "label": "שוק סיטונאי - ירושלים",
      "text": "",
      "stayTimes": "13:00 - 14:00",
      "t_start": "2020-04-05T11:00:00",
      "t_end": "2020-04-05T12:00:00",
      "link": ""
    },
    {
      "id": 442427,
      "lat": 31.762728125,
      "lon": 35.1978918450001,
      "label": "מכולת אחים יעקוב - ירושלים",
      "text": "",
      "stayTimes": "08:00 - 08:30",
      "t_start": "2020-04-07T06:00:00",
      "t_end": "2020-04-07T06:30:00",
      "link": ""
    },
    {
      "id": 442428,
      "lat": 31.7837281000001,
      "lon": 35.2170291,
      "label": "בנק מרכנתיל - ירושלים",
      "text": "",
      "stayTimes": "13:30 - 14:00",
      "t_start": "2020-04-07T11:30:00",
      "t_end": "2020-04-07T12:00:00",
      "link": ""
    },
    {
      "id": 442429,
      "lat": 32.047622334,
      "lon": 34.965932497,
      "label": "ברקול - אלעד",
      "text": "",
      "stayTimes": "18:00 - 18:30",
      "t_start": "2020-04-07T16:00:00",
      "t_end": "2020-04-07T16:30:00",
      "link": ""
    },
    {
      "id": 442430,
      "lat": 31.9368157000001,
      "lon": 35.0389028000001,
      "label": "סופרמרקט יש - מודיעין עילית",
      "text": "",
      "stayTimes": "12:00 - 17:00",
      "t_start": "2020-04-06T10:00:00",
      "t_end": "2020-04-06T15:00:00",
      "link": ""
    },
    {
      "id": 442431,
      "lat": 32.047711308,
      "lon": 34.9659318810001,
      "label": "סופר - ברכל - אלעד",
      "text": "",
      "stayTimes": "11:00 - 14:00",
      "t_start": "2020-04-05T09:00:00",
      "t_end": "2020-04-05T12:00:00",
      "link": ""
    },
    {
      "id": 442432,
      "lat": 31.7858421,
      "lon": 35.1873871,
      "label": "סופר רמי לוי גבעת שאול - ירושלים",
      "text": "",
      "stayTimes": "09:00 - 10:00",
      "t_start": "2020-04-06T07:00:00",
      "t_end": "2020-04-06T08:00:00",
      "link": ""
    },
    {
      "id": 442433,
      "lat": 31.7919167000001,
      "lon": 35.2045525,
      "label": "שערי רווחה - ירושלים",
      "text": "",
      "stayTimes": "14:00 - 15:00",
      "t_start": "2020-04-07T12:00:00",
      "t_end": "2020-04-07T13:00:00",
      "link": ""
    },
    {
      "id": 442434,
      "lat": 32.0804992610001,
      "lon": 34.8545146480001,
      "label": "הנשיא 75, גבעת שמואל",
      "text": "",
      "stayTimes": "12:00 - 12:30",
      "t_start": "2020-04-05T10:00:00",
      "t_end": "2020-04-05T10:30:00",
      "link": ""
    },
    {
      "id": 442435,
      "lat": 32.0989222320001,
      "lon": 34.829734918,
      "label": "\"אושר עד\" - בני ברק",
      "text": "",
      "stayTimes": "10:00 - 12:00",
      "t_start": "2020-04-06T08:00:00",
      "t_end": "2020-04-06T10:00:00",
      "link": ""
    },
    {
      "id": 442436,
      "lat": 32.0464889560001,
      "lon": 34.9588564430001,
      "label": "מרכול - בזול שפע - אלעד",
      "text": "",
      "stayTimes": "02:00 - 02:20",
      "t_start": "2020-04-06T00:00:00",
      "t_end": "2020-04-06T00:20:00",
      "link": ""
    },
    {
      "id": 442437,
      "lat": 32.0475711,
      "lon": 34.9659382,
      "label": "מרכול - בבר כל שמעון הצדיק - אלעד",
      "text": "",
      "stayTimes": "07:00 - 08:30",
      "t_start": "2020-04-05T05:00:00",
      "t_end": "2020-04-05T06:30:00",
      "link": ""
    },
    {
      "id": 442438,
      "lat": 32.0878644000001,
      "lon": 34.8597884000001,
      "label": "סופר סל דיל - יכין סנטר - פתח תקווה",
      "text": "",
      "stayTimes": "17:00 - 18:00",
      "t_start": "2020-04-06T15:00:00",
      "t_end": "2020-04-06T16:00:00",
      "link": ""
    },
    {
      "id": 442439,
      "lat": 32.0862216,
      "lon": 34.8530480000001,
      "label": "סופר ברקת - פתח תקווה",
      "text": "",
      "stayTimes": "14:00 - 16:30",
      "t_start": "2020-04-06T12:00:00",
      "t_end": "2020-04-06T14:30:00",
      "link": ""
    },
    {
      "id": 442440,
      "lat": 32.0569530000001,
      "lon": 34.8688528000001,
      "label": "מגה בעיר גבעת סביון - גני תקווה",
      "text": "",
      "stayTimes": "17:30 - 18:00",
      "t_start": "2020-04-05T15:30:00",
      "t_end": "2020-04-05T16:00:00",
      "link": ""
    },
    {
      "id": 442441,
      "lat": 32.0569576120001,
      "lon": 34.868852197,
      "label": "מגה בעיר גבעת סביון - גני תקווה",
      "text": "",
      "stayTimes": "10:00 - 11:30",
      "t_start": "2020-04-06T08:00:00",
      "t_end": "2020-04-06T09:30:00",
      "link": ""
    },
    {
      "id": 442442,
      "lat": 32.9236277000001,
      "lon": 35.3080387000001,
      "label": "רמי לוי - כרמיאל",
      "text": "",
      "stayTimes": "15:30 - 16:00",
      "t_start": "2020-04-06T13:30:00",
      "t_end": "2020-04-06T14:00:00",
      "link": ""
    },
    {
      "id": 442443,
      "lat": 32.07454561,
      "lon": 34.8373731620001,
      "label": "בית אבות ויזניץ - בני ברק",
      "text": "",
      "stayTimes": "08:00 - 14:00",
      "t_start": "2020-04-12T06:00:00",
      "t_end": "2020-04-12T12:00:00",
      "link": ""
    },
    {
      "id": 442444,
      "lat": 31.7534878000001,
      "lon": 35.2130043000001,
      "label": "אושר עד - סופר - ירושלים",
      "text": "",
      "stayTimes": "18:00 - 18:30",
      "t_start": "2020-04-07T16:00:00",
      "t_end": "2020-04-07T16:30:00",
      "link": ""
    },
    {
      "id": 442445,
      "lat": 32.1656065120001,
      "lon": 34.8419028430001,
      "label": "בית מרקחת של מאוחדת - הרצליה",
      "text": "",
      "stayTimes": "10:00 - 10:30",
      "t_start": "2020-04-07T08:00:00",
      "t_end": "2020-04-07T08:30:00",
      "link": ""
    },
    {
      "id": 442446,
      "lat": 32.1820514250001,
      "lon": 34.875457603,
      "label": "בית מרקחת שועלי  של כללית - רעננה",
      "text": "",
      "stayTimes": "11:00 - 12:00",
      "t_start": "2020-04-06T09:00:00",
      "t_end": "2020-04-06T10:00:00",
      "link": ""
    },
    {
      "id": 442447,
      "lat": 32.1672802000001,
      "lon": 34.8401166,
      "label": "בית מרקחת מכבי - הרצליה",
      "text": "",
      "stayTimes": "09:00 - 10:00",
      "t_start": "2020-04-06T07:00:00",
      "t_end": "2020-04-06T08:00:00",
      "link": ""
    },
    {
      "id": 442448,
      "lat": 32.1678024,
      "lon": 34.8457208,
      "label": "בית מרקחת לאומית - הרצליה",
      "text": "",
      "stayTimes": "10:00 - 11:00",
      "t_start": "2020-04-06T08:00:00",
      "t_end": "2020-04-06T09:00:00",
      "link": ""
    },
    {
      "id": 442449,
      "lat": 32.0090266,
      "lon": 34.8053370000001,
      "label": "טכנוטרייד - חולון",
      "text": "",
      "stayTimes": "11:00 - 12:00",
      "t_start": "2020-04-05T09:00:00",
      "t_end": "2020-04-05T10:00:00",
      "link": ""
    },
    {
      "id": 442450,
      "lat": 32.5226036,
      "lon": 35.1595666000001,
      "label": "בסמאן פארם - אום אל-פחם",
      "text": "",
      "stayTimes": "16:30 - 17:00",
      "t_start": "2020-04-07T14:30:00",
      "t_end": "2020-04-07T15:00:00",
      "link": ""
    },
    {
      "id": 442451,
      "lat": 31.7852473730001,
      "lon": 35.183015734,
      "label": "אושר עד - ירושלים",
      "text": "",
      "stayTimes": "12:00 - 14:00",
      "t_start": "2020-04-07T10:00:00",
      "t_end": "2020-04-07T12:00:00",
      "link": ""
    },
    {
      "id": 442452,
      "lat": 32.5099722860001,
      "lon": 35.1354143410001,
      "label": "מאפיית ומינימרקט אלפאכורי כניסת עין ג'ראר - אום אל-פחם",
      "text": "",
      "stayTimes": "09:00 - 09:15",
      "t_start": "2020-04-09T07:00:00",
      "t_end": "2020-04-09T07:15:00",
      "link": ""
    },
    {
      "id": 442453,
      "lat": 32.010113839,
      "lon": 34.8096986400001,
      "label": "חצי חינם - חולון",
      "text": "",
      "stayTimes": "11:00 - 12:30",
      "t_start": "2020-04-07T09:00:00",
      "t_end": "2020-04-07T10:30:00",
      "link": ""
    },
    {
      "id": 442454,
      "lat": 32.019035161,
      "lon": 34.7706672,
      "label": "בנק הפועלים - חולון",
      "text": "",
      "stayTimes": "10:00 - 10:30",
      "t_start": "2020-04-07T08:00:00",
      "t_end": "2020-04-07T08:30:00",
      "link": ""
    },
    {
      "id": 442455,
      "lat": 31.8119948680001,
      "lon": 34.662942817,
      "label": "סופר אושר עד - אשדוד",
      "text": "",
      "stayTimes": "07:30 - 09:00",
      "t_start": "2020-04-07T05:30:00",
      "t_end": "2020-04-07T07:00:00",
      "link": ""
    },
    {
      "id": 442456,
      "lat": 31.7631179000001,
      "lon": 35.2293939,
      "label": "קופת חולים כללית, אבו טור - ירושלים",
      "text": "",
      "stayTimes": "17:30 - 18:30",
      "t_start": "2020-04-06T15:30:00",
      "t_end": "2020-04-06T16:30:00",
      "link": ""
    },
    {
      "id": 442457,
      "lat": 31.7631179000001,
      "lon": 35.2293939,
      "label": "קופת חולים כללית אבו טור - ירושלים",
      "text": "",
      "stayTimes": "18:30 - 19:30",
      "t_start": "2020-04-08T16:30:00",
      "t_end": "2020-04-08T17:30:00",
      "link": ""
    },
    {
      "id": 442458,
      "lat": 32.3119181660001,
      "lon": 34.856667112,
      "label": "שוק מהדרין - נתניה",
      "text": "",
      "stayTimes": "07:00 - 07:10",
      "t_start": "2020-04-05T05:00:00",
      "t_end": "2020-04-05T05:10:00",
      "link": ""
    },
    {
      "id": 442459,
      "lat": 31.93753918,
      "lon": 34.886428139,
      "label": "יוחננוף - רמלה",
      "text": "",
      "stayTimes": "15:00 - 16:00",
      "t_start": "2020-04-05T13:00:00",
      "t_end": "2020-04-05T14:00:00",
      "link": ""
    },
    {
      "id": 442460,
      "lat": 32.0715859000001,
      "lon": 34.8385343,
      "label": "עשר תעשר - בני ברק",
      "text": "",
      "stayTimes": "10:00 - 10:30",
      "t_start": "2020-04-08T08:00:00",
      "t_end": "2020-04-08T08:30:00",
      "link": ""
    },
    {
      "id": 442461,
      "lat": 32.0785626000001,
      "lon": 34.8408496000001,
      "label": "אשפר בשר - בני ברק",
      "text": "",
      "stayTimes": "09:00 - 10:00",
      "t_start": "2020-04-05T07:00:00",
      "t_end": "2020-04-05T08:00:00",
      "link": ""
    },
    {
      "id": 442462,
      "lat": 31.793458926,
      "lon": 35.2054908530001,
      "label": "בית אבות \"גני אורה\" - ירושלים",
      "text": "",
      "stayTimes": "08:00 - 08:30",
      "t_start": "2020-04-05T06:00:00",
      "t_end": "2020-04-05T06:30:00",
      "link": ""
    },
    {
      "id": 442463,
      "lat": 31.7494016000001,
      "lon": 35.2167436,
      "label": "מוסך מרסדס - ירושלים",
      "text": "",
      "stayTimes": "07:15 - 12:00",
      "t_start": "2020-04-12T05:15:00",
      "t_end": "2020-04-12T10:00:00",
      "link": ""
    },
    {
      "id": 442464,
      "lat": 32.0796066,
      "lon": 34.8344037000001,
      "label": "בית מרקחת נחמיה - בני ברק",
      "text": "",
      "stayTimes": "11:00 - 11:30",
      "t_start": "2020-04-08T09:00:00",
      "t_end": "2020-04-08T09:30:00",
      "link": ""
    },
    {
      "id": 442465,
      "lat": 31.7882871,
      "lon": 35.1850293000001,
      "label": "רמי לוי כנפי נשרים - ירושלים",
      "text": "",
      "stayTimes": "22:00 - 22:30",
      "t_start": "2020-04-05T20:00:00",
      "t_end": "2020-04-05T20:30:00",
      "link": ""
    },
    {
      "id": 442466,
      "lat": 31.9062624000001,
      "lon": 35.0105092000001,
      "label": "סופר השחר - מודיעין-מכבים-רעות",
      "text": "",
      "stayTimes": "12:00 - 12:10",
      "t_start": "2020-04-08T10:00:00",
      "t_end": "2020-04-08T10:10:00",
      "link": ""
    },
    {
      "id": 442467,
      "lat": 31.7313425,
      "lon": 35.1877907000001,
      "label": "קופת חולים מאוחדת גילה - ירושלים",
      "text": "",
      "stayTimes": "12:00 - 14:00",
      "t_start": "2020-04-06T10:00:00",
      "t_end": "2020-04-06T12:00:00",
      "link": ""
    },
    {
      "id": 442468,
      "lat": 32.0464832000001,
      "lon": 34.9490029,
      "label": "מיקוה - אלעד",
      "text": "",
      "stayTimes": "22:30 - 22:50",
      "t_start": "2020-04-09T20:30:00",
      "t_end": "2020-04-09T20:50:00",
      "link": ""
    },
    {
      "id": 442469,
      "lat": 31.24595298,
      "lon": 34.797074513,
      "label": "מנהלת בנק פועלים- מחוז דרום - באר שבע",
      "text": "",
      "stayTimes": "08:00 - 16:00",
      "t_start": "2020-04-05T06:00:00",
      "t_end": "2020-04-05T14:00:00",
      "link": ""
    },
    {
      "id": 442470,
      "lat": 31.8120016240001,
      "lon": 34.6629474750001,
      "label": "אושר עד - אשדוד",
      "text": "",
      "stayTimes": "22:00 - 23:55",
      "t_start": "2020-04-06T20:00:00",
      "t_end": "2020-04-06T21:55:00",
      "link": ""
    },
    {
      "id": 442471,
      "lat": 32.0346381780001,
      "lon": 34.8494226020001,
      "label": "סופרפארם אור יהודה - אור יהודה",
      "text": "",
      "stayTimes": "16:30 - 17:00",
      "t_start": "2020-04-13T14:30:00",
      "t_end": "2020-04-13T15:00:00",
      "link": ""
    },
    {
      "id": 442472,
      "lat": 32.0513224000001,
      "lon": 34.9609747000001,
      "label": "בייבי זול - אלעד",
      "text": "",
      "stayTimes": "19:00 - 19:30",
      "t_start": "2020-04-06T17:00:00",
      "t_end": "2020-04-06T17:30:00",
      "link": ""
    },
    {
      "id": 442473,
      "lat": 32.0520699050001,
      "lon": 34.9618886530001,
      "label": "מזל וברכה - אלעד",
      "text": "",
      "stayTimes": "19:45 - 20:00",
      "t_start": "2020-04-06T17:45:00",
      "t_end": "2020-04-06T18:00:00",
      "link": ""
    },
    {
      "id": 442474,
      "lat": 31.418212,
      "lon": 34.5854649,
      "label": "סופר פארם ר\"ח טדי קולק - נתיבות",
      "text": "",
      "stayTimes": "08:00 - 16:00",
      "t_start": "2020-04-07T06:00:00",
      "t_end": "2020-04-07T14:00:00",
      "link": ""
    },
    {
      "id": 442475,
      "lat": 31.419927,
      "lon": 34.601184,
      "label": "\"מרכז הפצה\" חנות לתשמישי קדושה - נתיבות",
      "text": "",
      "stayTimes": "17:00 - 18:00",
      "t_start": "2020-04-07T15:00:00",
      "t_end": "2020-04-07T16:00:00",
      "link": ""
    },
    {
      "id": 442476,
      "lat": 31.7946040310001,
      "lon": 35.2077171330001,
      "label": "קופ\"ח מכבי - ירושלים",
      "text": "",
      "stayTimes": "09:00 - 10:00",
      "t_start": "2020-04-05T07:00:00",
      "t_end": "2020-04-05T08:00:00",
      "link": ""
    },
    {
      "id": 442477,
      "lat": 31.787587,
      "lon": 34.6433543000001,
      "label": "בנק לאומי - אשדוד",
      "text": "",
      "stayTimes": "08:00 - 16:00",
      "t_start": "2020-04-06T06:00:00",
      "t_end": "2020-04-06T14:00:00",
      "link": ""
    },
    {
      "id": 442478,
      "lat": 32.023003638,
      "lon": 34.858409841,
      "label": "יוחננוף - אור יהודה",
      "text": "",
      "stayTimes": "11:00 - 11:30",
      "t_start": "2020-04-12T09:00:00",
      "t_end": "2020-04-12T09:30:00",
      "link": ""
    },
    {
      "id": 442479,
      "lat": 32.0999994000001,
      "lon": 34.8951845,
      "label": "שופרסל  סגולה פ\"ת - פתח תקווה",
      "text": "",
      "stayTimes": "10:30 - 12:00",
      "t_start": "2020-04-05T08:30:00",
      "t_end": "2020-04-05T10:00:00",
      "link": ""
    },
    {
      "id": 442480,
      "lat": 31.7882821110001,
      "lon": 35.219760294,
      "label": "זול ובגדול - ירושלים",
      "text": "",
      "stayTimes": "10:00 - 13:00",
      "t_start": "2020-04-06T08:00:00",
      "t_end": "2020-04-06T11:00:00",
      "link": ""
    },
    {
      "id": 442481,
      "lat": 31.783740322,
      "lon": 35.2147810490001,
      "label": "בית מרקחת - ירושלים",
      "text": "",
      "stayTimes": "14:00 - 15:00",
      "t_start": "2020-04-05T12:00:00",
      "t_end": "2020-04-05T13:00:00",
      "link": ""
    },
    {
      "id": 442482,
      "lat": 31.785392341,
      "lon": 35.1829873980001,
      "label": "אושר עד - ירושלים",
      "text": "",
      "stayTimes": "07:30 - 08:30",
      "t_start": "2020-04-05T05:30:00",
      "t_end": "2020-04-05T06:30:00",
      "link": ""
    },
    {
      "id": 442483,
      "lat": 32.0552349000001,
      "lon": 34.9606875000001,
      "label": "שפע שוק - אלעד",
      "text": "",
      "stayTimes": "14:00 - 16:00",
      "t_start": "2020-04-07T12:00:00",
      "t_end": "2020-04-07T14:00:00",
      "link": ""
    },
    {
      "id": 442484,
      "lat": 32.1040158000001,
      "lon": 34.8943638000001,
      "label": "מפעל אלטק - פתח תקווה",
      "text": "",
      "stayTimes": "07:30 - 15:30",
      "t_start": "2020-04-05T05:30:00",
      "t_end": "2020-04-05T13:30:00",
      "link": ""
    },
    {
      "id": 442485,
      "lat": 32.1040158000001,
      "lon": 34.8943638000001,
      "label": "מפעל אלטק - פתח תקווה",
      "text": "",
      "stayTimes": "07:30 - 15:30",
      "t_start": "2020-04-06T05:30:00",
      "t_end": "2020-04-06T13:30:00",
      "link": ""
    },