{
  "points": [
    {
      "id": 256996,
      "lat": 30.9812812000001,
      "lon": 34.9473032000001,
      "label": "בית העלמין - ירוחם",
      "text": "",
      "stayTimes": "08:30 - 09:00",
      "t_start": "2020-03-30T06:30:00",
      "t_end": "2020-03-30T07:00:00",
      "link": ""
    },
    {
      "id": 256997,
      "lat": 32.0997094000001,
      "lon": 34.8287219000001,
      "label": "מחסני חשמל - בני ברק",
      "text": "",
      "stayTimes": "13:15 - 14:00",
      "t_start": "2020-03-25T11:15:00",
      "t_end": "2020-03-25T12:00:00",
      "link": ""
    },
    {
      "id": 256998,
      "lat": 32.014062924,
      "lon": 34.7448444300001,
      "label": "מרפאת כללית - השקמה בת ים - בת ים",
      "text": "",
      "stayTimes": "08:00 - 10:00",
      "t_start": "2020-03-25T06:00:00",
      "t_end": "2020-03-25T08:00:00",
      "link": ""
    },
    {
      "id": 256999,
      "lat": 31.697706963,
      "lon": 34.575005391,
      "label": "ויקטורי - אשקלון",
      "text": "",
      "stayTimes": "09:00 - 10:10",
      "t_start": "2020-03-26T07:00:00",
      "t_end": "2020-03-26T08:10:00",
      "link": ""
    },
    {
      "id": 257000,
      "lat": 32.2868611000001,
      "lon": 34.8664061000001,
      "label": "סופר יוחננוף - נתניה",
      "text": "",
      "stayTimes": "13:00 - 14:00",
      "t_start": "2020-03-25T11:00:00",
      "t_end": "2020-03-25T12:00:00",
      "link": ""
    },
    {
      "id": 257001,
      "lat": 32.9682,
      "lon": 35.503158,
      "label": "כללית כנען צפת - צפת",
      "text": "",
      "stayTimes": "10:40 - 11:10",
      "t_start": "2020-03-25T08:40:00",
      "t_end": "2020-03-25T09:10:00",
      "link": ""
    },
    {
      "id": 257002,
      "lat": 32.9605311,
      "lon": 35.4994390000001,
      "label": "סופר מחסני השוק - צפת",
      "text": "",
      "stayTimes": "14:00 - 14:30",
      "t_start": "2020-03-31T12:00:00",
      "t_end": "2020-03-31T12:30:00",
      "link": ""
    },
    {
      "id": 257003,
      "lat": 32.3067051300001,
      "lon": 34.8693212150001,
      "label": "קופ\"ח כללית - נתניה",
      "text": "",
      "stayTimes": "18:00 - 19:00",
      "t_start": "2020-03-25T16:00:00",
      "t_end": "2020-03-25T17:00:00",
      "link": ""
    },
    {
      "id": 257004,
      "lat": 32.0348409160001,
      "lon": 34.848170958,
      "label": "יוחננוף הגדול - סופר - אור יהודה",
      "text": "",
      "stayTimes": "16:30 - 17:00",
      "t_start": "2020-03-25T14:30:00",
      "t_end": "2020-03-25T15:00:00",
      "link": ""
    },
    {
      "id": 257005,
      "lat": 32.014196616,
      "lon": 34.766959027,
      "label": "מוקד מכבי הופיים - חולון",
      "text": "",
      "stayTimes": "19:05 - 20:05",
      "t_start": "2020-03-25T17:05:00",
      "t_end": "2020-03-25T18:05:00",
      "link": ""
    },
    {
      "id": 257006,
      "lat": 31.6622786990001,
      "lon": 34.5592685010001,
      "label": "ביח ברזילי - אשקלון",
      "text": "",
      "stayTimes": "09:00 - 10:00",
      "t_start": "2020-03-25T07:00:00",
      "t_end": "2020-03-25T08:00:00",
      "link": ""
    },
    {
      "id": 257007,
      "lat": 31.6744701750001,
      "lon": 34.558270545,
      "label": "מכולת שכונתית-רח הטייסים - אשקלון",
      "text": "",
      "stayTimes": "07:30 - 08:00",
      "t_start": "2020-03-25T05:30:00",
      "t_end": "2020-03-25T06:00:00",
      "link": ""
    },
    {
      "id": 257008,
      "lat": 32.057107,
      "lon": 34.8691424,
      "label": "סופר פארם - גני תקווה",
      "text": "",
      "stayTimes": "09:30 - 09:45",
      "t_start": "2020-03-27T07:30:00",
      "t_end": "2020-03-27T07:45:00",
      "link": ""
    },
    {
      "id": 257009,
      "lat": 32.1046489170001,
      "lon": 34.8118631410001,
      "label": "תחנת בדיקה לקורונה,ברוקח - תל אביב - יפו",
      "text": "",
      "stayTimes": "20:30 - 21:00",
      "t_start": "2020-03-25T18:30:00",
      "t_end": "2020-03-25T19:00:00",
      "link": ""
    },
    {
      "id": 257010,
      "lat": 32.103972238,
      "lon": 34.810706204,
      "label": "בדיקה בתל אביב במתחם של מד\"א - תל אביב - יפו",
      "text": "",
      "stayTimes": "22:45 - 22:55",
      "t_start": "2020-03-25T20:45:00",
      "t_end": "2020-03-25T20:55:00",
      "link": ""
    },
    {
      "id": 257011,
      "lat": 31.7789552,
      "lon": 34.6570806,
      "label": "בי\"ח אסותא- חדר ניתוח - אשדוד",
      "text": "",
      "stayTimes": "19:00 - 07:00",
      "t_start": "2020-03-25T17:00:00",
      "t_end": "2020-03-26T05:00:00",
      "link": ""
    },
    {
      "id": 257012,
      "lat": 32.0258672000001,
      "lon": 34.8593382,
      "label": "סופר יש חסד - אור יהודה",
      "text": "",
      "stayTimes": "17:00 - 17:30",
      "t_start": "2020-03-25T15:00:00",
      "t_end": "2020-03-25T15:30:00",
      "link": ""
    },
    {
      "id": 257013,
      "lat": 31.9220189000001,
      "lon": 34.8587808,
      "label": "מרכז בריאות הילד - רמלה",
      "text": "",
      "stayTimes": "08:15 - 11:00",
      "t_start": "2020-03-25T06:15:00",
      "t_end": "2020-03-25T09:00:00",
      "link": ""
    },
    {
      "id": 257014,
      "lat": 31.926893912,
      "lon": 35.0416824800001,
      "label": "מרכול  רחוב נתיבות המשפט פינת מסילת יוסף - מודיעין עילית",
      "text": "",
      "stayTimes": "18:50 - 19:10",
      "t_start": "2020-03-26T16:50:00",
      "t_end": "2020-03-26T17:10:00",
      "link": ""
    },
    {
      "id": 257015,
      "lat": 31.6629795000001,
      "lon": 34.5766783,
      "label": "קופ\"ח כללית נאות אשקלון - אשקלון",
      "text": "",
      "stayTimes": "07:30 - 13:30",
      "t_start": "2020-03-25T05:30:00",
      "t_end": "2020-03-25T11:30:00",
      "link": ""
    },
    {
      "id": 257016,
      "lat": 31.374236604,
      "lon": 35.006553292,
      "label": "סופר מחסני השוק- מיתרים - שמעה",
      "text": "",
      "stayTimes": "12:30 - 13:30",
      "t_start": "2020-03-25T10:30:00",
      "t_end": "2020-03-25T11:30:00",
      "link": ""
    },
    {
      "id": 257017,
      "lat": 31.243467374,
      "lon": 34.8125915960001,
      "label": "סופר פארם ביג - באר שבע",
      "text": "",
      "stayTimes": "09:30 - 10:00",
      "t_start": "2020-03-25T07:30:00",
      "t_end": "2020-03-25T08:00:00",
      "link": ""
    },
    {
      "id": 257018,
      "lat": 31.2413889000001,
      "lon": 34.8105556,
      "label": "ACE ביג - באר שבע",
      "text": "",
      "stayTimes": "10:00 - 10:30",
      "t_start": "2020-03-25T08:00:00",
      "t_end": "2020-03-25T08:30:00",
      "link": ""
    },
    {
      "id": 257019,
      "lat": 31.243467374,
      "lon": 34.8125915960001,
      "label": "חנות נעמן BIG - באר שבע",
      "text": "",
      "stayTimes": "10:00 - 10:30",
      "t_start": "2020-03-25T08:00:00",
      "t_end": "2020-03-25T08:30:00",
      "link": ""
    },
    {
      "id": 257020,
      "lat": 31.7789552,
      "lon": 34.6570806,
      "label": "מיון ביה\"ח אסותא - אשדוד",
      "text": "",
      "stayTimes": "17:00 - 17:30",
      "t_start": "2020-03-26T15:00:00",
      "t_end": "2020-03-26T15:30:00",
      "link": ""
    },
    {
      "id": 257021,
      "lat": 31.9911338060001,
      "lon": 34.7607513570001,
      "label": "מאפיית קראמבל - ראשון לציון",
      "text": "",
      "stayTimes": "23:00 - 23:30",
      "t_start": "2020-03-26T21:00:00",
      "t_end": "2020-03-26T21:30:00",
      "link": ""
    },
    {
      "id": 257022,
      "lat": 32.0907355840001,
      "lon": 34.832599685,
      "label": "מכירה שכונתית בגינת אבן שפרוט - בני ברק",
      "text": "",
      "stayTimes": "12:00 - 08:00",
      "t_start": "2020-03-25T10:00:00",
      "t_end": "2020-03-22T06:00:00",
      "link": ""
    },
    {
      "id": 257023,
      "lat": 32.0794501020001,
      "lon": 34.815074942,
      "label": "סופר פארם - רמת גן",
      "text": "",
      "stayTimes": "10:30 - 11:00",
      "t_start": "2020-03-25T08:30:00",
      "t_end": "2020-03-25T09:00:00",
      "link": ""
    },
    {
      "id": 257024,
      "lat": 33.0742210010001,
      "lon": 35.1428321550001,
      "label": "קייטנת ילדים במתנס - שלומי",
      "text": "",
      "stayTimes": "08:00 - 08:30",
      "t_start": "2020-03-25T06:00:00",
      "t_end": "2020-03-25T06:30:00",
      "link": ""
    },
    {
      "id": 257025,
      "lat": 32.0257730000001,
      "lon": 34.90142,
      "label": "שופרסל - יהוד",
      "text": "",
      "stayTimes": "13:15 - 14:15",
      "t_start": "2020-03-27T11:15:00",
      "t_end": "2020-03-27T12:15:00",
      "link": ""
    },
    {
      "id": 257026,
      "lat": 32.031362458,
      "lon": 34.855545363,
      "label": "מאפיית מן הארץ - אור יהודה",
      "text": "",
      "stayTimes": "11:00 - 11:30",
      "t_start": "2020-03-25T09:00:00",
      "t_end": "2020-03-25T09:30:00",
      "link": ""
    },
    {
      "id": 257027,
      "lat": 32.031388733,
      "lon": 34.85544191,
      "label": "סופר סיטי נווה סביון - אור יהודה",
      "text": "",
      "stayTimes": "16:00 - 16:30",
      "t_start": "2020-03-27T14:00:00",
      "t_end": "2020-03-27T14:30:00",
      "link": ""
    },
    {
      "id": 257028,
      "lat": 31.6622785000001,
      "lon": 34.5592871000001,
      "label": "מחלקת משאבי אנוש בית חולים ברזילי - אשקלון",
      "text": "",
      "stayTimes": "15:00 - 17:00",
      "t_start": "2020-03-25T13:00:00",
      "t_end": "2020-03-25T15:00:00",
      "link": ""
    },
    {
      "id": 257029,
      "lat": 31.6622785000001,
      "lon": 34.5592871000001,
      "label": "מכון MRI  בית חולים ברזילי - אשקלון",
      "text": "",
      "stayTimes": "15:00 - 17:00",
      "t_start": "2020-03-25T13:00:00",
      "t_end": "2020-03-25T15:00:00",
      "link": ""
    },
    {
      "id": 257030,
      "lat": 32.0829565490001,
      "lon": 34.8427267970001,
      "label": "צרכניה אחיעזר - בני ברק",
      "text": "",
      "stayTimes": "18:40 - 20:00",
      "t_start": "2020-03-25T16:40:00",
      "t_end": "2020-03-25T18:00:00",
      "link": ""
    },
    {
      "id": 257031,
      "lat": 32.7219273000001,
      "lon": 35.4949277000001,
      "label": "בית אבות יוקרה - יבנאל",
      "text": "",
      "stayTimes": "22:00 - 06:00",
      "t_start": "2020-03-27T20:00:00",
      "t_end": "2020-03-28T04:00:00",
      "link": ""
    },
    {
      "id": 257032,
      "lat": 31.245815979,
      "lon": 34.776824193,
      "label": "קופת חולים כללית ט - באר שבע",
      "text": "",
      "stayTimes": "10:30 - 11:00",
      "t_start": "2020-03-27T08:30:00",
      "t_end": "2020-03-27T09:00:00",
      "link": ""
    },
    {
      "id": 257033,
      "lat": 32.078923337,
      "lon": 34.8392821350001,
      "label": "בית אבות והדרת פני זקן - בני ברק",
      "text": "",
      "stayTimes": "08:00 - 12:00",
      "t_start": "2020-03-27T06:00:00",
      "t_end": "2020-03-27T10:00:00",
      "link": ""
    },
    {
      "id": 257034,
      "lat": 32.078923337,
      "lon": 34.8392821350001,
      "label": "בית אבות והדרת פני זקן - בני ברק",
      "text": "",
      "stayTimes": "08:00 - 12:00",
      "t_start": "2020-03-25T06:00:00",
      "t_end": "2020-03-25T10:00:00",
      "link": ""
    },
    {
      "id": 257035,
      "lat": 32.078923337,
      "lon": 34.8392821350001,
      "label": "בית אבות והדרת פני זקן - בני ברק",
      "text": "",
      "stayTimes": "08:00 - 12:00",
      "t_start": "2020-03-26T06:00:00",
      "t_end": "2020-03-26T10:00:00",
      "link": ""
    },
    {
      "id": 257036,
      "lat": 32.3187235,
      "lon": 34.9340612,
      "label": "חבוש - כפר יונה",
      "text": "",
      "stayTimes": "11:15 - 11:30",
      "t_start": "2020-03-25T09:15:00",
      "t_end": "2020-03-25T09:30:00",
      "link": ""
    },
    {
      "id": 257037,
      "lat": 32.318136183,
      "lon": 34.9344362570001,
      "label": "סופר מגה - כפר יונה",
      "text": "",
      "stayTimes": "11:00 - 11:15",
      "t_start": "2020-03-25T09:00:00",
      "t_end": "2020-03-25T09:15:00",
      "link": ""
    },
    {
      "id": 257038,
      "lat": 31.6619693000001,
      "lon": 34.55967,
      "label": "מיון ברזילי - אשקלון",
      "text": "",
      "stayTimes": "14:30 - 17:00",
      "t_start": "2020-03-27T12:30:00",
      "t_end": "2020-03-27T15:00:00",
      "link": ""
    },
    {
      "id": 257039,
      "lat": 30.6111034,
      "lon": 34.7986178,
      "label": "מכולת \"הסלסלה\" - מצפה רמון",
      "text": "",
      "stayTimes": "12:00 - 13:00",
      "t_start": "2020-03-26T10:00:00",
      "t_end": "2020-03-26T11:00:00",
      "link": ""
    },
    {
      "id": 257040,
      "lat": 31.8111825,
      "lon": 35.2197587000001,
      "label": "קופת חולים כללית - ירושלים",
      "text": "",
      "stayTimes": "09:00 - 12:00",
      "t_start": "2020-03-25T07:00:00",
      "t_end": "2020-03-25T10:00:00",
      "link": ""
    },
    {
      "id": 257041,
      "lat": 31.8122742190001,
      "lon": 35.1952146290001,
      "label": "זול ובגדול קניון רמות. - ירושלים",
      "text": "",
      "stayTimes": "10:00 - 11:00",
      "t_start": "2020-03-26T08:00:00",
      "t_end": "2020-03-26T09:00:00",
      "link": ""
    },
    {
      "id": 257042,
      "lat": 32.1461142410001,
      "lon": 34.803998865,
      "label": "\"שופרסל\" סניף גלילות - הרצליה",
      "text": "",
      "stayTimes": "06:00 - 14:30",
      "t_start": "2020-03-27T04:00:00",
      "t_end": "2020-03-27T12:30:00",
      "link": ""
    },
    {
      "id": 257043,
      "lat": 31.991863,
      "lon": 34.7750457000001,
      "label": "ביקור רופא - ראשון לציון",
      "text": "",
      "stayTimes": "21:11 - 22:50",
      "t_start": "2020-03-28T19:11:00",
      "t_end": "2020-03-28T20:50:00",
      "link": ""
    },
    {
      "id": 257044,
      "lat": 32.079163484,
      "lon": 34.8381503910001,
      "label": "יש חסד - בני ברק",
      "text": "",
      "stayTimes": "22:00 - 22:30",
      "t_start": "2020-03-25T20:00:00",
      "t_end": "2020-03-25T20:30:00",
      "link": ""
    },
    {
      "id": 257045,
      "lat": 32.003632829,
      "lon": 34.8038148690001,
      "label": "חצי חינם - חולון",
      "text": "",
      "stayTimes": "14:30 - 16:30",
      "t_start": "2020-03-25T12:30:00",
      "t_end": "2020-03-25T14:30:00",
      "link": ""
    },
    {
      "id": 257046,
      "lat": 32.0082967130001,
      "lon": 34.791272909,
      "label": "שופרסל - חולון",
      "text": "",
      "stayTimes": "17:00 - 17:30",
      "t_start": "2020-03-25T15:00:00",
      "t_end": "2020-03-25T15:30:00",
      "link": ""
    },
    {
      "id": 257047,
      "lat": 32.1967184600001,
      "lon": 34.8775121680001,
      "label": "הום סנטר קניון רננים - רעננה",
      "text": "",
      "stayTimes": "19:00 - 20:00",
      "t_start": "2020-03-26T17:00:00",
      "t_end": "2020-03-26T18:00:00",
      "link": ""
    },
    {
      "id": 257048,
      "lat": 32.1967184600001,
      "lon": 34.8775121680001,
      "label": "פירות גינוסר - רעננה",
      "text": "",
      "stayTimes": "20:00 - 20:30",
      "t_start": "2020-03-26T18:00:00",
      "t_end": "2020-03-26T18:30:00",
      "link": ""
    },
    {
      "id": 257049,
      "lat": 31.6697462000001,
      "lon": 34.5790404000001,
      "label": "הבית של חני - אשקלון",
      "text": "",
      "stayTimes": "16:00 - 16:30",
      "t_start": "2020-03-25T14:00:00",
      "t_end": "2020-03-25T14:30:00",
      "link": ""
    },
    {
      "id": 257050,
      "lat": 31.6621588,
      "lon": 34.5788590000001,
      "label": "סופר האחים - אשקלון",
      "text": "",
      "stayTimes": "15:30 - 15:45",
      "t_start": "2020-03-26T13:30:00",
      "t_end": "2020-03-26T13:45:00",
      "link": ""
    },
    {
      "id": 257051,
      "lat": 32.037698784,
      "lon": 34.7761311100001,
      "label": "סופר יוחננוף - חולון",
      "text": "",
      "stayTimes": "11:00 - 12:00",
      "t_start": "2020-03-25T09:00:00",
      "t_end": "2020-03-25T10:00:00",
      "link": ""
    },
    {
      "id": 257052,
      "lat": 32.056400791,
      "lon": 34.7697736750001,
      "label": "שופרסל - תל אביב - יפו",
      "text": "",
      "stayTimes": "10:30 - 12:30",
      "t_start": "2020-03-26T08:30:00",
      "t_end": "2020-03-26T10:30:00",
      "link": ""
    },
    {
      "id": 257053,
      "lat": 32.014196616,
      "lon": 34.766959027,
      "label": "מוקד מכבי חולון - חולון",
      "text": "",
      "stayTimes": "19:00 - 20:15",
      "t_start": "2020-03-26T17:00:00",
      "t_end": "2020-03-26T18:15:00",
      "link": ""
    },
    {
      "id": 257054,
      "lat": 32.05711304,
      "lon": 34.8695085620001,
      "label": "סופר AM/PM אבאבן גבירול 14 תא - תל אביב - יפו",
      "text": "",
      "stayTimes": "19:00 - 21:00",
      "t_start": "2020-03-28T17:00:00",
      "t_end": "2020-03-28T19:00:00",
      "link": ""
    },
    {
      "id": 257055,
      "lat": 32.069616593,
      "lon": 34.78259316,
      "label": "טיב טעם - החשמונאים 91 תא - תל אביב - יפו",
      "text": "",
      "stayTimes": "19:30 - 21:30",
      "t_start": "2020-03-29T17:30:00",
      "t_end": "2020-03-29T19:30:00",
      "link": ""
    },
    {
      "id": 257056,
      "lat": 32.069616593,
      "lon": 34.78259316,
      "label": "טיב טעם - החשמונאים 91 תא - תל אביב - יפו",
      "text": "",
      "stayTimes": "19:00 - 21:00",
      "t_start": "2020-03-25T17:00:00",
      "t_end": "2020-03-25T19:00:00",
      "link": ""
    },
    {
      "id": 257057,
      "lat": 32.9209085750001,
      "lon": 35.311282012,
      "label": "חנות טמבור כהן - כרמיאל",
      "text": "",
      "stayTimes": "15:30 - 16:00",
      "t_start": "2020-03-25T13:30:00",
      "t_end": "2020-03-25T14:00:00",
      "link": ""
    },
    {
      "id": 257058,
      "lat": 31.6688284160001,
      "lon": 34.602371111,
      "label": "שוק העיר - אשקלון",
      "text": "",
      "stayTimes": "09:15 - 10:15",
      "t_start": "2020-03-25T07:15:00",
      "t_end": "2020-03-25T08:15:00",
      "link": ""
    },
    {
      "id": 257059,
      "lat": 31.6659504360001,
      "lon": 34.562813997,
      "label": "קונדטוריה לה טורט - אשקלון",
      "text": "",
      "stayTimes": "11:00 - 11:30",
      "t_start": "2020-03-27T09:00:00",
      "t_end": "2020-03-27T09:30:00",
      "link": ""
    },
    {
      "id": 257060,
      "lat": 31.6622785000001,
      "lon": 34.5592871000001,
      "label": "יחידת מחשוב בי\"ח ברזילי - אשקלון",
      "text": "",
      "stayTimes": "08:00 - 18:00",
      "t_start": "2020-03-25T06:00:00",
      "t_end": "2020-03-25T16:00:00",
      "link": ""
    },
    {
      "id": 257061,
      "lat": 31.6622785000001,
      "lon": 34.5592871000001,
      "label": "יחידת המחשוב- בי\"ח ברזילי - אשקלון",
      "text": "",
      "stayTimes": "08:00 - 19:00",
      "t_start": "2020-03-26T06:00:00",
      "t_end": "2020-03-26T17:00:00",
      "link": ""
    },
    {
      "id": 257062,
      "lat": 32.1811562,
      "lon": 34.897049,
      "label": "בי\"ח מאיר- מרפאה לתיירות מרפא, נלקחה בדיקה - כפר סבא",
      "text": "",
      "stayTimes": "13:20 - 13:30",
      "t_start": "2020-03-29T11:20:00",
      "t_end": "2020-03-29T11:30:00",
      "link": ""
    },
    {
      "id": 257063,
      "lat": 32.946579163,
      "lon": 35.172608617,
      "label": "MY BABY - ירכא",
      "text": "",
      "stayTimes": "16:30 - 18:00",
      "t_start": "2020-03-25T14:30:00",
      "t_end": "2020-03-25T16:00:00",
      "link": ""
    },
    {
      "id": 257064,
      "lat": 32.345488,
      "lon": 34.855896,
      "label": "בית חולים לניאדו - נתניה",
      "text": "",
      "stayTimes": "16:00 - 16:30",
      "t_start": "2020-03-26T14:00:00",
      "t_end": "2020-03-26T14:30:00",
      "link": ""
    },
    {
      "id": 257065,
      "lat": 31.665293945,
      "lon": 34.566231895,
      "label": "מאוחדת - אשקלון",
      "text": "",
      "stayTimes": "09:20 - 09:30",
      "t_start": "2020-03-29T07:20:00",
      "t_end": "2020-03-29T07:30:00",
      "link": ""
    },
    {
      "id": 257066,
      "lat": 31.947558379,
      "lon": 34.891374737,
      "label": "מוקד טרם - לוד - לוד",
      "text": "",
      "stayTimes": "23:15 - 01:00",
      "t_start": "2020-03-27T21:15:00",
      "t_end": "2020-03-26T23:00:00",
      "link": ""
    },
    {
      "id": 257067,
      "lat": 31.9266720000001,
      "lon": 34.8777440000001,
      "label": "סופר פארם קרית הממשלה רמלה - רמלה",
      "text": "",
      "stayTimes": "11:30 - 13:00",
      "t_start": "2020-03-27T09:30:00",
      "t_end": "2020-03-27T11:00:00",
      "link": ""
    },
    {
      "id": 257068,
      "lat": 31.938458558,
      "lon": 35.0452013440001,
      "label": "בית ספר מעלותבת שבע בקומה א במרפסת הדרומית - מודיעין עילית",
      "text": "",
      "stayTimes": "08:00 - 09:00",
      "t_start": "2020-03-27T06:00:00",
      "t_end": "2020-03-27T07:00:00",
      "link": ""
    },
    {
      "id": 257069,
      "lat": 32.2759974000001,
      "lon": 34.9201281000001,
      "label": "סופר פארם - קדימה-צורן",
      "text": "",
      "stayTimes": "13:55 - 14:55",
      "t_start": "2020-03-26T11:55:00",
      "t_end": "2020-03-26T12:55:00",
      "link": ""
    },
    {
      "id": 257070,
      "lat": 31.8052665220001,
      "lon": 35.151213682,
      "label": "סופר רמי לוי במבשרת ציון - ירושלים",
      "text": "",
      "stayTimes": "12:00 - 13:30",
      "t_start": "2020-03-25T10:00:00",
      "t_end": "2020-03-25T11:30:00",
      "link": ""
    },
    {
      "id": 257071,
      "lat": 32.2797850480001,
      "lon": 34.8537296210001,
      "label": "קופת חולים כללית - נתניה",
      "text": "",
      "stayTimes": "09:20 - 09:45",
      "t_start": "2020-03-27T07:20:00",
      "t_end": "2020-03-27T07:45:00",
      "link": ""
    },
    {
      "id": 257072,
      "lat": 32.2797850480001,
      "lon": 34.8537296210001,
      "label": "בית מרחקת קופת חולים כללית - נתניה",
      "text": "",
      "stayTimes": "09:45 - 10:00",
      "t_start": "2020-03-27T07:45:00",
      "t_end": "2020-03-27T08:00:00",
      "link": ""
    },
    {
      "id": 257073,
      "lat": 31.884983436,
      "lon": 34.7387132640001,
      "label": "שופרסל דיל - יבנה",
      "text": "",
      "stayTimes": "09:00 - 10:00",
      "t_start": "2020-03-27T07:00:00",
      "t_end": "2020-03-27T08:00:00",
      "link": ""
    },
    {
      "id": 257074,
      "lat": 32.4418197000001,
      "lon": 34.9130742,
      "label": "קופת חולים כללית דגני חדרה - חדרה",
      "text": "",
      "stayTimes": "13:00 - 14:00",
      "t_start": "2020-03-26T11:00:00",
      "t_end": "2020-03-26T12:00:00",
      "link": ""
    },
    {
      "id": 257075,
      "lat": 32.5688498010001,
      "lon": 34.954768512,
      "label": "קופת חולים \"כללית\" - זכרון יעקב",
      "text": "",
      "stayTimes": "08:00 - 08:30",
      "t_start": "2020-03-25T06:00:00",
      "t_end": "2020-03-25T06:30:00",
      "link": ""
    },
    {
      "id": 257076,
      "lat": 32.0894552460001,
      "lon": 34.817679802,
      "label": "פרימדונה - רמת גן",
      "text": "",
      "stayTimes": "16:00 - 16:20",
      "t_start": "2020-03-25T14:00:00",
      "t_end": "2020-03-25T14:20:00",
      "link": ""
    },
    {
      "id": 257077,
      "lat": 32.532988947,
      "lon": 35.148568518,
      "label": "סופר פארם שכ' עין איברהים אום אל פאחם - אום אל-פחם",
      "text": "",
      "stayTimes": "15:00 - 15:30",
      "t_start": "2020-03-27T13:00:00",
      "t_end": "2020-03-27T13:30:00",
      "link": ""
    },
    {
      "id": 257078,
      "lat": 32.4418197000001,
      "lon": 34.9130742,
      "label": "קופת חולים כללית דגני חדרה - חדרה",
      "text": "",
      "stayTimes": "12:00 - 13:00",
      "t_start": "2020-03-26T10:00:00",
      "t_end": "2020-03-26T11:00:00",
      "link": ""
    },
    {
      "id": 257079,
      "lat": 32.5217420000001,
      "lon": 34.9420900000001,
      "label": "קופת חלוים כללית - בנימינה-גבעת עדה",
      "text": "",
      "stayTimes": "10:00 - 11:00",
      "t_start": "2020-03-26T08:00:00",
      "t_end": "2020-03-26T09:00:00",
      "link": ""
    },
    {
      "id": 257080,
      "lat": 32.0827176180001,
      "lon": 34.8263688160001,
      "label": "סופר מרקט \" יש בשכונה\" - בני ברק",
      "text": "",
      "stayTimes": "12:00 - 12:30",
      "t_start": "2020-03-27T10:00:00",
      "t_end": "2020-03-27T10:30:00",
      "link": ""
    },
    {
      "id": 257081,
      "lat": 32.193897093,
      "lon": 34.9082043000001,
      "label": "מינימרקט דורון - גן חיים",
      "text": "",
      "stayTimes": "14:00 - 14:20",
      "t_start": "2020-03-25T12:00:00",
      "t_end": "2020-03-25T12:20:00",
      "link": ""
    },
    {
      "id": 257082,
      "lat": 32.1018083000001,
      "lon": 34.8298623000001,
      "label": "רמי לוי - בני ברק",
      "text": "",
      "stayTimes": "13:00 - 14:00",
      "t_start": "2020-03-27T11:00:00",
      "t_end": "2020-03-27T12:00:00",
      "link": ""
    },
    {
      "id": 257083,
      "lat": 31.796859268,
      "lon": 35.241855844,
      "label": "הדסה הר הצופים - ירושלים",
      "text": "",
      "stayTimes": "07:00 - 15:00",
      "t_start": "2020-03-25T05:00:00",
      "t_end": "2020-03-25T13:00:00",
      "link": ""
    },
    {
      "id": 257084,
      "lat": 31.796859268,
      "lon": 35.241855844,
      "label": "הדסה הר הצופים - ירושלים",
      "text": "",
      "stayTimes": "23:00 - 07:00",
      "t_start": "2020-03-25T21:00:00",
      "t_end": "2020-03-26T05:00:00",
      "link": ""
    },
    {
      "id": 257085,
      "lat": 31.78866678,
      "lon": 35.2184726240001,
      "label": "קופת חולים מאוחדת סניף א-טור - ירושלים",
      "text": "",
      "stayTimes": "16:00 - 16:00",
      "t_start": "2020-03-26T14:00:00",
      "t_end": "2020-03-26T14:00:00",
      "link": ""
    },
    {
      "id": 257086,
      "lat": 32.6695708410001,
      "lon": 35.2374570850001,
      "label": "סופר \"אושר עד\" - מגדל העמק",
      "text": "",
      "stayTimes": "13:00 - 14:00",
      "t_start": "2020-03-25T11:00:00",
      "t_end": "2020-03-25T12:00:00",
      "link": ""
    },
    {
      "id": 257087,
      "lat": 32.0258672000001,
      "lon": 34.8593382,
      "label": "סופר יש - אור יהודה",
      "text": "",
      "stayTimes": "18:00 - 18:30",
      "t_start": "2020-03-26T16:00:00",
      "t_end": "2020-03-26T16:30:00",
      "link": ""
    },
    {
      "id": 257088,
      "lat": 31.9313906,
      "lon": 35.0406651330001,
      "label": "מרפאת שיניים- ביודנט - מודיעין עילית",
      "text": "",
      "stayTimes": "11:30 - 18:00",
      "t_start": "2020-03-25T09:30:00",
      "t_end": "2020-03-25T16:00:00",
      "link": ""
    },
    {
      "id": 257089,
      "lat": 32.0882709090001,
      "lon": 34.8252846180001,
      "label": "טיפת חלב הרצוג - בני ברק",
      "text": "",
      "stayTimes": "12:00 - 12:30",
      "t_start": "2020-03-27T10:00:00",
      "t_end": "2020-03-27T10:30:00",
      "link": ""
    },
    {
      "id": 257090,
      "lat": 32.7087613160001,
      "lon": 35.172962904,
      "label": "סופר האחים דוד - רמת ישי",
      "text": "",
      "stayTimes": "06:00 - 14:30",
      "t_start": "2020-03-25T04:00:00",
      "t_end": "2020-03-25T12:30:00",
      "link": ""
    },
    {
      "id": 257091,
      "lat": 32.7074447730001,
      "lon": 35.1735545060001,
      "label": "סופר אחים דוד - רמת ישי",
      "text": "",
      "stayTimes": "06:00 - 15:00",
      "t_start": "2020-03-26T04:00:00",
      "t_end": "2020-03-26T13:00:00",
      "link": ""
    },
    {
      "id": 257092,
      "lat": 32.7078946680001,
      "lon": 35.173445702,
      "label": "סופר האחים דוד - רמת ישי",
      "text": "",
      "stayTimes": "06:00 - 15:43",
      "t_start": "2020-03-29T04:00:00",
      "t_end": "2020-03-29T13:43:00",
      "link": ""
    },
    {
      "id": 257093,
      "lat": 32.708734233,
      "lon": 35.172954857,
      "label": "סופר האחים דוד - רמת ישי",
      "text": "",
      "stayTimes": "13:30 - 18:00",
      "t_start": "2020-03-30T11:30:00",
      "t_end": "2020-03-30T16:00:00",
      "link": ""
    },
    {
      "id": 257094,
      "lat": 31.755914444,
      "lon": 34.990648364,
      "label": "סופר פארם- ביג פשן - בית שמש",
      "text": "",
      "stayTimes": "16:15 - 16:45",
      "t_start": "2020-03-26T14:15:00",
      "t_end": "2020-03-26T14:45:00",
      "link": ""
    },
    {
      "id": 257095,
      "lat": 31.788912419,
      "lon": 34.6643911580001,
      "label": "מכבי פארם ,רובע ז, מרכזון רשבי , אשדוד בין השעות 11:00-11:15 - אשדוד",
      "text": "",
      "stayTimes": "08:00 - 08:00",
      "t_start": "2020-03-29T06:00:00",
      "t_end": "2020-03-29T06:00:00",
      "link": ""
    },
    {
      "id": 257096,
      "lat": 32.6694850420001,
      "lon": 35.2374973180001,
      "label": "אושר עד מגדל העמק - מגדל העמק",
      "text": "",
      "stayTimes": "14:35 - 15:30",
      "t_start": "2020-03-25T12:35:00",
      "t_end": "2020-03-25T13:30:00",
      "link": ""
    },
    {
      "id": 257097,
      "lat": 32.6782684,
      "lon": 35.2433929000001,
      "label": "שופרסל פרץ סנטר מגדל העמק - מגדל העמק",
      "text": "",
      "stayTimes": "13:30 - 14:30",
      "t_start": "2020-03-27T11:30:00",
      "t_end": "2020-03-27T12:30:00",
      "link": ""
    },
    {
      "id": 257098,
      "lat": 32.0897515830001,
      "lon": 34.8670658130001,
      "label": "בית חולים בלינסון - פתח תקווה",
      "text": "",
      "stayTimes": "04:00 - 07:00",
      "t_start": "2020-03-29T02:00:00",
      "t_end": "2020-03-29T05:00:00",
      "link": ""
    },
    {
      "id": 257099,
      "lat": 32.0327898580001,
      "lon": 34.8510575890001,
      "label": "יוחננוף - אור יהודה",
      "text": "",
      "stayTimes": "07:00 - 07:30",
      "t_start": "2020-03-27T05:00:00",
      "t_end": "2020-03-27T05:30:00",
      "link": ""
    },
    {
      "id": 257100,
      "lat": 32.1581507000001,
      "lon": 34.8947393,
      "label": "דואר ישראל - הוד השרון",
      "text": "",
      "stayTimes": "12:00 - 12:30",
      "t_start": "2020-03-25T10:00:00",
      "t_end": "2020-03-25T10:30:00",
      "link": ""
    },
    {
      "id": 257101,
      "lat": 32.132282581,
      "lon": 34.901173149,
      "label": "חצי חינם - הוד השרון",
      "text": "",
      "stayTimes": "10:30 - 11:30",
      "t_start": "2020-03-25T08:30:00",
      "t_end": "2020-03-25T09:30:00",
      "link": ""
    },
    {
      "id": 257102,
      "lat": 32.087882506,
      "lon": 34.8599185310001,
      "label": "שופרסל - פתח תקווה",
      "text": "",
      "stayTimes": "09:00 - 10:00",
      "t_start": "2020-03-25T07:00:00",
      "t_end": "2020-03-25T08:00:00",
      "link": ""
    },
    {
      "id": 257103,
      "lat": 32.1058370000001,
      "lon": 34.8923941,
      "label": "אושר עד - פתח תקווה",
      "text": "",
      "stayTimes": "16:00 - 17:30",
      "t_start": "2020-03-26T14:00:00",
      "t_end": "2020-03-26T15:30:00",
      "link": ""
    },
    {
      "id": 257104,
      "lat": 32.085266862,
      "lon": 34.830416728,
      "label": "בית הכנסת מבעלזא - בני ברק",
      "text": "",
      "stayTimes": "17:00 - 17:30",
      "t_start": "2020-03-28T15:00:00",
      "t_end": "2020-03-28T15:30:00",
      "link": ""
    },
    {
      "id": 257105,
      "lat": 32.1116406570001,
      "lon": 34.79511976,
      "label": "קניון רמת אביב - תל אביב - יפו",
      "text": "",
      "stayTimes": "14:00 - 15:30",
      "t_start": "2020-03-25T12:00:00",
      "t_end": "2020-03-25T13:30:00",
      "link": ""
    },
    {
      "id": 257106,
      "lat": 32.0899863330001,
      "lon": 34.8282752060001,
      "label": "ישיבה סלבודקה - בני ברק",
      "text": "",
      "stayTimes": "08:00 - 08:00",
      "t_start": "2020-04-21T06:00:00",
      "t_end": "2020-03-23T06:00:00",
      "link": ""
    },
    {
      "id": 257107,
      "lat": 32.0603095640001,
      "lon": 34.8161362490001,
      "label": "מאפיית האחים - גבעתיים",
      "text": "",
      "stayTimes": "07:00 - 08:00",
      "t_start": "2020-03-27T05:00:00",
      "t_end": "2020-03-27T06:00:00",
      "link": ""
    },
    {
      "id": 257108,
      "lat": 32.060656055,
      "lon": 34.8161008880001,
      "label": "חוות נעמי - חנות גבינות - גבעתיים",
      "text": "",
      "stayTimes": "08:00 - 09:00",
      "t_start": "2020-03-27T06:00:00",
      "t_end": "2020-03-27T07:00:00",
      "link": ""
    },
    {
      "id": 257109,
      "lat": 31.932267546,
      "lon": 35.0421592930001,
      "label": "בית כנסת קהל חסידים שכונת נאות הפסגה - מודיעין עילית",
      "text": "",
      "stayTimes": "09:15 - 10:40",
      "t_start": "2020-03-25T07:15:00",
      "t_end": "2020-03-25T08:40:00",
      "link": ""
    },
    {
      "id": 257110,
      "lat": 31.9277091000001,
      "lon": 35.0472917000001,
      "label": "בית כנסת המרכז נאות הפסגה - מודיעין עילית",
      "text": "",
      "stayTimes": "13:15 - 14:30",
      "t_start": "2020-03-25T11:15:00",
      "t_end": "2020-03-25T12:30:00",
      "link": ""
    },
    {
      "id": 257111,
      "lat": 31.781289971,
      "lon": 35.220061996,
      "label": "בית כנסת קהל חסידים נאות הפסגה - מודיעין עילית",
      "text": "",
      "stayTimes": "09:15 - 10:45",
      "t_start": "2020-03-26T07:15:00",
      "t_end": "2020-03-26T08:45:00",
      "link": ""
    },
    {
      "id": 257112,
      "lat": 32.087420208,
      "lon": 34.8372465310001,
      "label": "בית ספר תלמוד תורה קרולין - בני ברק",
      "text": "",
      "stayTimes": "08:30 - 12:15",
      "t_start": "2020-03-25T06:30:00",
      "t_end": "2020-03-25T10:15:00",
      "link": ""
    },
    {
      "id": 257113,
      "lat": 32.0874281590001,
      "lon": 34.8369161680001,
      "label": "בית ספר תלמוד תורה קרולין - בני ברק",
      "text": "",
      "stayTimes": "08:30 - 12:15",
      "t_start": "2020-03-26T06:30:00",
      "t_end": "2020-03-26T10:15:00",
      "link": ""
    },
    {
      "id": 257114,
      "lat": 32.621038034,
      "lon": 35.3165950600001,
      "label": "פנימית ג' העמק עפולה - עפולה",
      "text": "",
      "stayTimes": "16:30 - 17:00",
      "t_start": "2020-03-29T14:30:00",
      "t_end": "2020-03-29T15:00:00",
      "link": ""
    },
    {
      "id": 257115,
      "lat": 32.611947877,
      "lon": 35.290123898,
      "label": "קופת כללית עומר - עפולה",
      "text": "",
      "stayTimes": "08:10 - 08:15",
      "t_start": "2020-03-29T06:10:00",
      "t_end": "2020-03-29T06:15:00",
      "link": ""
    },
    {
      "id": 257116,
      "lat": 32.621038034,
      "lon": 35.3165950600001,
      "label": "מיון העמק - עפולה",
      "text": "",
      "stayTimes": "08:30 - 16:30",
      "t_start": "2020-03-29T06:30:00",
      "t_end": "2020-03-29T14:30:00",
      "link": ""
    },
    {
      "id": 257117,
      "lat": 32.6036290660001,
      "lon": 35.2985224650001,
      "label": "רשת ויקטורי - עפולה",
      "text": "",
      "stayTimes": "09:30 - 10:30",
      "t_start": "2020-03-27T07:30:00",
      "t_end": "2020-03-27T08:30:00",
      "link": ""
    },
    {
      "id": 257118,
      "lat": 32.6038847,
      "lon": 35.2930428000001,
      "label": "רמי לוי - עפולה",
      "text": "",
      "stayTimes": "17:00 - 17:30",
      "t_start": "2020-03-25T15:00:00",
      "t_end": "2020-03-25T15:30:00",
      "link": ""
    },
    {
      "id": 257119,
      "lat": 32.6066989,
      "lon": 35.2913046,
      "label": "בנק מזרחי טפחות - עפולה",
      "text": "",
      "stayTimes": "08:00 - 15:00",
      "t_start": "2020-03-26T06:00:00",
      "t_end": "2020-03-26T13:00:00",
      "link": ""
    },
    {
      "id": 257120,
      "lat": 32.7112741880001,
      "lon": 35.3248780000001,
      "label": "עירית נוף הגליל - אריזת אוכל לקשישים - נוף הגליל",
      "text": "",
      "stayTimes": "19:00 - 21:30",
      "t_start": "2020-03-25T17:00:00",
      "t_end": "2020-03-25T19:30:00",
      "link": ""
    },
    {
      "id": 257121,
      "lat": 31.7963021630001,
      "lon": 34.6658926320001,
      "label": "הנדסת מערכות 6410 אלתא - אשדוד",
      "text": "",
      "stayTimes": "07:30 - 16:30",
      "t_start": "2020-03-25T05:30:00",
      "t_end": "2020-03-25T14:30:00",
      "link": ""
    },
    {
      "id": 257122,
      "lat": 31.7961974,
      "lon": 34.6658564000001,
      "label": "הנדסת מערכות 6410 אלתא מערכות בע\"מ - אשדוד",
      "text": "",
      "stayTimes": "07:30 - 16:30",
      "t_start": "2020-03-26T05:30:00",
      "t_end": "2020-03-26T14:30:00",
      "link": ""
    },
    {
      "id": 257123,
      "lat": 31.781289971,
      "lon": 35.220061996,
      "label": "בית כנסת קהל חסידים - מודיעין עילית",
      "text": "",
      "stayTimes": "10:15 - 12:00",
      "t_start": "2020-03-28T08:15:00",
      "t_end": "2020-03-28T10:00:00",
      "link": ""
    },
    {
      "id": 257124,
      "lat": 32.250529855,
      "lon": 34.9188569030001,
      "label": "ירקות ופירות אבנר - תל מונד",
      "text": "",
      "stayTimes": "09:00 - 11:00",
      "t_start": "2020-03-26T07:00:00",
      "t_end": "2020-03-26T09:00:00",
      "link": ""
    },
    {
      "id": 257125,
      "lat": 31.618339125,
      "lon": 34.752510682,
      "label": "סופרמרקט \"שפע ברכה\" - קרית גת",
      "text": "",
      "stayTimes": "11:30 - 13:00",
      "t_start": "2020-03-27T09:30:00",
      "t_end": "2020-03-27T11:00:00",
      "link": ""
    },
    {
      "id": 257126,
      "lat": 32.90338337,
      "lon": 35.280494596,
      "label": "סופר שלי כרמיאל - כרמיאל",
      "text": "",
      "stayTimes": "14:00 - 15:00",
      "t_start": "2020-03-29T12:00:00",
      "t_end": "2020-03-29T13:00:00",
      "link": ""
    },
    {
      "id": 257127,
      "lat": 33.0078689630001,
      "lon": 35.093251561,
      "label": "הרמיתג סיטי - חנות למשקאות חריפות - נהריה",
      "text": "",
      "stayTimes": "14:00 - 14:15",
      "t_start": "2020-03-26T12:00:00",
      "t_end": "2020-03-26T12:15:00",
      "link": ""
    },
    {
      "id": 257128,
      "lat": 31.7789552,
      "lon": 34.6570806,
      "label": "אסותא - אשדוד",
      "text": "",
      "stayTimes": "12:00 - 22:00",
      "t_start": "2020-03-25T10:00:00",
      "t_end": "2020-03-25T20:00:00",
      "link": ""
    },
    {
      "id": 257129,
      "lat": 31.9497430210001,
      "lon": 34.8903589280001,
      "label": "סניף חיסכון - לוד",
      "text": "",
      "stayTimes": "08:00 - 08:30",
      "t_start": "2020-03-30T06:00:00",
      "t_end": "2020-03-30T06:30:00",
      "link": ""
    },
    {
      "id": 257130,
      "lat": 31.9497430210001,
      "lon": 34.8903589280001,
      "label": "סניף חסכון - לוד",
      "text": "",
      "stayTimes": "10:00 - 10:30",
      "t_start": "2020-03-29T08:00:00",
      "t_end": "2020-03-29T08:30:00",
      "link": ""
    },
    {
      "id": 257131,
      "lat": 31.947558379,
      "lon": 34.891374737,
      "label": "טרם - לוד",
      "text": "",
      "stayTimes": "11:00 - 12:00",
      "t_start": "2020-03-29T09:00:00",
      "t_end": "2020-03-29T10:00:00",
      "link": ""
    },
    {
      "id": 257132,
      "lat": 31.7923851190001,
      "lon": 34.8242100000001,
      "label": "מחסני השוק - יד בנימין",
      "text": "",
      "stayTimes": "17:00 - 17:30",
      "t_start": "2020-03-26T15:00:00",
      "t_end": "2020-03-26T15:30:00",
      "link": ""
    },
    {
      "id": 257133,
      "lat": 32.0468299,
      "lon": 34.9085715000001,
      "label": "סופרמרקט יש חסד מתחם פאוור סנטר - בארות יצחק",
      "text": "",
      "stayTimes": "14:00 - 14:30",
      "t_start": "2020-03-27T12:00:00",
      "t_end": "2020-03-27T12:30:00",
      "link": ""
    },
    {
      "id": 257134,
      "lat": 32.0152498,
      "lon": 34.7567722000001,
      "label": "סופר דוש - בת ים",
      "text": "",
      "stayTimes": "11:30 - 12:15",
      "t_start": "2020-03-29T09:30:00",
      "t_end": "2020-03-29T10:15:00",
      "link": ""
    },
    {
      "id": 257135,
      "lat": 31.9328128120001,
      "lon": 35.045095127,
      "label": "צרכניית בר כל - מודיעין עילית",
      "text": "",
      "stayTimes": "09:00 - 10:00",
      "t_start": "2020-03-26T07:00:00",
      "t_end": "2020-03-26T08:00:00",
      "link": ""
    },
    {
      "id": 257136,
      "lat": 30.6119140070001,
      "lon": 34.7971998570001,
      "label": "למד בישיבה בחלק של עזרת נשים \"מדברה כעדן\" - מצפה רמון",
      "text": "",
      "stayTimes": "10:00 - 14:30",
      "t_start": "2020-03-25T08:00:00",
      "t_end": "2020-03-25T12:30:00",
      "link": ""
    },
    {
      "id": 257137,
      "lat": 30.6119140070001,
      "lon": 34.7971998570001,
      "label": "ישיבה \"מדברה כעדן\" - מצפה רמון",
      "text": "",
      "stayTimes": "23:00 - 23:30",
      "t_start": "2020-03-25T21:00:00",
      "t_end": "2020-03-25T21:30:00",
      "link": ""
    },
    {
      "id": 257138,
      "lat": 30.6115821540001,
      "lon": 34.7972554090001,
      "label": "יצאו כל בני המשפחה לישיבה \"מדברה כעדן\" - מצפה רמון",
      "text": "",
      "stayTimes": "11:30 - 12:30",
      "t_start": "2020-03-28T09:30:00",
      "t_end": "2020-03-28T10:30:00",
      "link": ""
    },
    {
      "id": 257139,
      "lat": 31.7997442980001,
      "lon": 34.6623996050001,
      "label": "מוקד טרם - אשדוד",
      "text": "",
      "stayTimes": "01:00 - 02:00",
      "t_start": "2020-03-28T23:00:00",
      "t_end": "2020-03-29T00:00:00",
      "link": ""
    },
    {
      "id": 257140,
      "lat": 31.7997442980001,
      "lon": 34.6623996050001,
      "label": "מוקד טרם - אשדוד",
      "text": "",
      "stayTimes": "10:30 - 11:05",
      "t_start": "2020-03-29T08:30:00",
      "t_end": "2020-03-29T09:05:00",
      "link": ""
    },
    {
      "id": 257141,
      "lat": 32.0852319370001,
      "lon": 34.841246271,
      "label": "בית כנסת וואסלוי - בני ברק",
      "text": "",
      "stayTimes": "12:15 - 13:00",
      "t_start": "2020-03-25T10:15:00",
      "t_end": "2020-03-25T11:00:00",
      "link": ""
    },
    {
      "id": 257142,
      "lat": 32.0894035000001,
      "lon": 34.8297563,
      "label": "בית ספר בית יעקב - בני ברק",
      "text": "",
      "stayTimes": "06:00 - 07:00",
      "t_start": "2020-03-28T04:00:00",
      "t_end": "2020-03-28T05:00:00",
      "link": ""
    },
    {
      "id": 257143,
      "lat": 31.7931710980001,
      "lon": 34.63977012,
      "label": "סיטי  מרכז בריאות האשה - אשדוד",
      "text": "",
      "stayTimes": "17:00 - 18:00",
      "t_start": "2020-03-30T15:00:00",
      "t_end": "2020-03-30T16:00:00",
      "link": ""
    },
    {
      "id": 257144,
      "lat": 31.8031798000001,
      "lon": 34.6603225000001,
      "label": "כללית  איזור ג - אשדוד",
      "text": "",
      "stayTimes": "08:00 - 09:00",
      "t_start": "2020-03-25T06:00:00",
      "t_end": "2020-03-25T07:00:00",
      "link": ""
    },
    {
      "id": 257145,
      "lat": 31.814293956,
      "lon": 34.7764854500001,
      "label": "מעון \" עלי מוריה\" - גדרה",
      "text": "",
      "stayTimes": "08:00 - 12:00",
      "t_start": "2020-03-25T06:00:00",
      "t_end": "2020-03-25T10:00:00",
      "link": ""
    },
    {
      "id": 257146,
      "lat": 32.2696101280001,
      "lon": 34.888102858,
      "label": "מכולת \"הצרכניה\" - אבן יהודה",
      "text": "",
      "stayTimes": "16:00 - 16:30",
      "t_start": "2020-03-26T14:00:00",
      "t_end": "2020-03-26T14:30:00",
      "link": ""
    },
    {
      "id": 257147,
      "lat": 32.2926403000001,
      "lon": 34.8624596000001,
      "label": "רמי לוי - נתניה",
      "text": "",
      "stayTimes": "16:45 - 17:20",
      "t_start": "2020-03-26T14:45:00",
      "t_end": "2020-03-26T15:20:00",
      "link": ""
    },
    {
      "id": 257148,
      "lat": 32.2926403000001,
      "lon": 34.8624596000001,
      "label": "רמי לוי - נתניה",
      "text": "",
      "stayTimes": "12:00 - 13:05",
      "t_start": "2020-03-25T10:00:00",
      "t_end": "2020-03-25T11:05:00",
      "link": ""
    },
    {
      "id": 257149,
      "lat": 32.3205556,
      "lon": 34.8711111000001,
      "label": "ויקטורי - נתניה",
      "text": "",
      "stayTimes": "13:50 - 14:10",
      "t_start": "2020-03-27T11:50:00",
      "t_end": "2020-03-27T12:10:00",
      "link": ""
    },
    {
      "id": 257150,
      "lat": 32.3212566510001,
      "lon": 34.8727711230001,
      "label": "תחנת דלק \"סדש\" - נתניה",
      "text": "",
      "stayTimes": "14:10 - 14:20",
      "t_start": "2020-03-27T12:10:00",
      "t_end": "2020-03-27T12:20:00",
      "link": ""
    },
    {
      "id": 257151,
      "lat": 31.92961846,
      "lon": 35.0388973340001,
      "label": "חנות \"כלבו בולומנט\" מרכז קסם - מודיעין עילית",
      "text": "",
      "stayTimes": "16:45 - 17:30",
      "t_start": "2020-03-25T14:45:00",
      "t_end": "2020-03-25T15:30:00",
      "link": ""
    },
    {
      "id": 257152,
      "lat": 31.925733742,
      "lon": 35.0406244370001,
      "label": "תפילה במניין - מודיעין עילית",
      "text": "",
      "stayTimes": "12:00 - 12:30",
      "t_start": "2020-03-25T10:00:00",
      "t_end": "2020-03-25T10:30:00",
      "link": ""
    },
    {
      "id": 257153,
      "lat": 31.922300819,
      "lon": 34.8102361430001,
      "label": "סופר פרם - נס ציונה",
      "text": "",
      "stayTimes": "12:00 - 12:30",
      "t_start": "2020-03-26T10:00:00",
      "t_end": "2020-03-26T10:30:00",
      "link": ""
    },
    {
      "id": 257154,
      "lat": 31.9223019,
      "lon": 34.810235,
      "label": "מגה בעיר - נס ציונה",
      "text": "",
      "stayTimes": "13:00 - 13:15",
      "t_start": "2020-03-26T11:00:00",
      "t_end": "2020-03-26T11:15:00",
      "link": ""
    },
    {
      "id": 257155,
      "lat": 31.966236458,
      "lon": 34.8397994380001,
      "label": "סופר פרם, סניף אסף הרופא - ראשון לציון",
      "text": "",
      "stayTimes": "17:30 - 18:00",
      "t_start": "2020-03-25T15:30:00",
      "t_end": "2020-03-25T16:00:00",
      "link": ""
    },
    {
      "id": 257156,
      "lat": 31.9667644,
      "lon": 34.8398698,
      "label": "מיון אסף הרופא - ראשון לציון",
      "text": "",
      "stayTimes": "19:00 - 00:00",
      "t_start": "2020-03-25T17:00:00",
      "t_end": "2020-03-24T22:00:00",
      "link": ""
    },
    {
      "id": 257157,
      "lat": 32.7910993240001,
      "lon": 34.965111936,
      "label": "בדיקת קורונה - חיפה",
      "text": "",
      "stayTimes": "11:00 - 11:02",
      "t_start": "2020-03-30T09:00:00",
      "t_end": "2020-03-30T09:02:00",
      "link": ""
    },
    {
      "id": 257158,
      "lat": 32.1541555580001,
      "lon": 34.841306807,
      "label": "פרי וירק אמירים - הרצליה",
      "text": "",
      "stayTimes": "15:15 - 15:30",
      "t_start": "2020-03-26T13:15:00",
      "t_end": "2020-03-26T13:30:00",
      "link": ""
    },
    {
      "id": 257159,
      "lat": 32.1538782000001,
      "lon": 34.8417392000001,
      "label": "מגה בעיר נוה אמירים - הרצליה",
      "text": "",
      "stayTimes": "15:30 - 16:00",
      "t_start": "2020-03-26T13:30:00",
      "t_end": "2020-03-26T14:00:00",
      "link": ""
    },
    {
      "id": 257160,
      "lat": 32.3141349260001,
      "lon": 34.8733920670001,
      "label": "\"המוזלים\" - נתניה",
      "text": "",
      "stayTimes": "16:00 - 16:20",
      "t_start": "2020-03-25T14:00:00",
      "t_end": "2020-03-25T14:20:00",
      "link": ""
    },
    {
      "id": 257161,
      "lat": 31.7526283400001,
      "lon": 35.216555892,
      "label": "מוסך \"לובינסקי\", סניף תלפיות - ירושלים",
      "text": "",
      "stayTimes": "09:00 - 09:20",
      "t_start": "2020-03-26T07:00:00",
      "t_end": "2020-03-26T07:20:00",
      "link": ""
    },
    {
      "id": 257162,
      "lat": 32.310277092,
      "lon": 34.8718715310001,
      "label": "סופר \"רמי לוי\" - נתניה",
      "text": "",
      "stayTimes": "16:30 - 17:45",
      "t_start": "2020-03-25T14:30:00",
      "t_end": "2020-03-25T15:45:00",
      "link": ""
    },
    {
      "id": 257163,
      "lat": 32.257351984,
      "lon": 34.9205700050001,
      "label": "\"בית המאפה הצועני\" - תל מונד",
      "text": "",
      "stayTimes": "15:00 - 15:30",
      "t_start": "2020-03-25T13:00:00",
      "t_end": "2020-03-25T13:30:00",
      "link": ""
    },
    {
      "id": 257164,
      "lat": 31.397195127,
      "lon": 34.7604720250001,
      "label": "ביוטי סנטר - רהט",
      "text": "",
      "stayTimes": "10:00 - 17:00",
      "t_start": "2020-03-25T08:00:00",
      "t_end": "2020-03-25T15:00:00",
      "link": ""
    },
    {
      "id": 257165,
      "lat": 32.675927008,
      "lon": 35.238503918,
      "label": "מעיין 200 סופר מרקט - מגדל העמק",
      "text": "",
      "stayTimes": "11:20 - 11:40",
      "t_start": "2020-03-25T09:20:00",
      "t_end": "2020-03-25T09:40:00",
      "link": ""
    },
    {
      "id": 257166,
      "lat": 32.676082756,
      "lon": 35.24011467,
      "label": "קניון לב העמק - מגדל העמק",
      "text": "",
      "stayTimes": "11:40 - 12:10",
      "t_start": "2020-03-25T09:40:00",
      "t_end": "2020-03-25T10:10:00",
      "link": ""
    },
    {
      "id": 257167,
      "lat": 32.522902952,
      "lon": 35.3240745430001,
      "label": "קופת חולים כללית - צנדלה",
      "text": "",
      "stayTimes": "14:15 - 14:30",
      "t_start": "2020-03-29T12:15:00",
      "t_end": "2020-03-29T12:30:00",
      "link": ""
    },
    {
      "id": 257168,
      "lat": 32.0795895000001,
      "lon": 34.7678729,
      "label": "מלון דן תל אביב (הגיע באמבולנס למלון דן תל אביב). - תל אביב - יפו",
      "text": "",
      "stayTimes": "08:00 - 08:00",
      "t_start": "2020-03-25T06:00:00",
      "t_end": "2020-03-25T06:00:00",
      "link": ""
    },
    {
      "id": 257169,
      "lat": 32.0452360780001,
      "lon": 34.842521306,
      "label": "מיון נשים - רמת גן",
      "text": "",
      "stayTimes": "01:00 - 06:00",
      "t_start": "2020-03-24T23:00:00",
      "t_end": "2020-03-25T04:00:00",
      "link": ""
    },
    {
      "id": 257170,
      "lat": 32.07935323,
      "lon": 34.7889394000001,
      "label": "מדא - אשקלון",
      "text": "",
      "stayTimes": "08:00 - 08:00",
      "t_start": "2020-03-25T06:00:00",
      "t_end": "2020-03-25T06:00:00",
      "link": ""
    },
    {
      "id": 257171,
      "lat": 31.6756257530001,
      "lon": 34.5580818010001,
      "label": "הוסטל -דיור מוגן - אשקלון",
      "text": "",
      "stayTimes": "08:00 - 08:00",
      "t_start": "2020-03-25T06:00:00",
      "t_end": "2020-03-25T06:00:00",
      "link": ""
    },
    {
      "id": 257172,
      "lat": 31.930992632,
      "lon": 35.0396411290001,
      "label": "טרם רפואה דחופה - מודיעין עילית",
      "text": "",
      "stayTimes": "17:50 - 18:30",
      "t_start": "2020-03-30T15:50:00",
      "t_end": "2020-03-30T16:30:00",
      "link": ""
    },
    {
      "id": 257173,
      "lat": 31.930264417,
      "lon": 35.038611476,
      "label": "קופת חולים מכבי- אבני עזר - מודיעין עילית",
      "text": "",
      "stayTimes": "10:00 - 08:00",
      "t_start": "2020-03-30T08:00:00",
      "t_end": "2020-03-30T06:00:00",
      "link": ""
    },
    {
      "id": 257174,
      "lat": 32.0948349940001,
      "lon": 34.847044666,
      "label": "חברת אגוז סוכנויות ביטוח קומה 3 - פתח תקווה",
      "text": "",
      "stayTimes": "12:00 - 19:00",
      "t_start": "2020-03-26T10:00:00",
      "t_end": "2020-03-26T17:00:00",
      "link": ""
    },
    {
      "id": 257175,
      "lat": 32.1842910670001,
      "lon": 34.9367084360001,
      "label": "מרפאה כללית קפלן - כפר סבא",
      "text": "",
      "stayTimes": "09:00 - 09:30",
      "t_start": "2020-03-25T07:00:00",
      "t_end": "2020-03-25T07:30:00",
      "link": ""
    },
    {
      "id": 257176,
      "lat": 31.796859268,
      "lon": 35.241855844,
      "label": "איש בטחון בהדסה הר הצופים - ירושלים",
      "text": "",
      "stayTimes": "15:00 - 23:00",
      "t_start": "2020-03-25T13:00:00",
      "t_end": "2020-03-25T21:00:00",
      "link": ""
    },
    {
      "id": 257177,
      "lat": 31.9879464570001,
      "lon": 34.761568975,
      "label": "חנות חצי חינם אזור התעשיה חדש ראשון לציון - ראשון לציון",
      "text": "",
      "stayTimes": "18:00 - 19:00",
      "t_start": "2020-03-26T16:00:00",
      "t_end": "2020-03-26T17:00:00",
      "link": ""
    },
    {
      "id": 257178,
      "lat": 31.9546520000001,
      "lon": 34.8210651000001,
      "label": "שופרסל במגדלי העיר - ראשון לציון",
      "text": "",
      "stayTimes": "07:00 - 07:30",
      "t_start": "2020-03-27T05:00:00",
      "t_end": "2020-03-27T05:30:00",
      "link": ""
    },
    {
      "id": 257179,
      "lat": 31.9541288930001,
      "lon": 34.823334382,
      "label": "חנות תבלינים נאגר שכון המזרח - ראשון לציון",
      "text": "",
      "stayTimes": "07:30 - 08:00",
      "t_start": "2020-03-27T05:30:00",
      "t_end": "2020-03-27T06:00:00",
      "link": ""
    },
    {
      "id": 257180,
      "lat": 32.0304685630001,
      "lon": 34.8815170390001,
      "label": "בורקס יון - יהוד",
      "text": "",
      "stayTimes": "10:00 - 10:30",
      "t_start": "2020-03-27T08:00:00",
      "t_end": "2020-03-27T08:30:00",
      "link": ""
    },
    {
      "id": 257181,
      "lat": 31.245938736,
      "lon": 34.780019775,
      "label": "מחסני השוק- שכונה ט - באר שבע",
      "text": "",
      "stayTimes": "11:00 - 11:30",
      "t_start": "2020-03-26T09:00:00",
      "t_end": "2020-03-26T09:30:00",
      "link": ""
    },
    {
      "id": 257182,
      "lat": 32.082435,
      "lon": 34.8775160000001,
      "label": "בית כנסת חניכי הישיבות - פתח תקווה",
      "text": "",
      "stayTimes": "09:00 - 13:00",
      "t_start": "2020-03-25T07:00:00",
      "t_end": "2020-03-25T11:00:00",
      "link": ""
    },
    {
      "id": 257183,
      "lat": 32.0837301540001,
      "lon": 34.8824203780001,
      "label": "בית כנסת בית אהרון בעלז - פתח תקווה",
      "text": "",
      "stayTimes": "04:30 - 07:00",
      "t_start": "2020-03-25T02:30:00",
      "t_end": "2020-03-25T05:00:00",
      "link": ""
    },
    {
      "id": 257184,
      "lat": 32.0865883170001,
      "lon": 34.8820112180001,
      "label": "סופר יש - פתח תקווה",
      "text": "",
      "stayTimes": "08:30 - 09:30",
      "t_start": "2020-03-25T06:30:00",
      "t_end": "2020-03-25T07:30:00",
      "link": ""
    },
    {
      "id": 257185,
      "lat": 31.8980818000001,
      "lon": 34.8213172000001,
      "label": "קואופ מחסני השוק - רחובות",
      "text": "",
      "stayTimes": "10:00 - 13:00",
      "t_start": "2020-03-26T08:00:00",
      "t_end": "2020-03-26T11:00:00",
      "link": ""
    },
    {
      "id": 257186,
      "lat": 31.8875379,
      "lon": 34.8201196000001,
      "label": "פיצריה סמיילי מרכז שרונה - רחובות",
      "text": "",
      "stayTimes": "16:00 - 17:00",
      "t_start": "2020-03-25T14:00:00",
      "t_end": "2020-03-25T15:00:00",
      "link": ""
    },
    {
      "id": 257187,
      "lat": 32.067847381,
      "lon": 34.8025623190001,
      "label": "הפניקס חברה לביטוח - גבעתיים",
      "text": "",
      "stayTimes": "07:00 - 17:00",
      "t_start": "2020-03-25T05:00:00",
      "t_end": "2020-03-25T15:00:00",
      "link": ""
    },
    {
      "id": 257188,
      "lat": 31.884731082,
      "lon": 35.0054970580001,
      "label": "סופר טוב בשכונה מוריה מודיעין - מודיעין-מכבים-רעות",
      "text": "",
      "stayTimes": "09:00 - 10:00",
      "t_start": "2020-03-25T07:00:00",
      "t_end": "2020-03-25T08:00:00",
      "link": ""
    },
    {
      "id": 257189,
      "lat": 31.884731082,
      "lon": 35.0054970580001,
      "label": "סופר טוב בשכונה מוריה - מודיעין - מודיעין-מכבים-רעות",
      "text": "",
      "stayTimes": "09:00 - 09:30",
      "t_start": "2020-03-26T07:00:00",
      "t_end": "2020-03-26T07:30:00",
      "link": ""
    },
    {
      "id": 257190,
      "lat": 31.7494454000001,
      "lon": 34.9874426000001,
      "label": "חנות ממתקי קובי - מודיעין-מכבים-רעות",
      "text": "",
      "stayTimes": "13:00 - 14:00",
      "t_start": "2020-03-27T11:00:00",
      "t_end": "2020-03-27T12:00:00",
      "link": ""
    },
    {
      "id": 257191,
      "lat": 31.8868552000001,
      "lon": 34.9611475,
      "label": "סופר מקרקט רמי לוי ישפרו - מודיעין-מכבים-רעות",
      "text": "",
      "stayTimes": "19:00 - 20:00",
      "t_start": "2020-03-26T17:00:00",
      "t_end": "2020-03-26T18:00:00",
      "link": ""
    },
    {
      "id": 257192,
      "lat": 31.8899802,
      "lon": 34.9613115000001,
      "label": "סופר יוחננוף ישפרו מודיעין - מודיעין-מכבים-רעות",
      "text": "",
      "stayTimes": "21:00 - 21:15",
      "t_start": "2020-03-26T19:00:00",
      "t_end": "2020-03-26T19:15:00",
      "link": ""
    },
    {
      "id": 257193,
      "lat": 31.8905441000001,
      "lon": 34.9659634000001,
      "label": "שופרסל ישפרו מודיעין - מודיעין-מכבים-רעות",
      "text": "",
      "stayTimes": "21:15 - 21:30",
      "t_start": "2020-03-26T19:15:00",
      "t_end": "2020-03-26T19:30:00",
      "link": ""
    },
    {
      "id": 257194,
      "lat": 32.094804551,
      "lon": 34.783406647,
      "label": "סופר דרייב סטור תל אביב - תל אביב - יפו",
      "text": "",
      "stayTimes": "10:00 - 10:10",
      "t_start": "2020-03-26T08:00:00",
      "t_end": "2020-03-26T08:10:00",
      "link": ""
    },
    {
      "id": 257195,
      "lat": 31.7947596230001,
      "lon": 35.2084214340001,
      "label": "סופר אושר עד גבעת שאול - ירושלים",
      "text": "",
      "stayTimes": "19:00 - 21:00",
      "t_start": "2020-03-25T17:00:00",
      "t_end": "2020-03-25T19:00:00",
      "link": ""
    },
    {
      "id": 257196,
      "lat": 32.789635,
      "lon": 35.0088946000001,
      "label": "שופרסל גרנד קניון - חיפה",
      "text": "",
      "stayTimes": "11:00 - 14:00",
      "t_start": "2020-03-25T09:00:00",
      "t_end": "2020-03-25T12:00:00",
      "link": ""
    },
    {
      "id": 257197,
      "lat": 32.789635,
      "lon": 35.0088946000001,
      "label": "שופרסל גרנד קניון - חיפה",
      "text": "",
      "stayTimes": "11:00 - 14:00",
      "t_start": "2020-03-25T09:00:00",
      "t_end": "2020-03-25T12:00:00",
      "link": ""
    },
    {
      "id": 257198,
      "lat": 31.9397848410001,
      "lon": 35.0387858180001,
      "label": "מרפאת ברכנפלד כללית- דר' שקרוב - מודיעין עילית",
      "text": "",
      "stayTimes": "10:00 - 10:30",
      "t_start": "2020-03-25T08:00:00",
      "t_end": "2020-03-25T08:30:00",
      "link": ""
    },
    {
      "id": 257199,
      "lat": 31.8808251290001,
      "lon": 35.2448973400001,
      "label": "סופר יינות ביתן - כוכב יעקב",
      "text": "",
      "stayTimes": "13:00 - 14:00",
      "t_start": "2020-03-26T11:00:00",
      "t_end": "2020-03-26T12:00:00",
      "link": ""
    },
    {
      "id": 257200,
      "lat": 31.879688195,
      "lon": 35.2467816830001,
      "label": "אצל משפח' מועטי היה מפגש בין 5 אנשים - כוכב יעקב",
      "text": "",
      "stayTimes": "18:30 - 19:00",
      "t_start": "2020-03-25T16:30:00",
      "t_end": "2020-03-25T17:00:00",
      "link": ""
    },
    {
      "id": 257201,
      "lat": 31.396469,
      "lon": 34.757193,
      "label": "קופת חולים לאומית - רהט",
      "text": "",
      "stayTimes": "16:30 - 17:30",
      "t_start": "2020-03-29T14:30:00",
      "t_end": "2020-03-29T15:30:00",
      "link": ""
    },
    {
      "id": 257202,
      "lat": 31.7789552,
      "lon": 34.6570806,
      "label": "אסותא - אשדוד",
      "text": "",
      "stayTimes": "05:00 - 06:00",
      "t_start": "2020-03-27T03:00:00",
      "t_end": "2020-03-27T04:00:00",
      "link": ""
    },
    {
      "id": 257203,
      "lat": 31.9389251000001,
      "lon": 34.8857412,
      "label": "מד\"א לוד - לוד",
      "text": "",
      "stayTimes": "14:00 - 23:30",
      "t_start": "2020-03-26T12:00:00",
      "t_end": "2020-03-26T21:30:00",
      "link": ""
    },
    {
      "id": 257204,
      "lat": 31.946992998,
      "lon": 34.839328315,
      "label": "היפר דודו - באר יעקב",
      "text": "",
      "stayTimes": "17:00 - 18:00",
      "t_start": "2020-03-29T15:00:00",
      "t_end": "2020-03-29T16:00:00",
      "link": ""
    },
    {
      "id": 257205,
      "lat": 31.9223019,
      "lon": 34.810235,
      "label": "סופר מגה בעיר - נס ציונה",
      "text": "",
      "stayTimes": "16:00 - 16:20",
      "t_start": "2020-03-29T14:00:00",
      "t_end": "2020-03-29T14:20:00",
      "link": ""
    },
    {
      "id": 257206,
      "lat": 32.477495,
      "lon": 34.9449760000001,
      "label": "משרדי החברה - קיסריה",
      "text": "",
      "stayTimes": "08:00 - 08:00",
      "t_start": "2020-03-26T06:00:00",
      "t_end": "2020-03-26T06:00:00",
      "link": ""
    },
    {
      "id": 257207,
      "lat": 31.9660531000001,
      "lon": 34.8394177000001,
      "label": "מכון דיאליזה בי\"ח אסף הרופא - באר יעקב",
      "text": "",
      "stayTimes": "08:00 - 16:00",
      "t_start": "2020-03-25T06:00:00",
      "t_end": "2020-03-25T14:00:00",
      "link": ""
    },
    {
      "id": 257208,
      "lat": 31.9660531000001,
      "lon": 34.8394177000001,
      "label": "מכון דיאליזה בי\"ח אסף הרופא - באר יעקב",
      "text": "",
      "stayTimes": "08:00 - 16:00",
      "t_start": "2020-03-27T06:00:00",
      "t_end": "2020-03-27T14:00:00",
      "link": ""
    },
    {
      "id": 257209,
      "lat": 31.905703074,
      "lon": 35.007384491,
      "label": "טרם מודיעין - מודיעין-מכבים-רעות",
      "text": "",
      "stayTimes": "08:00 - 08:10",
      "t_start": "2020-03-30T06:00:00",
      "t_end": "2020-03-30T06:10:00",
      "link": ""
    },
    {
      "id": 257210,
      "lat": 31.884806724,
      "lon": 35.0146653830001,
      "label": "בית מרקחת קופת חולים כללית - מודיעין-מכבים-רעות",
      "text": "",
      "stayTimes": "16:00 - 16:30",
      "t_start": "2020-03-25T14:00:00",
      "t_end": "2020-03-25T14:30:00",
      "link": ""
    },
    {
      "id": 257211,
      "lat": 31.9277256560001,
      "lon": 35.0472904810001,
      "label": "בית הכנסת המרכזי - מודיעין עילית",
      "text": "",
      "stayTimes": "17:00 - 19:40",
      "t_start": "2020-03-25T15:00:00",
      "t_end": "2020-03-25T17:40:00",
      "link": ""
    },
    {
      "id": 257212,
      "lat": 31.9325015700001,
      "lon": 35.0422681960001,
      "label": "בית כנסת קהל חסידים נאות הפסגה - מודיעין עילית",
      "text": "",
      "stayTimes": "10:15 - 11:45",
      "t_start": "2020-03-26T08:15:00",
      "t_end": "2020-03-26T09:45:00",
      "link": ""
    },
    {
      "id": 257213,
      "lat": 31.9325163660001,
      "lon": 35.04226149,
      "label": "בית כנסת קהל חסידים נאות הפסגה - מודיעין עילית",
      "text": "",
      "stayTimes": "19:40 - 20:00",
      "t_start": "2020-03-27T17:40:00",
      "t_end": "2020-03-27T18:00:00",
      "link": ""
    },
    {
      "id": 257214,
      "lat": 31.932615438,
      "lon": 35.0422571190001,
      "label": "בית כנסת קהל חסידים נאות הפסגה - מודיעין עילית",
      "text": "",
      "stayTimes": "10:10 - 12:00",
      "t_start": "2020-03-28T08:10:00",
      "t_end": "2020-03-28T10:00:00",
      "link": ""
    },
    {
      "id": 257215,
      "lat": 31.9277091000001,
      "lon": 35.0472917000001,
      "label": "בית כנסת קהל חסדים נאות הפסגה - מודיעין עילית",
      "text": "",
      "stayTimes": "20:15 - 20:35",
      "t_start": "2020-03-28T18:15:00",
      "t_end": "2020-03-28T18:35:00",
      "link": ""
    },
    {
      "id": 257216,
      "lat": 32.7533109,
      "lon": 35.0904904000001,
      "label": "ברקו בכפר רחוב נחלת יעקב 10 - רכסים",
      "text": "",
      "stayTimes": "16:30 - 17:30",
      "t_start": "2020-03-25T14:30:00",
      "t_end": "2020-03-25T15:30:00",
      "link": ""
    },
    {
      "id": 257217,
      "lat": 32.0952446000001,
      "lon": 34.8747432000001,
      "label": "בית כנסת רימון - בני ברק - בני ברק",
      "text": "",
      "stayTimes": "05:00 - 06:00",
      "t_start": "2020-03-27T03:00:00",
      "t_end": "2020-03-27T04:00:00",
      "link": ""
    },
    {
      "id": 257218,
      "lat": 31.89229269,
      "lon": 34.81652883,
      "label": "מכולת עזרה - רחובות",
      "text": "",
      "stayTimes": "16:00 - 16:30",
      "t_start": "2020-03-25T14:00:00",
      "t_end": "2020-03-25T14:30:00",
      "link": ""
    },
    {
      "id": 257219,
      "lat": 31.9915199000001,
      "lon": 34.8498459,
      "label": "בית עכנסת בית מנחם - כפר חב\"ד",
      "text": "",
      "stayTimes": "09:00 - 10:30",
      "t_start": "2020-03-25T07:00:00",
      "t_end": "2020-03-25T08:30:00",
      "link": ""
    },
    {
      "id": 257220,
      "lat": 31.9915199000001,
      "lon": 34.8498459,
      "label": "בית כנסת בית מנחם - כפר חב\"ד",
      "text": "",
      "stayTimes": "18:00 - 19:00",
      "t_start": "2020-03-25T16:00:00",
      "t_end": "2020-03-25T17:00:00",
      "link": ""
    },
    {
      "id": 257221,
      "lat": 31.6972173840001,
      "lon": 34.5750341090001,
      "label": "ויקטורי, מתחם רחבעם זאבי - אשקלון",
      "text": "",
      "stayTimes": "12:00 - 13:00",
      "t_start": "2020-03-25T10:00:00",
      "t_end": "2020-03-25T11:00:00",
      "link": ""
    },
    {
      "id": 257222,
      "lat": 31.9540840070001,
      "lon": 34.890321778,
      "label": "סןפר אושר עד - לוד",
      "text": "",
      "stayTimes": "11:00 - 12:00",
      "t_start": "2020-03-26T09:00:00",
      "t_end": "2020-03-26T10:00:00",
      "link": ""
    },
    {
      "id": 257223,
      "lat": 32.8330348440001,
      "lon": 34.9851329100001,
      "label": "בי\"ח רמב\"ם מיון ממוגן - חיפה",
      "text": "",
      "stayTimes": "08:00 - 09:00",
      "t_start": "2020-03-31T06:00:00",
      "t_end": "2020-03-31T07:00:00",
      "link": ""
    },
    {
      "id": 257224,
      "lat": 32.839700341,
      "lon": 35.0814334740001,
      "label": "מכון רנטגן קופ\"ח מכבי - קרית מוצקין",
      "text": "",
      "stayTimes": "12:15 - 12:35",
      "t_start": "2020-03-30T10:15:00",
      "t_end": "2020-03-30T10:35:00",
      "link": ""
    },
    {
      "id": 257225,
      "lat": 31.9382260460001,
      "lon": 35.044079362,
      "label": "בית ספר מעלות בת שבע - במסדרון של קומת הכניסה - מודיעין עילית",
      "text": "",
      "stayTimes": "12:30 - 13:00",
      "t_start": "2020-03-25T10:30:00",
      "t_end": "2020-03-25T11:00:00",
      "link": ""
    },
    {
      "id": 257226,
      "lat": 31.9397848410001,
      "lon": 35.0387858180001,
      "label": "מאפה יהודה - מודיעין עילית",
      "text": "",
      "stayTimes": "20:00 - 21:00",
      "t_start": "2020-03-26T18:00:00",
      "t_end": "2020-03-26T19:00:00",
      "link": ""
    },
    {
      "id": 257227,
      "lat": 31.9398782000001,
      "lon": 35.0464255000001,
      "label": "סופר ברכל - מודיעין עילית",
      "text": "",
      "stayTimes": "10:30 - 11:00",
      "t_start": "2020-03-29T08:30:00",
      "t_end": "2020-03-29T09:00:00",
      "link": ""
    },
    {
      "id": 257228,
      "lat": 30.6115821540001,
      "lon": 34.7972554090001,
      "label": "ישיבת הסדר - מצפה רמון",
      "text": "",
      "stayTimes": "14:30 - 18:00",
      "t_start": "2020-03-25T12:30:00",
      "t_end": "2020-03-25T16:00:00",
      "link": ""
    },
    {
      "id": 257229,
      "lat": 30.6124486000001,
      "lon": 34.7972646000001,
      "label": "בית כנסת צמח דוד - מצפה רמון",
      "text": "",
      "stayTimes": "08:00 - 09:00",
      "t_start": "2020-03-26T06:00:00",
      "t_end": "2020-03-26T07:00:00",
      "link": ""
    },
    {
      "id": 257230,
      "lat": 32.957928569,
      "lon": 35.495673917,
      "label": "דואר, רחוב הרצל - צפת",
      "text": "",
      "stayTimes": "09:30 - 10:00",
      "t_start": "2020-04-01T07:30:00",
      "t_end": "2020-04-01T08:00:00",
      "link": ""
    },
    {
      "id": 257231,
      "lat": 32.073092816,
      "lon": 34.7891253230001,
      "label": "עובדת במשרד ראש הממשלה -בוקר - תל אביב - יפו",
      "text": "",
      "stayTimes": "08:00 - 08:00",
      "t_start": "2020-03-25T06:00:00",
      "t_end": "2020-03-25T06:00:00",
      "link": ""
    },
    {
      "id": 257232,
      "lat": 32.1514060000001,
      "lon": 34.8433383,
      "label": "סופר פארם צמרות - הרצליה",
      "text": "",
      "stayTimes": "11:00 - 11:30",
      "t_start": "2020-03-27T09:00:00",
      "t_end": "2020-03-27T09:30:00",
      "link": ""
    },
    {
      "id": 257233,
      "lat": 32.0768945,
      "lon": 34.7794344000001,
      "label": "מרפאת אהרונוב קופת חולים כללית - תל אביב - יפו",
      "text": "",
      "stayTimes": "08:10 - 08:30",
      "t_start": "2020-03-26T06:10:00",
      "t_end": "2020-03-26T06:30:00",
      "link": ""
    },
    {
      "id": 257234,
      "lat": 32.076895349,
      "lon": 34.779641654,
      "label": "אחות קופת חולים כללית סניף אהרונוב - אצל אחות הקופה - תל אביב - יפו",
      "text": "",
      "stayTimes": "08:00 - 08:00",
      "t_start": "2020-03-27T06:00:00",
      "t_end": "2020-03-27T06:00:00",
      "link": ""
    },
    {
      "id": 257235,
      "lat": 32.0891032000001,
      "lon": 34.8380488,
      "label": "סופר ברכת השם - בני ברק",
      "text": "",
      "stayTimes": "16:00 - 17:00",
      "t_start": "2020-03-25T14:00:00",
      "t_end": "2020-03-17T15:00:00",
      "link": ""
    },
    {
      "id": 257236,
      "lat": 32.066643599,
      "lon": 34.809899199,
      "label": "סופר פארם - גבעתיים",
      "text": "",
      "stayTimes": "16:00 - 17:00",
      "t_start": "2020-03-26T14:00:00",
      "t_end": "2020-03-26T15:00:00",
      "link": ""
    },
    {
      "id": 257237,
      "lat": 32.066315,
      "lon": 34.8109544000001,
      "label": "מגה - גבעתיים",
      "text": "",
      "stayTimes": "17:00 - 18:00",
      "t_start": "2020-03-26T15:00:00",
      "t_end": "2020-03-26T16:00:00",
      "link": ""
    },
    {
      "id": 257238,
      "lat": 32.7479805,
      "lon": 35.0990194,
      "label": "ישיבת כנסת חזקיהו - רכסים",
      "text": "",
      "stayTimes": "12:15 - 13:05",
      "t_start": "2020-03-25T10:15:00",
      "t_end": "2020-03-25T11:05:00",
      "link": ""
    },
    {
      "id": 257239,
      "lat": 32.78,
      "lon": 35.0391667000001,
      "label": "הום סנטר - נשר",
      "text": "",
      "stayTimes": "12:30 - 14:00",
      "t_start": "2020-03-25T10:30:00",
      "t_end": "2020-03-25T12:00:00",
      "link": ""
    },
    {
      "id": 257240,
      "lat": 32.8166897520001,
      "lon": 35.051632123,
      "label": "צרכניית אלור שיווק - חיפה",
      "text": "",
      "stayTimes": "14:00 - 15:00",
      "t_start": "2020-03-25T12:00:00",
      "t_end": "2020-03-25T13:00:00",
      "link": ""
    },
    {
      "id": 257241,
      "lat": 32.0452360780001,
      "lon": 34.842521306,
      "label": "בית חולים תל השומר - רמת גן",
      "text": "",
      "stayTimes": "07:00 - 17:30",
      "t_start": "2020-03-27T05:00:00",
      "t_end": "2020-03-27T15:30:00",
      "link": ""
    },
    {
      "id": 257242,
      "lat": 31.9241083900001,
      "lon": 35.0443967520001,
      "label": "תלמוד תורה החינוך - מודיעין עילית",
      "text": "",
      "stayTimes": "08:00 - 12:30",
      "t_start": "2020-03-25T06:00:00",
      "t_end": "2020-03-25T10:30:00",
      "link": ""
    },
    {
      "id": 257243,
      "lat": 31.9396634170001,
      "lon": 35.084150101,
      "label": "מרפאת ד\"ר יוסלזון - מודיעין עילית",
      "text": "",
      "stayTimes": "13:00 - 13:30",
      "t_start": "2020-03-26T11:00:00",
      "t_end": "2020-03-26T11:30:00",
      "link": ""
    },
    {
      "id": 257244,
      "lat": 31.934970897,
      "lon": 35.0450684150001,
      "label": "דירה ריקה לצורך תפילה במניין - מודיעין עילית",
      "text": "",
      "stayTimes": "13:00 - 13:15",
      "t_start": "2020-03-25T11:00:00",
      "t_end": "2020-03-25T11:15:00",
      "link": ""
    },
    {
      "id": 257245,
      "lat": 32.0525778960001,
      "lon": 34.9511771420001,
      "label": "סופר  יש חסד-מקום עבודה כסדרנית - אלעד",
      "text": "",
      "stayTimes": "11:00 - 19:00",
      "t_start": "2020-03-25T09:00:00",
      "t_end": "2020-03-25T17:00:00",
      "link": ""
    },
    {
      "id": 257246,
      "lat": 31.990937665,
      "lon": 34.8484808000001,
      "label": "בית מרקחת בכפר חבד - שייך לקופת חולים כללית - כפר חב\"ד",
      "text": "",
      "stayTimes": "08:00 - 08:00",
      "t_start": "2020-03-26T06:00:00",
      "t_end": "2020-03-26T06:00:00",
      "link": ""
    },
    {
      "id": 257247,
      "lat": 31.8868552000001,
      "lon": 34.9611475,
      "label": "רמי לוי הסניף הישן - מודיעין-מכבים-רעות",
      "text": "",
      "stayTimes": "16:00 - 17:00",
      "t_start": "2020-03-26T14:00:00",
      "t_end": "2020-03-26T15:00:00",
      "link": ""
    },
    {
      "id": 257248,
      "lat": 30.6124094,
      "lon": 34.8022457000001,
      "label": "דואר - מצפה רמון",
      "text": "",
      "stayTimes": "10:00 - 10:30",
      "t_start": "2020-03-25T08:00:00",
      "t_end": "2020-03-25T08:30:00",
      "link": ""
    },
    {
      "id": 257249,
      "lat": 30.6125853770001,
      "lon": 34.802020714,
      "label": "חנות בגדים \"צבעוני\" - מצפה רמון",
      "text": "",
      "stayTimes": "10:30 - 10:45",
      "t_start": "2020-03-25T08:30:00",
      "t_end": "2020-03-25T08:45:00",
      "link": ""
    },
    {
      "id": 257250,
      "lat": 30.612763124,
      "lon": 34.8024934530001,
      "label": "שופרסל דיל - מצפה רמון",
      "text": "",
      "stayTimes": "10:45 - 11:00",
      "t_start": "2020-03-25T08:45:00",
      "t_end": "2020-03-25T09:00:00",
      "link": ""
    },
    {
      "id": 257251,
      "lat": 30.6111034,
      "lon": 34.7986178,
      "label": "מכולת \"הסלסלה\" - מצפה רמון",
      "text": "",
      "stayTimes": "13:00 - 13:50",
      "t_start": "2020-03-25T11:00:00",
      "t_end": "2020-03-25T11:50:00",
      "link": ""
    },
    {
      "id": 257252,
      "lat": 32.086232254,
      "lon": 34.8311527830001,
      "label": "בית כנסת תפארת שמעון - בני ברק",
      "text": "",
      "stayTimes": "19:15 - 19:35",
      "t_start": "2020-03-25T17:15:00",
      "t_end": "2020-03-25T17:35:00",
      "link": ""
    },
    {
      "id": 257253,
      "lat": 32.087239706,
      "lon": 34.829068653,
      "label": "בית הכנסת הגדול - בני ברק",
      "text": "",
      "stayTimes": "10:00 - 11:00",
      "t_start": "2020-03-25T08:00:00",
      "t_end": "2020-03-25T09:00:00",
      "link": ""
    },
    {
      "id": 257254,
      "lat": 32.0452360780001,
      "lon": 34.842521306,
      "label": "בית החולים תל השומר - תל אביב - יפו",
      "text": "",
      "stayTimes": "15:00 - 19:00",
      "t_start": "2020-03-25T13:00:00",
      "t_end": "2020-03-25T17:00:00",
      "link": ""
    },
    {
      "id": 257255,
      "lat": 31.814293956,
      "lon": 34.7764854500001,
      "label": "עלי מוריה בגדרה. מוסד בית למטופלי צרכים מיוחדים - גדרה",
      "text": "",
      "stayTimes": "08:00 - 14:30",
      "t_start": "2020-03-28T06:00:00",
      "t_end": "2020-03-28T12:30:00",
      "link": ""
    },
    {
      "id": 257256,
      "lat": 32.9414298,
      "lon": 35.0748772000001,
      "label": "בי\"ח מזור - עכו",
      "text": "",
      "stayTimes": "07:00 - 15:00",
      "t_start": "2020-03-25T05:00:00",
      "t_end": "2020-03-25T13:00:00",
      "link": ""
    },
    {
      "id": 257257,
      "lat": 33.004353242,
      "lon": 35.0976022630001,
      "label": "חנות דגים מול קשת וטעמים - נהריה",
      "text": "",
      "stayTimes": "13:35 - 13:40",
      "t_start": "2020-03-26T11:35:00",
      "t_end": "2020-03-26T11:40:00",
      "link": ""
    },
    {
      "id": 257258,
      "lat": 33.004353242,
      "lon": 35.0976022630001,
      "label": "סופר קשת טעמים - נהריה",
      "text": "",
      "stayTimes": "13:00 - 13:15",
      "t_start": "2020-03-26T11:00:00",
      "t_end": "2020-03-26T11:15:00",
      "link": ""
    },
    {
      "id": 257259,
      "lat": 32.8047780000001,
      "lon": 35.0033715000001,
      "label": "שוק מהדרין - חיפה",
      "text": "",
      "stayTimes": "11:00 - 11:30",
      "t_start": "2020-03-27T09:00:00",
      "t_end": "2020-03-27T09:30:00",
      "link": ""
    },
    {
      "id": 257260,
      "lat": 32.0860142430001,
      "lon": 34.831381514,
      "label": "מכולת מעיין 2000 - בני ברק",
      "text": "",
      "stayTimes": "12:00 - 12:30",
      "t_start": "2020-03-27T10:00:00",
      "t_end": "2020-03-27T10:30:00",
      "link": ""
    },
    {
      "id": 257261,
      "lat": 32.0810868,
      "lon": 34.8332700230001,
      "label": "סופרמרקט בני תורה - בני ברק",
      "text": "",
      "stayTimes": "20:30 - 21:00",
      "t_start": "2020-03-25T18:30:00",
      "t_end": "2020-03-25T19:00:00",
      "link": ""
    },
    {
      "id": 257262,
      "lat": 32.0957763370001,
      "lon": 34.83371156,
      "label": "גן פרטי של יהודית עובדיה - בני ברק",
      "text": "",
      "stayTimes": "12:00 - 12:45",
      "t_start": "2020-03-25T10:00:00",
      "t_end": "2020-03-25T10:45:00",
      "link": ""
    },
    {
      "id": 257263,
      "lat": 32.081098163,
      "lon": 34.8332807520001,
      "label": "סופרמרקט בני תורה - בני ברק",
      "text": "",
      "stayTimes": "20:30 - 21:00",
      "t_start": "2020-03-25T18:30:00",
      "t_end": "2020-03-25T19:00:00",
      "link": ""
    },
    {
      "id": 257264,
      "lat": 31.924737894,
      "lon": 35.0412767110001,
      "label": "בית כנסת \"שירה חדשה\" - מודיעין עילית",
      "text": "",
      "stayTimes": "19:00 - 22:00",
      "t_start": "2020-03-25T17:00:00",
      "t_end": "2020-03-25T20:00:00",
      "link": ""
    },
    {
      "id": 257265,
      "lat": 31.924737894,
      "lon": 35.0412767110001,
      "label": "בית כנסת \"שירה חדשה\" - מודיעין עילית",
      "text": "",
      "stayTimes": "13:00 - 14:00",
      "t_start": "2020-03-25T11:00:00",
      "t_end": "2020-03-25T12:00:00",
      "link": ""
    },
    {
      "id": 257266,
      "lat": 32.078745123,
      "lon": 34.8817765150001,
      "label": "מרפאת מכבי - פתח תקווה",
      "text": "",
      "stayTimes": "13:00 - 17:00",
      "t_start": "2020-03-26T11:00:00",
      "t_end": "2020-03-26T15:00:00",
      "link": ""
    },
    {
      "id": 257267,
      "lat": 32.0452360780001,
      "lon": 34.842521306,
      "label": "בי\"ח תל השומר, כירורגית ג', עובד כאח במחלקה - רמת גן",
      "text": "",
      "stayTimes": "07:00 - 15:00",
      "t_start": "2020-03-27T05:00:00",
      "t_end": "2020-03-27T13:00:00",
      "link": ""
    },
    {
      "id": 257268,
      "lat": 32.0525778960001,
      "lon": 34.9511771420001,
      "label": "סופר \"יש חסד\" - אלעד",
      "text": "",
      "stayTimes": "20:00 - 22:00",
      "t_start": "2020-03-26T18:00:00",
      "t_end": "2020-03-26T20:00:00",
      "link": ""
    },
    {
      "id": 257269,
      "lat": 31.946164696,
      "lon": 34.892746296,
      "label": "קופת חולים כללית - לוד",
      "text": "",
      "stayTimes": "09:30 - 09:40",
      "t_start": "2020-03-29T07:30:00",
      "t_end": "2020-03-29T07:40:00",
      "link": ""
    },
    {
      "id": 257270,
      "lat": 31.947558379,
      "lon": 34.891374737,
      "label": "טרם לוד - לוד",
      "text": "",
      "stayTimes": "14:48 - 16:40",
      "t_start": "2020-03-28T12:48:00",
      "t_end": "2020-03-28T14:40:00",
      "link": ""
    },
    {
      "id": 257271,
      "lat": 31.947558379,
      "lon": 34.891374737,
      "label": "טרם לוד - לוד",
      "text": "",
      "stayTimes": "13:42 - 14:47",
      "t_start": "2020-03-27T11:42:00",
      "t_end": "2020-03-27T12:47:00",
      "link": ""
    },
    {
      "id": 257272,
      "lat": 32.1057149260001,
      "lon": 34.891570143,
      "label": "\"פסגות\" בית מדרש - פתח תקווה",
      "text": "",
      "stayTimes": "10:40 - 11:30",
      "t_start": "2020-03-25T08:40:00",
      "t_end": "2020-03-25T09:30:00",
      "link": ""
    },
    {
      "id": 257273,
      "lat": 32.1025492000001,
      "lon": 34.8797614000001,
      "label": "בית כנסת \"שמחת אהרון\" - פתח תקווה",
      "text": "",
      "stayTimes": "05:00 - 06:20",
      "t_start": "2020-03-25T03:00:00",
      "t_end": "2020-03-25T04:20:00",
      "link": ""
    },
    {
      "id": 257274,
      "lat": 32.1025492000001,
      "lon": 34.8797614000001,
      "label": "בית כנסת \"שמחת אהרון\" מניין פתוח - פתח תקווה",
      "text": "",
      "stayTimes": "17:30 - 18:45",
      "t_start": "2020-03-25T15:30:00",
      "t_end": "2020-03-25T16:45:00",
      "link": ""
    },
    {
      "id": 257275,
      "lat": 32.094288229,
      "lon": 34.873943995,
      "label": "מקוה נוה גן הטבלת כלים - פתח תקווה",
      "text": "",
      "stayTimes": "10:30 - 10:35",
      "t_start": "2020-03-29T08:30:00",
      "t_end": "2020-03-29T08:35:00",
      "link": ""
    },
    {
      "id": 257276,
      "lat": 32.1061208,
      "lon": 34.8926523000001,
      "label": "האופה מבגדד - פתח תקווה",
      "text": "",
      "stayTimes": "08:30 - 08:35",
      "t_start": "2020-03-27T06:30:00",
      "t_end": "2020-03-27T06:35:00",
      "link": ""
    },
    {
      "id": 257277,
      "lat": 32.1009073320001,
      "lon": 34.8955843370001,
      "label": "\"פעמית סטור\" רחוב הרב פינטו מסעוד 20 סגולה  פתח תקווה - פתח תקווה",
      "text": "",
      "stayTimes": "10:00 - 10:10",
      "t_start": "2020-03-29T08:00:00",
      "t_end": "2020-03-29T08:10:00",
      "link": ""
    },
    {
      "id": 257278,
      "lat": 32.191546611,
      "lon": 34.8577835520001,
      "label": "עיצובי ירושלמי - רעננה",
      "text": "",
      "stayTimes": "15:00 - 15:30",
      "t_start": "2020-03-25T13:00:00",
      "t_end": "2020-03-25T13:30:00",
      "link": ""
    },
    {
      "id": 257279,
      "lat": 31.9540840070001,
      "lon": 34.890321778,
      "label": "מרכול אושר עד - לוד",
      "text": "",
      "stayTimes": "19:00 - 20:30",
      "t_start": "2020-03-26T17:00:00",
      "t_end": "2020-03-26T18:30:00",
      "link": ""
    },
    {
      "id": 257280,
      "lat": 31.9352911140001,
      "lon": 35.0456768170001,
      "label": "ישבה בשער חנות בגדים - מודיעין עילית",
      "text": "",
      "stayTimes": "17:00 - 17:05",
      "t_start": "2020-03-26T15:00:00",
      "t_end": "2020-03-26T15:05:00",
      "link": ""
    },
    {
      "id": 257281,
      "lat": 31.926966529,
      "lon": 35.049148265,
      "label": "שחמט חנות לכלים ח\"פ באבני נזר וברכול טוב בנתיבות המשפט 5 - מודיעין עילית",
      "text": "",
      "stayTimes": "11:00 - 13:30",
      "t_start": "2020-03-27T09:00:00",
      "t_end": "2020-03-27T11:30:00",
      "link": ""
    },
    {
      "id": 257282,
      "lat": 31.9368312230001,
      "lon": 35.0389028010001,
      "label": "זול בשפע שוק מהדרין מ. מסחרי ברכפלד - מודיעין עילית",
      "text": "",
      "stayTimes": "11:00 - 12:30",
      "t_start": "2020-03-25T09:00:00",
      "t_end": "2020-03-25T10:30:00",
      "link": ""
    },
    {
      "id": 257283,
      "lat": 32.7917232900001,
      "lon": 34.9648657970001,
      "label": "דרייב אין חיפה - חיפה",
      "text": "",
      "stayTimes": "11:00 - 11:10",
      "t_start": "2020-03-30T09:00:00",
      "t_end": "2020-03-30T09:10:00",
      "link": ""
    },
    {
      "id": 257284,
      "lat": 32.1831267790001,
      "lon": 34.887803793,
      "label": "מעון השקמה - רעננה",
      "text": "",
      "stayTimes": "06:30 - 14:00",
      "t_start": "2020-03-28T04:30:00",
      "t_end": "2020-03-28T12:00:00",
      "link": ""
    },
    {
      "id": 257285,
      "lat": 32.1558361,
      "lon": 34.8911464,
      "label": "בית מרקחת מכבי - הוד השרון",
      "text": "",
      "stayTimes": "09:30 - 10:00",
      "t_start": "2020-03-27T07:30:00",
      "t_end": "2020-03-27T08:00:00",
      "link": ""
    },
    {
      "id": 257286,
      "lat": 31.5302503770001,
      "lon": 34.6052180730001,
      "label": "בית הכנסת שדרות משעול ברנר 3 - שדרות",
      "text": "",
      "stayTimes": "06:00 - 06:45",
      "t_start": "2020-03-31T04:00:00",
      "t_end": "2020-03-25T04:45:00",
      "link": ""
    },
    {
      "id": 257287,
      "lat": 33.0083894800001,
      "lon": 35.117156675,
      "label": "מין ילדים ב\"ח גליל מערבי נהריה - נהריה",
      "text": "",
      "stayTimes": "14:30 - 18:30",
      "t_start": "2020-03-30T12:30:00",
      "t_end": "2020-03-30T16:30:00",
      "link": ""
    },
    {
      "id": 257288,
      "lat": 32.100848867,
      "lon": 34.8935707580001,
      "label": "סופר קשת טעמים - פתח תקווה",
      "text": "",
      "stayTimes": "21:30 - 22:00",
      "t_start": "2020-03-26T19:30:00",
      "t_end": "2020-03-26T20:00:00",
      "link": ""
    },
    {
      "id": 257289,
      "lat": 32.0525778960001,
      "lon": 34.9511771420001,
      "label": "סופר יש חסד - אלעד",
      "text": "",
      "stayTimes": "08:30 - 15:30",
      "t_start": "2020-03-25T06:30:00",
      "t_end": "2020-03-25T13:30:00",
      "link": ""
    },
    {
      "id": 257290,
      "lat": 32.0525778960001,
      "lon": 34.9511771420001,
      "label": "סופר יש חסד - אלעד",
      "text": "",
      "stayTimes": "08:30 - 15:30",
      "t_start": "2020-03-26T06:30:00",
      "t_end": "2020-03-26T13:30:00",
      "link": ""
    },
    {
      "id": 257291,
      "lat": 32.0525778960001,
      "lon": 34.9511771420001,
      "label": "סופר יש חסד - אלעד",
      "text": "",
      "stayTimes": "08:30 - 15:30",
      "t_start": "2020-03-29T06:30:00",
      "t_end": "2020-03-29T13:30:00",
      "link": ""
    },
    {
      "id": 257292,
      "lat": 32.7181118,
      "lon": 35.1218255000001,
      "label": "בית אבות \"נוף טבעון\" - קרית טבעון",
      "text": "",
      "stayTimes": "05:30 - 13:00",
      "t_start": "2020-03-25T03:30:00",
      "t_end": "2020-03-25T11:00:00",
      "link": ""
    },
    {
      "id": 257293,
      "lat": 32.7181118,
      "lon": 35.1218255000001,
      "label": "בית אבות \"נוף טבעון\" - קרית טבעון",
      "text": "",
      "stayTimes": "05:30 - 13:00",
      "t_start": "2020-03-26T03:30:00",
      "t_end": "2020-03-26T11:00:00",
      "link": ""
    },
    {
      "id": 257294,
      "lat": 32.6694444,
      "lon": 35.2375000000001,
      "label": "אושר עד - מגדל העמק",
      "text": "",
      "stayTimes": "17:00 - 20:00",
      "t_start": "2020-03-26T15:00:00",
      "t_end": "2020-03-26T18:00:00",
      "link": ""
    },
    {
      "id": 257295,
      "lat": 32.6775858550001,
      "lon": 35.2425529600001,
      "label": "קופת חולים לאומית פרץ סנטר - מגדל העמק",
      "text": "",
      "stayTimes": "09:00 - 11:00",
      "t_start": "2020-03-25T07:00:00",
      "t_end": "2020-03-25T09:00:00",
      "link": ""
    },
    {
      "id": 257296,
      "lat": 31.5215131740001,
      "lon": 34.5951254350001,
      "label": "מוקד \"טרם\" - שדרות",
      "text": "",
      "stayTimes": "19:30 - 20:30",
      "t_start": "2020-03-28T17:30:00",
      "t_end": "2020-03-28T18:30:00",
      "link": ""
    },
    {
      "id": 257297,
      "lat": 32.0751490930001,
      "lon": 34.774745726,
      "label": "דואר ישראל - תל אביב - יפו",
      "text": "",
      "stayTimes": "13:00 - 13:30",
      "t_start": "2020-03-27T11:00:00",
      "t_end": "2020-03-27T11:30:00",
      "link": ""
    },
    {
      "id": 257298,
      "lat": 32.4704617,
      "lon": 35.0387773,
      "label": "שופר סל דיל רחוב גפן 1 - חריש",
      "text": "",
      "stayTimes": "17:00 - 19:30",
      "t_start": "2020-03-29T15:00:00",
      "t_end": "2020-03-29T17:30:00",
      "link": ""
    },
    {
      "id": 257299,
      "lat": 31.6183140000001,
      "lon": 34.752508,
      "label": "סופרמרקט \"שפע ברכה\" - קרית גת",
      "text": "",
      "stayTimes": "11:30 - 13:00",
      "t_start": "2020-03-27T09:30:00",
      "t_end": "2020-03-27T11:00:00",
      "link": ""
    },
    {
      "id": 257300,
      "lat": 31.3987851210001,
      "lon": 34.5982936,
      "label": "קופת חולים כללית - מעגלים",
      "text": "",
      "stayTimes": "08:00 - 08:00",
      "t_start": "2020-03-30T06:00:00",
      "t_end": "2020-03-30T06:00:00",
      "link": ""
    },
    {
      "id": 257301,
      "lat": 31.3987851210001,
      "lon": 34.5982936,
      "label": "קופת חולים כללית - מעגלים",
      "text": "",
      "stayTimes": "11:30 - 12:00",
      "t_start": "2020-03-29T09:30:00",
      "t_end": "2020-03-29T10:00:00",
      "link": ""
    },
    {
      "id": 257302,
      "lat": 32.621038034,
      "lon": 35.3165950600001,
      "label": "מיון בית חולים העמק - עפולה",
      "text": "",
      "stayTimes": "15:00 - 18:30",
      "t_start": "2020-03-30T13:00:00",
      "t_end": "2020-03-30T16:30:00",
      "link": ""
    },
    {
      "id": 257303,
      "lat": 32.257580621,
      "lon": 34.918657904,
      "label": "מכולת - תל מונד",
      "text": "",
      "stayTimes": "17:30 - 20:00",
      "t_start": "2020-03-26T15:30:00",
      "t_end": "2020-03-26T18:00:00",
      "link": ""
    },
    {
      "id": 257304,
      "lat": 32.257580621,
      "lon": 34.918657904,
      "label": "מכולת - תל מונד",
      "text": "",
      "stayTimes": "07:45 - 14:30",
      "t_start": "2020-03-27T05:45:00",
      "t_end": "2020-03-27T12:30:00",
      "link": ""
    },
    {
      "id": 257305,
      "lat": 32.2540910390001,
      "lon": 34.9173268690001,
      "label": "מרפאת תל מונד - תל מונד",
      "text": "",
      "stayTimes": "08:15 - 09:20",
      "t_start": "2020-03-25T06:15:00",
      "t_end": "2020-03-25T07:20:00",
      "link": ""
    },
    {
      "id": 257306,
      "lat": 31.925733742,
      "lon": 35.0406244370001,
      "label": "מקוה - מודיעין עילית",
      "text": "",
      "stayTimes": "19:00 - 20:30",
      "t_start": "2020-03-25T17:00:00",
      "t_end": "2020-03-25T18:30:00",
      "link": ""
    },
    {
      "id": 257307,
      "lat": 31.9257367000001,
      "lon": 34.8638844000001,
      "label": "שופרסל דיל קניון עזריאלי - רמלה",
      "text": "",
      "stayTimes": "09:00 - 10:00",
      "t_start": "2020-03-29T07:00:00",
      "t_end": "2020-03-29T08:00:00",
      "link": ""
    },
    {
      "id": 257308,
      "lat": 32.2926403000001,
      "lon": 34.8624596000001,
      "label": "רמי לוי - נתניה",
      "text": "",
      "stayTimes": "12:00 - 13:05",
      "t_start": "2020-03-25T10:00:00",
      "t_end": "2020-03-25T11:05:00",
      "link": ""
    },
    {
      "id": 257309,
      "lat": 32.2926403000001,
      "lon": 34.8624596000001,
      "label": "רמי לוי - נתניה",
      "text": "",
      "stayTimes": "16:45 - 17:00",
      "t_start": "2020-03-26T14:45:00",
      "t_end": "2020-03-26T15:00:00",
      "link": ""
    },
    {
      "id": 257310,
      "lat": 32.5355323090001,
      "lon": 34.911462414,
      "label": "קופ\"ח לאומית ג'יסר - ג'סר א-זרקא",
      "text": "",
      "stayTimes": "10:30 - 10:45",
      "t_start": "2020-03-31T08:30:00",
      "t_end": "2020-03-31T08:45:00",
      "link": ""
    },
    {
      "id": 257311,
      "lat": 32.452217019,
      "lon": 34.8967286010001,
      "label": "מיון חלופי הלל יפה - חדרה",
      "text": "",
      "stayTimes": "12:00 - 14:30",
      "t_start": "2020-03-31T10:00:00",
      "t_end": "2020-03-31T12:30:00",
      "link": ""
    },
    {
      "id": 257312,
      "lat": 32.7880209,
      "lon": 34.9681521000001,
      "label": "סופר מרקט - חיפה",
      "text": "",
      "stayTimes": "06:30 - 07:00",
      "t_start": "2020-03-29T04:30:00",
      "t_end": "2020-03-29T05:00:00",
      "link": ""
    },
    {
      "id": 257313,
      "lat": 32.924457622,
      "lon": 35.2770565450001,
      "label": "מרכז קניות דבאח - דייר אל-אסד",
      "text": "",
      "stayTimes": "13:00 - 14:00",
      "t_start": "2020-03-27T11:00:00",
      "t_end": "2020-03-27T12:00:00",
      "link": ""
    },
    {
      "id": 257314,
      "lat": 31.6023045000001,
      "lon": 34.773082,
      "label": "\"מחסני השוק\" - קרית גת",
      "text": "",
      "stayTimes": "11:30 - 21:30",
      "t_start": "2020-03-25T09:30:00",
      "t_end": "2020-03-25T19:30:00",
      "link": ""
    },
    {
      "id": 257315,
      "lat": 31.8870629620001,
      "lon": 34.7852496190001,
      "label": "מכולת שכונתית - רחובות",
      "text": "",
      "stayTimes": "10:00 - 11:00",
      "t_start": "2020-03-26T08:00:00",
      "t_end": "2020-03-26T09:00:00",
      "link": ""
    },
    {
      "id": 257316,
      "lat": 31.7916523050001,
      "lon": 34.658572753,
      "label": "מכולת שפע מרקט - אשדוד",
      "text": "",
      "stayTimes": "13:00 - 21:30",
      "t_start": "2020-03-25T11:00:00",
      "t_end": "2020-03-25T19:30:00",
      "link": ""
    },
    {
      "id": 257317,
      "lat": 32.0219027800001,
      "lon": 34.741265705,
      "label": "סופר דוש - בת ים",
      "text": "",
      "stayTimes": "11:00 - 13:00",
      "t_start": "2020-03-29T09:00:00",
      "t_end": "2020-03-29T11:00:00",
      "link": ""
    },
    {
      "id": 257318,
      "lat": 32.132282581,
      "lon": 34.901173149,
      "label": "חצי חינם הוד השרון - הוד השרון",
      "text": "",
      "stayTimes": "12:00 - 16:00",
      "t_start": "2020-03-25T10:00:00",
      "t_end": "2020-03-25T14:00:00",
      "link": ""
    },
    {
      "id": 257319,
      "lat": 32.0749602000001,
      "lon": 34.8731998000001,
      "label": "מאפיית שיבולת השרון - פתח תקווה",
      "text": "",
      "stayTimes": "09:30 - 09:30",
      "t_start": "2020-03-27T07:30:00",
      "t_end": "2020-03-27T07:30:00",
      "link": ""
    },
    {
      "id": 257320,
      "lat": 31.781982939,
      "lon": 35.200601911,
      "label": "קריית הממשלה משרד התיירות לשכת השר קומה 5 - ירושלים",
      "text": "",
      "stayTimes": "08:30 - 17:00",
      "t_start": "2020-03-25T06:30:00",
      "t_end": "2020-03-25T15:00:00",
      "link": ""
    },
    {
      "id": 257321,
      "lat": 31.781982939,
      "lon": 35.200601911,
      "label": "קריית הממשלה משרד התיירות לשכת השר קומה 5 - ירושלים",
      "text": "",
      "stayTimes": "07:30 - 15:30",
      "t_start": "2020-03-26T05:30:00",
      "t_end": "2020-03-26T13:30:00",
      "link": ""
    },
    {
      "id": 257322,
      "lat": 32.0792146840001,
      "lon": 34.8413412690001,
      "label": "סופר בר כל - בני ברק",
      "text": "",
      "stayTimes": "10:30 - 11:30",
      "t_start": "2020-03-27T08:30:00",
      "t_end": "2020-03-27T09:30:00",
      "link": ""
    },
    {
      "id": 257323,
      "lat": 31.794561023,
      "lon": 34.6397458180001,
      "label": "יינות ביתן - אשדוד",
      "text": "",
      "stayTimes": "15:30 - 16:00",
      "t_start": "2020-03-26T13:30:00",
      "t_end": "2020-03-26T14:00:00",
      "link": ""
    },
    {
      "id": 257324,
      "lat": 31.8133643000001,
      "lon": 34.6585934,
      "label": "\"דל טורו\" מסעדה - אשדוד",
      "text": "",
      "stayTimes": "22:30 - 23:30",
      "t_start": "2020-03-25T20:30:00",
      "t_end": "2020-03-25T21:30:00",
      "link": ""
    },
    {
      "id": 257325,
      "lat": 31.8095496,
      "lon": 34.6557235000001,
      "label": "ACE  סטאר סנטר - אשדוד",
      "text": "",
      "stayTimes": "16:00 - 16:30",
      "t_start": "2020-03-26T14:00:00",
      "t_end": "2020-03-26T14:30:00",
      "link": ""
    },
    {
      "id": 257326,
      "lat": 31.7936993550001,
      "lon": 34.640898899,
      "label": "שופרסל - אשדוד",
      "text": "",
      "stayTimes": "15:30 - 16:00",
      "t_start": "2020-03-25T13:30:00",
      "t_end": "2020-03-25T14:00:00",
      "link": ""
    },
    {
      "id": 257327,
      "lat": 32.5355323090001,
      "lon": 34.911462414,
      "label": "קופ\"ח לאומית - ג'סר א-זרקא",
      "text": "",
      "stayTimes": "10:30 - 11:30",
      "t_start": "2020-03-31T08:30:00",
      "t_end": "2020-03-31T09:30:00",
      "link": ""
    },
    {
      "id": 257328,
      "lat": 32.0806592660001,
      "lon": 34.84119832,
      "label": "מאפיית הצבי - בני ברק",
      "text": "",
      "stayTimes": "12:00 - 14:00",
      "t_start": "2020-03-27T10:00:00",
      "t_end": "2020-03-27T12:00:00",
      "link": ""
    },
    {
      "id": 257329,
      "lat": 31.7983648000001,
      "lon": 35.2094436,
      "label": "בית כנסת אהבת תורה - ירושלים",
      "text": "",
      "stayTimes": "10:00 - 08:00",
      "t_start": "2020-03-25T08:00:00",
      "t_end": "2020-03-25T06:00:00",
      "link": ""
    },
    {
      "id": 257330,
      "lat": 31.796859268,
      "lon": 35.241855844,
      "label": "בית חולים הדסה הר הצופים - ירושלים",
      "text": "",
      "stayTimes": "17:00 - 20:00",
      "t_start": "2020-03-26T15:00:00",
      "t_end": "2020-03-26T18:00:00",
      "link": ""
    },
    {
      "id": 257331,
      "lat": 31.6023045000001,
      "lon": 34.773082,
      "label": "מחסני השוק\" - קרית גת",
      "text": "",
      "stayTimes": "09:00 - 19:00",
      "t_start": "2020-03-26T07:00:00",
      "t_end": "2020-03-26T17:00:00",
      "link": ""
    },
    {
      "id": 257332,
      "lat": 32.0346393,
      "lon": 34.8499890000001,
      "label": "יינות ביתן - אור יהודה",
      "text": "",
      "stayTimes": "11:00 - 14:00",
      "t_start": "2020-03-25T09:00:00",
      "t_end": "2020-03-25T12:00:00",
      "link": ""
    },
    {
      "id": 257333,
      "lat": 31.2732440680001,
      "lon": 34.8072657880001,
      "label": "בית כנסת מניין בחוץ \"תפילת חנה\" - באר שבע",
      "text": "",
      "stayTimes": "18:00 - 19:00",
      "t_start": "2020-03-28T16:00:00",
      "t_end": "2020-03-28T17:00:00",
      "link": ""
    },
    {
      "id": 257334,
      "lat": 31.2135308480001,
      "lon": 34.8110135210001,
      "label": "סופר \"אושר עד\" עם מסיכה וכפפות - באר שבע",
      "text": "",
      "stayTimes": "11:30 - 15:00",
      "t_start": "2020-03-29T09:30:00",
      "t_end": "2020-03-29T13:00:00",
      "link": ""
    },
    {
      "id": 257335,
      "lat": 31.7916523050001,
      "lon": 34.658572753,
      "label": "מכולת \"שפע מרקט\" - אשדוד",
      "text": "",
      "stayTimes": "13:00 - 21:30",
      "t_start": "2020-03-26T11:00:00",
      "t_end": "2020-03-26T19:30:00",
      "link": ""
    },
    {
      "id": 257336,
      "lat": 31.792432606,
      "lon": 34.658815647,
      "label": "מכולת שפע מרקט - אשדוד",
      "text": "",
      "stayTimes": "08:00 - 15:30",
      "t_start": "2020-03-27T06:00:00",
      "t_end": "2020-03-27T13:30:00",
      "link": ""
    },
    {
      "id": 257337,
      "lat": 32.1057149260001,
      "lon": 34.891570143,
      "label": "סוכנות רכב סוזוקי - פתח תקווה",
      "text": "",
      "stayTimes": "09:00 - 13:00",
      "t_start": "2020-03-27T07:00:00",
      "t_end": "2020-03-27T11:00:00",
      "link": ""
    },
    {
      "id": 257338,
      "lat": 32.1057149260001,
      "lon": 34.891570143,
      "label": "סוכנות רכב סוזוקי - פתח תקווה",
      "text": "",
      "stayTimes": "09:00 - 16:00",
      "t_start": "2020-03-26T07:00:00",
      "t_end": "2020-03-26T14:00:00",
      "link": ""
    },
    {
      "id": 257339,
      "lat": 32.1057149260001,
      "lon": 34.891570143,
      "label": "סוכנות רכב סוזוקי - פתח תקווה",
      "text": "",
      "stayTimes": "09:00 - 16:00",
      "t_start": "2020-03-25T07:00:00",
      "t_end": "2020-03-25T14:00:00",
      "link": ""
    },
    {
      "id": 257340,
      "lat": 32.061210427,
      "lon": 34.8620077160001,
      "label": "סופר  חביב - קרית אונו",
      "text": "",
      "stayTimes": "20:00 - 20:30",
      "t_start": "2020-03-26T18:00:00",
      "t_end": "2020-03-26T18:30:00",
      "link": ""
    },
    {
      "id": 257341,
      "lat": 32.0721784,
      "lon": 35.2690455000001,
      "label": "מרכז מסחרי לב עלי - עלי",
      "text": "",
      "stayTimes": "10:30 - 11:15",
      "t_start": "2020-03-27T08:30:00",
      "t_end": "2020-03-27T09:15:00",
      "link": ""
    },
    {
      "id": 257342,
      "lat": 32.063788016,
      "lon": 35.2645001400001,
      "label": "SO GOOD- תחנת דלק - עלי",
      "text": "",
      "stayTimes": "12:20 - 12:30",
      "t_start": "2020-03-27T10:20:00",
      "t_end": "2020-03-27T10:30:00",
      "link": ""
    },