{
  "points": [
    {
      "id": 469961,
      "lat": 32.4381675060001,
      "lon": 34.921736131,
      "label": "סופר ויקטורי  קניון חדרה - חדרה",
      "text": "",
      "stayTimes": "20:00 - 21:00",
      "t_start": "2020-04-13T18:00:00",
      "t_end": "2020-04-13T19:00:00",
      "link": ""
    },
    {
      "id": 469962,
      "lat": 32.4855131,
      "lon": 34.9698419000001,
      "label": "מרכז גריאטרי שוהם - פרדס חנה-כרכור",
      "text": "",
      "stayTimes": "07:00 - 15:00",
      "t_start": "2020-04-13T05:00:00",
      "t_end": "2020-04-13T13:00:00",
      "link": ""
    },
    {
      "id": 469963,
      "lat": 32.4855131,
      "lon": 34.9698419000001,
      "label": "מרכז גריאטרי שוהם - פרדס חנה-כרכור",
      "text": "",
      "stayTimes": "07:00 - 15:00",
      "t_start": "2020-04-11T05:00:00",
      "t_end": "2020-04-11T13:00:00",
      "link": ""
    },
    {
      "id": 469964,
      "lat": 31.7839243650001,
      "lon": 35.211389889,
      "label": "שערי הלכה - ירושלים",
      "text": "",
      "stayTimes": "08:00 - 08:30",
      "t_start": "2020-04-13T06:00:00",
      "t_end": "2020-04-13T06:30:00",
      "link": ""
    },
    {
      "id": 469965,
      "lat": 32.097276767,
      "lon": 34.896168312,
      "label": "Yellow - פתח תקווה",
      "text": "",
      "stayTimes": "00:30 - 01:00",
      "t_start": "2020-04-14T22:30:00",
      "t_end": "2020-04-14T23:00:00",
      "link": ""
    },
    {
      "id": 469966,
      "lat": 31.748793311,
      "lon": 34.9910159770001,
      "label": "מד\"א בית שמש - בית שמש",
      "text": "",
      "stayTimes": "15:30 - 23:00",
      "t_start": "2020-04-16T13:30:00",
      "t_end": "2020-04-16T21:00:00",
      "link": ""
    },
    {
      "id": 469967,
      "lat": 31.748793311,
      "lon": 34.9910159770001,
      "label": "מד\"א בית-שמש - בית שמש",
      "text": "",
      "stayTimes": "08:00 - 15:00",
      "t_start": "2020-04-19T06:00:00",
      "t_end": "2020-04-19T13:00:00",
      "link": ""
    },
    {
      "id": 469968,
      "lat": 31.748793311,
      "lon": 34.9910159770001,
      "label": "מד\"א בית שמש - בית שמש",
      "text": "",
      "stayTimes": "08:00 - 15:00",
      "t_start": "2020-04-20T06:00:00",
      "t_end": "2020-04-20T13:00:00",
      "link": ""
    },
    {
      "id": 469969,
      "lat": 32.182031958,
      "lon": 34.8960695550001,
      "label": "פנימית ג בי\"ח מאיר - כפר סבא",
      "text": "",
      "stayTimes": "07:00 - 19:00",
      "t_start": "2020-04-11T05:00:00",
      "t_end": "2020-04-11T17:00:00",
      "link": ""
    },
    {
      "id": 469970,
      "lat": 32.182084925,
      "lon": 34.896033792,
      "label": "פנימית ג בי\"ח מאיר - כפר סבא",
      "text": "",
      "stayTimes": "09:00 - 19:00",
      "t_start": "2020-04-12T07:00:00",
      "t_end": "2020-04-12T17:00:00",
      "link": ""
    },
    {
      "id": 469971,
      "lat": 32.182045563,
      "lon": 34.89608739,
      "label": "פנימית ג בי\"ח מאיר - כפר סבא",
      "text": "",
      "stayTimes": "07:00 - 19:00",
      "t_start": "2020-04-15T05:00:00",
      "t_end": "2020-04-15T17:00:00",
      "link": ""
    },
    {
      "id": 469972,
      "lat": 32.095172072,
      "lon": 34.8314434800001,
      "label": "בר כל - בני ברק",
      "text": "",
      "stayTimes": "15:00 - 15:30",
      "t_start": "2020-04-12T13:00:00",
      "t_end": "2020-04-12T13:30:00",
      "link": ""
    },
    {
      "id": 469973,
      "lat": 32.1550269150001,
      "lon": 34.9536160170001,
      "label": "מרפאה כללית - ג'לג'וליה",
      "text": "",
      "stayTimes": "17:00 - 17:10",
      "t_start": "2020-04-14T15:00:00",
      "t_end": "2020-04-14T15:10:00",
      "link": ""
    },
    {
      "id": 469974,
      "lat": 32.11685601,
      "lon": 34.976999334,
      "label": "מוקד שרות רפואה דחופה - כפר קאסם",
      "text": "",
      "stayTimes": "16:00 - 16:15",
      "t_start": "2020-04-17T14:00:00",
      "t_end": "2020-04-17T14:15:00",
      "link": ""
    },
    {
      "id": 469975,
      "lat": 31.785329443,
      "lon": 35.213897563,
      "label": "תחנת שלם מרחב קדם מחוז ירושלים - ירושלים",
      "text": "",
      "stayTimes": "12:00 - 23:00",
      "t_start": "2020-04-13T10:00:00",
      "t_end": "2020-04-13T21:00:00",
      "link": ""
    },
    {
      "id": 469976,
      "lat": 32.055225767,
      "lon": 34.960713583,
      "label": "יינות ביתן מרכז רימון - אלעד",
      "text": "",
      "stayTimes": "12:00 - 13:00",
      "t_start": "2020-04-12T10:00:00",
      "t_end": "2020-04-12T11:00:00",
      "link": ""
    },
    {
      "id": 469977,
      "lat": 32.049602749,
      "lon": 34.9535502260001,
      "label": "חנות ירקות - אלעד",
      "text": "",
      "stayTimes": "10:00 - 10:30",
      "t_start": "2020-04-14T08:00:00",
      "t_end": "2020-04-14T08:30:00",
      "link": ""
    },
    {
      "id": 469978,
      "lat": 32.098927535,
      "lon": 34.829715252,
      "label": "אושר עד - בני ברק",
      "text": "",
      "stayTimes": "08:00 - 08:30",
      "t_start": "2020-04-14T06:00:00",
      "t_end": "2020-04-14T06:30:00",
      "link": ""
    },
    {
      "id": 469979,
      "lat": 32.090821981,
      "lon": 34.8388174410001,
      "label": "יש - בני ברק",
      "text": "",
      "stayTimes": "13:30 - 14:00",
      "t_start": "2020-04-12T11:30:00",
      "t_end": "2020-04-12T12:00:00",
      "link": ""
    },
    {
      "id": 469980,
      "lat": 31.788221164,
      "lon": 35.220505142,
      "label": "סופר זול ובגדול - ירושלים",
      "text": "",
      "stayTimes": "10:00 - 12:00",
      "t_start": "2020-04-14T08:00:00",
      "t_end": "2020-04-14T10:00:00",
      "link": ""
    },
    {
      "id": 469981,
      "lat": 31.788221164,
      "lon": 35.220505142,
      "label": "סופר זול ובגדול - ירושלים",
      "text": "",
      "stayTimes": "10:00 - 13:00",
      "t_start": "2020-04-12T08:00:00",
      "t_end": "2020-04-12T11:00:00",
      "link": ""
    },
    {
      "id": 469982,
      "lat": 31.788221164,
      "lon": 35.220505142,
      "label": "סופר זול ובגדול - ירושלים",
      "text": "",
      "stayTimes": "10:00 - 13:00",
      "t_start": "2020-04-13T08:00:00",
      "t_end": "2020-04-13T11:00:00",
      "link": ""
    },
    {
      "id": 469983,
      "lat": 32.4746736180001,
      "lon": 34.9978632830001,
      "label": "שופרסל \"שלי\" אחוזה ירוקה כרכור - פרדס חנה-כרכור",
      "text": "",
      "stayTimes": "09:00 - 10:00",
      "t_start": "2020-04-17T07:00:00",
      "t_end": "2020-04-17T08:00:00",
      "link": ""
    },
    {
      "id": 469984,
      "lat": 31.7884694700001,
      "lon": 35.205537007,
      "label": "טרם - ירושלים",
      "text": "",
      "stayTimes": "15:00 - 23:59",
      "t_start": "2020-04-20T13:00:00",
      "t_end": "2020-04-20T21:59:00",
      "link": ""
    },
    {
      "id": 469985,
      "lat": 32.0798922610001,
      "lon": 34.9024021450001,
      "label": "סופר \"שופרסל דיל\" - פתח תקווה",
      "text": "",
      "stayTimes": "11:00 - 12:00",
      "t_start": "2020-04-16T09:00:00",
      "t_end": "2020-04-16T10:00:00",
      "link": ""
    },
    {
      "id": 469986,
      "lat": 32.4704617,
      "lon": 35.0387773,
      "label": "שופרסל דיל חריש - חריש",
      "text": "",
      "stayTimes": "12:30 - 13:30",
      "t_start": "2020-04-17T10:30:00",
      "t_end": "2020-04-17T11:30:00",
      "link": ""
    },
    {
      "id": 469987,
      "lat": 32.4705928000001,
      "lon": 35.0391716,
      "label": "סופר פארם חריש - חריש",
      "text": "",
      "stayTimes": "13:30 - 13:45",
      "t_start": "2020-04-17T11:30:00",
      "t_end": "2020-04-17T11:45:00",
      "link": ""
    },
    {
      "id": 469988,
      "lat": 32.0860474580001,
      "lon": 34.832200765,
      "label": "אופטיקה 280 - בני ברק",
      "text": "",
      "stayTimes": "14:00 - 14:40",
      "t_start": "2020-04-20T12:00:00",
      "t_end": "2020-04-20T12:40:00",
      "link": ""
    },
    {
      "id": 469989,
      "lat": 32.0874578780001,
      "lon": 34.828462673,
      "label": "בנק דיסקונט - בני ברק",
      "text": "",
      "stayTimes": "23:00 - 23:15",
      "t_start": "2020-04-12T21:00:00",
      "t_end": "2020-04-12T21:15:00",
      "link": ""
    },
    {
      "id": 469990,
      "lat": 32.4746736180001,
      "lon": 34.9978632830001,
      "label": "שופרסל \"שלי \" סניף פרדס חנה - פרדס חנה-כרכור",
      "text": "",
      "stayTimes": "11:30 - 11:45",
      "t_start": "2020-04-17T09:30:00",
      "t_end": "2020-04-17T09:45:00",
      "link": ""
    },
    {
      "id": 469991,
      "lat": 31.4159425080001,
      "lon": 34.579142615,
      "label": "מאפיית אוחיון - נתיבות",
      "text": "",
      "stayTimes": "20:30 - 21:00",
      "t_start": "2020-04-16T18:30:00",
      "t_end": "2020-04-16T19:00:00",
      "link": ""
    },
    {
      "id": 469992,
      "lat": 31.416068571,
      "lon": 34.5790315040001,
      "label": "מאפיית אוחיון - נתיבות",
      "text": "",
      "stayTimes": "21:00 - 21:30",
      "t_start": "2020-04-18T19:00:00",
      "t_end": "2020-04-18T19:30:00",
      "link": ""
    },
    {
      "id": 469993,
      "lat": 31.817951475,
      "lon": 35.199893156,
      "label": "\"סופר מרזיב\" שירת הים - ירושלים",
      "text": "",
      "stayTimes": "12:00 - 13:00",
      "t_start": "2020-04-13T10:00:00",
      "t_end": "2020-04-13T11:00:00",
      "link": ""
    },
    {
      "id": 469994,
      "lat": 31.7512059050001,
      "lon": 35.18655062,
      "label": "סופר פארם קניון מלחה - ירושלים",
      "text": "",
      "stayTimes": "15:30 - 16:00",
      "t_start": "2020-04-13T13:30:00",
      "t_end": "2020-04-13T14:00:00",
      "link": ""
    },
    {
      "id": 469995,
      "lat": 31.7488410980001,
      "lon": 35.2109615050001,
      "label": "יוחננוף - ירושלים",
      "text": "",
      "stayTimes": "21:00 - 22:00",
      "t_start": "2020-04-16T19:00:00",
      "t_end": "2020-04-16T20:00:00",
      "link": ""
    },
    {
      "id": 469996,
      "lat": 32.470720903,
      "lon": 35.038988143,
      "label": "יין בעיר חריש - חריש",
      "text": "",
      "stayTimes": "13:45 - 14:00",
      "t_start": "2020-04-17T11:45:00",
      "t_end": "2020-04-17T12:00:00",
      "link": ""
    },
    {
      "id": 469997,
      "lat": 31.7144626350001,
      "lon": 34.9904344030001,
      "label": "סופר \"שוק מהדרין\" נחל קישון רמה א'. - בית שמש",
      "text": "",
      "stayTimes": "17:00 - 18:00",
      "t_start": "2020-04-12T15:00:00",
      "t_end": "2020-04-12T16:00:00",
      "link": ""
    },
    {
      "id": 469998,
      "lat": 31.7051188,
      "lon": 35.1168587000001,
      "label": "סופר יש חסד - ביתר עילית",
      "text": "",
      "stayTimes": "11:30 - 12:00",
      "t_start": "2020-04-13T09:30:00",
      "t_end": "2020-04-13T10:00:00",
      "link": ""
    },
    {
      "id": 469999,
      "lat": 32.0879306000001,
      "lon": 34.8567575000001,
      "label": "רמי לוי - פתח תקווה",
      "text": "",
      "stayTimes": "10:00 - 11:00",
      "t_start": "2020-04-16T08:00:00",
      "t_end": "2020-04-16T09:00:00",
      "link": ""
    },
    {
      "id": 470000,
      "lat": 31.7852588000001,
      "lon": 35.1830189,
      "label": "אושר עד גבעת שאול - ירושלים",
      "text": "",
      "stayTimes": "11:00 - 12:00",
      "t_start": "2020-04-22T09:00:00",
      "t_end": "2020-04-22T10:00:00",
      "link": ""
    },
    {
      "id": 470001,
      "lat": 31.6654723890001,
      "lon": 34.562808182,
      "label": "מרפאת שיניים אפרת - אשקלון",
      "text": "",
      "stayTimes": "10:30 - 12:30",
      "t_start": "2020-04-21T08:30:00",
      "t_end": "2020-04-21T10:30:00",
      "link": ""
    },
    {
      "id": 470002,
      "lat": 31.6592328720001,
      "lon": 34.5574380940001,
      "label": "סופר דוידי - אשקלון",
      "text": "",
      "stayTimes": "10:00 - 11:00",
      "t_start": "2020-04-10T08:00:00",
      "t_end": "2020-04-10T09:00:00",
      "link": ""
    },
    {
      "id": 470003,
      "lat": 32.090821981,
      "lon": 34.8388174410001,
      "label": "סופר יש חסד - בני ברק",
      "text": "",
      "stayTimes": "19:00 - 20:00",
      "t_start": "2020-04-13T17:00:00",
      "t_end": "2020-04-13T18:00:00",
      "link": ""
    },
    {
      "id": 470004,
      "lat": 31.7674248810001,
      "lon": 35.295225841,
      "label": "טרם - מעלה אדומים",
      "text": "",
      "stayTimes": "23:00 - 23:30",
      "t_start": "2020-04-12T21:00:00",
      "t_end": "2020-04-12T21:30:00",
      "link": ""
    },
    {
      "id": 470005,
      "lat": 31.9272982360001,
      "lon": 35.0383409300001,
      "label": "יש חסד - מודיעין עילית",
      "text": "",
      "stayTimes": "00:00 - 00:30",
      "t_start": "2020-04-16T22:00:00",
      "t_end": "2020-04-16T22:30:00",
      "link": ""
    },
    {
      "id": 470006,
      "lat": 32.8428574000001,
      "lon": 35.1641175,
      "label": "אל  משהדאוי  סופרמרקט - טמרה",
      "text": "",
      "stayTimes": "15:30 - 16:00",
      "t_start": "2020-04-20T13:30:00",
      "t_end": "2020-04-20T14:00:00",
      "link": ""
    },
    {
      "id": 470007,
      "lat": 31.265657677,
      "lon": 34.7634183490001,
      "label": "סופר דיל - באר שבע",
      "text": "",
      "stayTimes": "11:00 - 11:30",
      "t_start": "2020-04-10T09:00:00",
      "t_end": "2020-04-10T09:30:00",
      "link": ""
    },
    {
      "id": 470008,
      "lat": 31.2656951230001,
      "lon": 34.7633655970001,
      "label": "סופר דיל - באר שבע",
      "text": "",
      "stayTimes": "11:00 - 11:30",
      "t_start": "2020-04-14T09:00:00",
      "t_end": "2020-04-14T09:30:00",
      "link": ""
    },
    {
      "id": 470009,
      "lat": 31.785329443,
      "lon": 35.213897563,
      "label": "תחנת קדם - ירושלים",
      "text": "",
      "stayTimes": "22:00 - 22:30",
      "t_start": "2020-04-12T20:00:00",
      "t_end": "2020-04-12T20:30:00",
      "link": ""
    },
    {
      "id": 470010,
      "lat": 31.785329443,
      "lon": 35.213897563,
      "label": "תחנת קדם - ירושלים",
      "text": "",
      "stayTimes": "22:00 - 23:30",
      "t_start": "2020-04-11T20:00:00",
      "t_end": "2020-04-11T21:30:00",
      "link": ""
    },
    {
      "id": 470011,
      "lat": 32.0055320000001,
      "lon": 34.8854112000001,
      "label": "נתב\"ג - לוד",
      "text": "",
      "stayTimes": "08:15 - 17:00",
      "t_start": "2020-04-12T06:15:00",
      "t_end": "2020-04-12T15:00:00",
      "link": ""
    },
    {
      "id": 470012,
      "lat": 31.6928544,
      "lon": 35.1096686000001,
      "label": "חסד לאלפים - ביתר עילית",
      "text": "",
      "stayTimes": "11:00 - 12:00",
      "t_start": "2020-04-10T09:00:00",
      "t_end": "2020-04-10T10:00:00",
      "link": ""
    },
    {
      "id": 470013,
      "lat": 32.7931230880001,
      "lon": 35.523817466,
      "label": "בית אבות נוף כנרת - טבריה",
      "text": "",
      "stayTimes": "08:00 - 08:30",
      "t_start": "2020-04-12T06:00:00",
      "t_end": "2020-04-12T06:30:00",
      "link": ""
    },
    {
      "id": 470014,
      "lat": 32.7931230880001,
      "lon": 35.523817466,
      "label": "בית אבות נוף כנרת - טבריה",
      "text": "",
      "stayTimes": "08:00 - 08:30",
      "t_start": "2020-04-12T06:00:00",
      "t_end": "2020-04-12T06:30:00",
      "link": ""
    },
    {
      "id": 470015,
      "lat": 32.181293979,
      "lon": 34.8952400370001,
      "label": "בית חולים מאיר מחלקת אורטופדיה - כפר סבא",
      "text": "",
      "stayTimes": "08:00 - 08:30",
      "t_start": "2020-04-17T06:00:00",
      "t_end": "2020-04-17T06:30:00",
      "link": ""
    },
    {
      "id": 470016,
      "lat": 32.1812576560001,
      "lon": 34.895211427,
      "label": "בית חולים מאיר מח' אורטופדיה - כפר סבא",
      "text": "",
      "stayTimes": "12:00 - 12:30",
      "t_start": "2020-04-17T10:00:00",
      "t_end": "2020-04-17T10:30:00",
      "link": ""
    },
    {
      "id": 470017,
      "lat": 32.1812394950001,
      "lon": 34.8952758,
      "label": "בית חולים מאיר מח' אורטופדיה - כפר סבא",
      "text": "",
      "stayTimes": "08:00 - 08:30",
      "t_start": "2020-04-18T06:00:00",
      "t_end": "2020-04-18T06:30:00",
      "link": ""
    },
    {
      "id": 470018,
      "lat": 32.1810270340001,
      "lon": 34.8948060590001,
      "label": "בית חולים מאיר מח' אורטופדיה - כפר סבא",
      "text": "",
      "stayTimes": "12:00 - 12:30",
      "t_start": "2020-04-18T10:00:00",
      "t_end": "2020-04-18T10:30:00",
      "link": ""
    },
    {
      "id": 470019,
      "lat": 32.181275817,
      "lon": 34.8952293080001,
      "label": "בית חולים מאיר מח' אורטופדיה - כפר סבא",
      "text": "",
      "stayTimes": "08:00 - 08:30",
      "t_start": "2020-04-19T06:00:00",
      "t_end": "2020-04-19T06:30:00",
      "link": ""
    },
    {
      "id": 470020,
      "lat": 32.181275817,
      "lon": 34.8952328840001,
      "label": "בית חולים מאיר מח' אורטופדיה - כפר סבא",
      "text": "",
      "stayTimes": "12:00 - 12:30",
      "t_start": "2020-04-19T10:00:00",
      "t_end": "2020-04-19T10:30:00",
      "link": ""
    },
    {
      "id": 470021,
      "lat": 32.181266737,
      "lon": 34.895215003,
      "label": "בית חולים מאיר מח' אורטופדיה - כפר סבא",
      "text": "",
      "stayTimes": "08:00 - 08:30",
      "t_start": "2020-04-20T06:00:00",
      "t_end": "2020-04-20T06:30:00",
      "link": ""
    },
    {
      "id": 470022,
      "lat": 32.1812637100001,
      "lon": 34.8952507650001,
      "label": "בית חולים מאיר מח' אורטופדיה - כפר סבא",
      "text": "",
      "stayTimes": "12:00 - 12:30",
      "t_start": "2020-04-20T10:00:00",
      "t_end": "2020-04-20T10:30:00",
      "link": ""
    },
    {
      "id": 470023,
      "lat": 32.0934243680001,
      "lon": 34.843403655,
      "label": "בית אבות הדסים - בני ברק",
      "text": "",
      "stayTimes": "07:00 - 15:00",
      "t_start": "2020-04-10T05:00:00",
      "t_end": "2020-04-10T13:00:00",
      "link": ""
    },
    {
      "id": 470024,
      "lat": 31.607740259,
      "lon": 34.7593345600001,
      "label": "החייל האלמוני 6, קרית גת",
      "text": "",
      "stayTimes": "11:00 - 13:00",
      "t_start": "2020-04-21T09:00:00",
      "t_end": "2020-04-21T11:00:00",
      "link": ""
    },
    {
      "id": 470025,
      "lat": 32.0193588000001,
      "lon": 34.9614117,
      "label": "יקביי הכרמל - שוהם",
      "text": "",
      "stayTimes": "14:00 - 16:30",
      "t_start": "2020-04-21T12:00:00",
      "t_end": "2020-04-21T14:30:00",
      "link": ""
    },
    {
      "id": 470026,
      "lat": 32.9491675360001,
      "lon": 35.1730830610001,
      "label": "כספומט בנק מרכנתיל - ירכא",
      "text": "",
      "stayTimes": "08:00 - 11:00",
      "t_start": "2020-04-10T06:00:00",
      "t_end": "2020-04-10T09:00:00",
      "link": ""
    },
    {
      "id": 470027,
      "lat": 31.416792851,
      "lon": 34.571979212,
      "label": "אלי זול  (חנות ממתקים) - נתיבות",
      "text": "",
      "stayTimes": "14:00 - 14:30",
      "t_start": "2020-04-13T12:00:00",
      "t_end": "2020-04-13T12:30:00",
      "link": ""
    },
    {
      "id": 470028,
      "lat": 32.1840790090001,
      "lon": 34.8520795690001,
      "label": "בית אבות עמל בשרון - רעננה",
      "text": "",
      "stayTimes": "08:00 - 08:30",
      "t_start": "2020-04-10T06:00:00",
      "t_end": "2020-04-10T06:30:00",
      "link": ""
    },
    {
      "id": 470029,
      "lat": 32.7552436,
      "lon": 35.1038367,
      "label": "קופ\"ח מכבי - רכסים",
      "text": "",
      "stayTimes": "08:05 - 08:20",
      "t_start": "2020-04-10T06:05:00",
      "t_end": "2020-04-10T06:20:00",
      "link": ""
    },
    {
      "id": 470030,
      "lat": 32.7548144560001,
      "lon": 35.103473104,
      "label": "יש חסד - רכסים",
      "text": "",
      "stayTimes": "08:20 - 09:00",
      "t_start": "2020-04-10T06:20:00",
      "t_end": "2020-04-10T07:00:00",
      "link": ""
    },
    {
      "id": 470031,
      "lat": 32.9173842220001,
      "lon": 35.250529106,
      "label": "תחנת דלק YELLOW מג'ד אל כרום - מג'ד אל-כרום",
      "text": "",
      "stayTimes": "06:00 - 14:00",
      "t_start": "2020-04-14T04:00:00",
      "t_end": "2020-04-14T12:00:00",
      "link": ""
    },
    {
      "id": 470032,
      "lat": 32.9173842220001,
      "lon": 35.250529106,
      "label": "תחנת דלק YELLOW - מג'ד אל-כרום",
      "text": "",
      "stayTimes": "10:00 - 23:00",
      "t_start": "2020-04-15T08:00:00",
      "t_end": "2020-04-15T21:00:00",
      "link": ""
    },
    {
      "id": 470033,
      "lat": 32.9173842220001,
      "lon": 35.250529106,
      "label": "תחנת דלק YELLOW - מג'ד אל-כרום",
      "text": "",
      "stayTimes": "12:00 - 14:00",
      "t_start": "2020-04-18T10:00:00",
      "t_end": "2020-04-18T12:00:00",
      "link": ""
    },
    {
      "id": 470034,
      "lat": 31.7674248810001,
      "lon": 35.295225841,
      "label": "טרם מעלה אדומים - מעלה אדומים",
      "text": "",
      "stayTimes": "16:00 - 16:30",
      "t_start": "2020-04-14T14:00:00",
      "t_end": "2020-04-14T14:30:00",
      "link": ""
    },
    {
      "id": 470035,
      "lat": 32.2692323430001,
      "lon": 35.006186459,
      "label": "בית מרקחת מג'אד פארם - טייבה",
      "text": "",
      "stayTimes": "18:30 - 18:45",
      "t_start": "2020-04-12T16:30:00",
      "t_end": "2020-04-12T16:45:00",
      "link": ""
    },
    {
      "id": 470036,
      "lat": 32.2628131860001,
      "lon": 35.014472013,
      "label": "סופר בראון טייבה - טייבה",
      "text": "",
      "stayTimes": "18:00 - 18:30",
      "t_start": "2020-04-12T16:00:00",
      "t_end": "2020-04-12T16:30:00",
      "link": ""
    },
    {
      "id": 470037,
      "lat": 32.047602512,
      "lon": 34.9560923880001,
      "label": "קופת חולים לאומית - אלעד",
      "text": "",
      "stayTimes": "08:00 - 08:30",
      "t_start": "2020-04-19T06:00:00",
      "t_end": "2020-04-19T06:30:00",
      "link": ""
    },
    {
      "id": 470038,
      "lat": 31.934637566,
      "lon": 35.0423227520001,
      "label": "סופרמרקט \"בר כל\" - מודיעין עילית",
      "text": "",
      "stayTimes": "20:00 - 21:00",
      "t_start": "2020-04-19T18:00:00",
      "t_end": "2020-04-19T19:00:00",
      "link": ""
    },
    {
      "id": 470039,
      "lat": 31.9302372230001,
      "lon": 35.038582725,
      "label": "סופר מרקט \"יש\" - מודיעין עילית",
      "text": "",
      "stayTimes": "10:00 - 10:30",
      "t_start": "2020-04-16T08:00:00",
      "t_end": "2020-04-16T08:30:00",
      "link": ""
    },
    {
      "id": 470040,
      "lat": 32.0900685,
      "lon": 34.867923326,
      "label": "בית חולים בלינסון - פתח תקווה",
      "text": "",
      "stayTimes": "20:30 - 21:00",
      "t_start": "2020-04-18T18:30:00",
      "t_end": "2020-04-18T19:00:00",
      "link": ""
    },
    {
      "id": 470041,
      "lat": 32.088662105,
      "lon": 34.889573473,
      "label": "מרפאה לאומית - פתח תקווה",
      "text": "",
      "stayTimes": "09:40 - 09:50",
      "t_start": "2020-04-13T07:40:00",
      "t_end": "2020-04-13T07:50:00",
      "link": ""
    },
    {
      "id": 470042,
      "lat": 32.088662105,
      "lon": 34.889573473,
      "label": "מרפאה לאומית - פתח תקווה",
      "text": "",
      "stayTimes": "09:50 - 10:00",
      "t_start": "2020-04-13T07:50:00",
      "t_end": "2020-04-13T08:00:00",
      "link": ""
    },
    {
      "id": 470043,
      "lat": 32.08040571,
      "lon": 34.874823065,
      "label": "טרם פתח תקוה - פתח תקווה",
      "text": "",
      "stayTimes": "17:00 - 17:10",
      "t_start": "2020-04-12T15:00:00",
      "t_end": "2020-04-12T15:10:00",
      "link": ""
    },
    {
      "id": 470044,
      "lat": 33.0063472950001,
      "lon": 35.0976566780001,
      "label": "זוגלובק - שלומי",
      "text": "",
      "stayTimes": "06:00 - 17:00",
      "t_start": "2020-04-12T04:00:00",
      "t_end": "2020-04-12T15:00:00",
      "link": ""
    },
    {
      "id": 470045,
      "lat": 33.0063472950001,
      "lon": 35.0976566780001,
      "label": "זוגלובק - שלומי",
      "text": "",
      "stayTimes": "06:00 - 17:00",
      "t_start": "2020-04-13T04:00:00",
      "t_end": "2020-04-13T15:00:00",
      "link": ""
    },
    {
      "id": 470046,
      "lat": 33.0063472950001,
      "lon": 35.0976566780001,
      "label": "זוגלובאק - שלומי",
      "text": "",
      "stayTimes": "06:00 - 17:00",
      "t_start": "2020-04-16T04:00:00",
      "t_end": "2020-04-16T15:00:00",
      "link": ""
    },
    {
      "id": 470047,
      "lat": 31.7884481940001,
      "lon": 35.207115382,
      "label": "בית אגד מרפאה - מאוחדת - ירושלים",
      "text": "",
      "stayTimes": "11:00 - 12:00",
      "t_start": "2020-04-19T09:00:00",
      "t_end": "2020-04-19T10:00:00",
      "link": ""
    },
    {
      "id": 470048,
      "lat": 33.0197082020001,
      "lon": 35.2828309440001,
      "label": "זול סטוק - מעלות-תרשיחא",
      "text": "",
      "stayTimes": "17:30 - 17:35",
      "t_start": "2020-04-19T15:30:00",
      "t_end": "2020-04-19T15:35:00",
      "link": ""
    },
    {
      "id": 470049,
      "lat": 32.952275382,
      "lon": 35.178511498,
      "label": "הום סנטר - ירכא",
      "text": "",
      "stayTimes": "10:00 - 11:30",
      "t_start": "2020-04-17T08:00:00",
      "t_end": "2020-04-17T09:30:00",
      "link": ""
    },
    {
      "id": 470050,
      "lat": 32.1847524660001,
      "lon": 34.8967412600001,
      "label": "מוניות הורדים - כפר סבא",
      "text": "",
      "stayTimes": "10:00 - 13:00",
      "t_start": "2020-04-18T08:00:00",
      "t_end": "2020-04-18T11:00:00",
      "link": ""
    },
    {
      "id": 470051,
      "lat": 32.2697890000001,
      "lon": 35.017976,
      "label": "מרכז רפואי אלראזי כביש 26 טייבה - טייבה",
      "text": "",
      "stayTimes": "20:45 - 21:10",
      "t_start": "2020-04-14T18:45:00",
      "t_end": "2020-04-14T19:10:00",
      "link": ""
    },
    {
      "id": 470052,
      "lat": 32.9243927000001,
      "lon": 35.2769814000001,
      "label": "קניון דבאח - דייר אל-אסד",
      "text": "",
      "stayTimes": "08:00 - 15:30",
      "t_start": "2020-04-10T06:00:00",
      "t_end": "2020-04-10T13:30:00",
      "link": ""
    },
    {
      "id": 470053,
      "lat": 32.9243927000001,
      "lon": 35.2769814000001,
      "label": "קניון דבאח - דייר אל-אסד",
      "text": "",
      "stayTimes": "15:00 - 22:30",
      "t_start": "2020-04-11T13:00:00",
      "t_end": "2020-04-11T20:30:00",
      "link": ""
    },
    {
      "id": 470054,
      "lat": 32.9243927000001,
      "lon": 35.2769814000001,
      "label": "קניון דבאח - דייר אל-אסד",
      "text": "",
      "stayTimes": "12:00 - 20:00",
      "t_start": "2020-04-13T10:00:00",
      "t_end": "2020-04-13T18:00:00",
      "link": ""
    },
    {
      "id": 470055,
      "lat": 32.9243927000001,
      "lon": 35.2769814000001,
      "label": "קניון דבאח - דייר אל-אסד",
      "text": "",
      "stayTimes": "08:00 - 20:00",
      "t_start": "2020-04-12T06:00:00",
      "t_end": "2020-04-12T18:00:00",
      "link": ""
    },
    {
      "id": 470056,
      "lat": 32.9243927000001,
      "lon": 35.2769814000001,
      "label": "קניון דבאח - דייר אל-אסד",
      "text": "",
      "stayTimes": "08:00 - 15:30",
      "t_start": "2020-04-16T06:00:00",
      "t_end": "2020-04-16T13:30:00",
      "link": ""
    },
    {
      "id": 470057,
      "lat": 31.4159425080001,
      "lon": 34.579142615,
      "label": "סופר היפר כהן סניף רימון - נתיבות",
      "text": "",
      "stayTimes": "14:00 - 14:30",
      "t_start": "2020-04-10T12:00:00",
      "t_end": "2020-04-10T12:30:00",
      "link": ""
    },
    {
      "id": 470058,
      "lat": 31.416792851,
      "lon": 34.571979212,
      "label": "חנות ממתקים אלי זול - נתיבות",
      "text": "",
      "stayTimes": "13:30 - 14:30",
      "t_start": "2020-04-14T11:30:00",
      "t_end": "2020-04-14T12:30:00",
      "link": ""
    },
    {
      "id": 470059,
      "lat": 31.8084865750001,
      "lon": 35.1985345690001,
      "label": "קופ\"ח לאומית - ירושלים",
      "text": "",
      "stayTimes": "08:00 - 20:30",
      "t_start": "2020-04-20T06:00:00",
      "t_end": "2020-04-20T18:30:00",
      "link": ""
    },
    {
      "id": 470060,
      "lat": 32.066217646,
      "lon": 34.8287757260001,
      "label": "סופר סל שלי - רמת גן",
      "text": "",
      "stayTimes": "11:45 - 12:15",
      "t_start": "2020-04-19T09:45:00",
      "t_end": "2020-04-19T10:15:00",
      "link": ""
    },
    {
      "id": 470061,
      "lat": 31.7884694700001,
      "lon": 35.205537007,
      "label": "טרם שערי העיר - ירושלים",
      "text": "",
      "stayTimes": "03:00 - 06:00",
      "t_start": "2020-04-22T01:00:00",
      "t_end": "2020-04-22T04:00:00",
      "link": ""
    },
    {
      "id": 470062,
      "lat": 31.6928544,
      "lon": 35.1096686000001,
      "label": "חסד לאלפים רמות - ירושלים",
      "text": "",
      "stayTimes": "10:00 - 10:30",
      "t_start": "2020-04-22T08:00:00",
      "t_end": "2020-04-22T08:30:00",
      "link": ""
    },
    {
      "id": 470063,
      "lat": 31.7884373910001,
      "lon": 35.2064509310001,
      "label": "מעיין 2000 - ירושלים",
      "text": "",
      "stayTimes": "12:00 - 12:30",
      "t_start": "2020-04-17T10:00:00",
      "t_end": "2020-04-17T10:30:00",
      "link": ""
    },
    {
      "id": 470064,
      "lat": 31.7921554440001,
      "lon": 35.2047189260001,
      "label": "שערי רווחה - ירושלים",
      "text": "",
      "stayTimes": "18:00 - 18:30",
      "t_start": "2020-04-20T16:00:00",
      "t_end": "2020-04-20T16:30:00",
      "link": ""
    },
    {
      "id": 470065,
      "lat": 31.7511387440001,
      "lon": 35.215422888,
      "label": "רמי לוי - ירושלים",
      "text": "",
      "stayTimes": "16:00 - 18:00",
      "t_start": "2020-04-22T14:00:00",
      "t_end": "2020-04-22T16:00:00",
      "link": ""
    },
    {
      "id": 470066,
      "lat": 32.922368308,
      "lon": 35.0715629260001,
      "label": "שלון חומרי בנין - עכו",
      "text": "",
      "stayTimes": "12:00 - 18:00",
      "t_start": "2020-04-23T10:00:00",
      "t_end": "2020-04-23T16:00:00",
      "link": ""
    },
    {
      "id": 470067,
      "lat": 32.9223671830001,
      "lon": 35.071564267,
      "label": "שלון חומרי בניין - עכו",
      "text": "",
      "stayTimes": "12:00 - 20:00",
      "t_start": "2020-04-22T10:00:00",
      "t_end": "2020-04-22T18:00:00",
      "link": ""
    },
    {
      "id": 470068,
      "lat": 31.7662681210001,
      "lon": 35.1478980860001,
      "label": "סניף סופר פארם בקניון של הדסה עין כרם - ירושלים",
      "text": "",
      "stayTimes": "13:00 - 13:20",
      "t_start": "2020-04-21T11:00:00",
      "t_end": "2020-04-21T11:20:00",
      "link": ""
    },
    {
      "id": 470069,
      "lat": 32.0525778960001,
      "lon": 34.9511771420001,
      "label": "יש חסד - אלעד",
      "text": "",
      "stayTimes": "22:00 - 23:00",
      "t_start": "2020-04-19T20:00:00",
      "t_end": "2020-04-19T21:00:00",
      "link": ""
    },
    {
      "id": 470070,
      "lat": 31.766297766,
      "lon": 35.1478960750001,
      "label": "סניף סופר פארם בקניון של הדסה עין כרם - ירושלים",
      "text": "",
      "stayTimes": "09:00 - 09:10",
      "t_start": "2020-04-20T07:00:00",
      "t_end": "2020-04-20T07:10:00",
      "link": ""
    },
    {
      "id": 470071,
      "lat": 31.3182278,
      "lon": 34.6253776,
      "label": "שופרסל - אופקים",
      "text": "",
      "stayTimes": "08:00 - 11:00",
      "t_start": "2020-04-15T06:00:00",
      "t_end": "2020-04-15T09:00:00",
      "link": ""
    },
    {
      "id": 470072,
      "lat": 31.3182278,
      "lon": 34.6253776,
      "label": "שופר סל - אופקים",
      "text": "",
      "stayTimes": "18:30 - 22:00",
      "t_start": "2020-04-16T16:30:00",
      "t_end": "2020-04-16T20:00:00",
      "link": ""
    },
    {
      "id": 470073,
      "lat": 31.7144626350001,
      "lon": 34.9904344030001,
      "label": "שוק מהדרין - בית שמש",
      "text": "",
      "stayTimes": "21:30 - 22:00",
      "t_start": "2020-04-15T19:30:00",
      "t_end": "2020-04-15T20:00:00",
      "link": ""
    },
    {
      "id": 470074,
      "lat": 31.4173985,
      "lon": 34.6148693000001,
      "label": "סופר רמי לוי - נתיבות",
      "text": "",
      "stayTimes": "13:00 - 13:30",
      "t_start": "2020-04-13T11:00:00",
      "t_end": "2020-04-13T11:30:00",
      "link": ""
    },
    {
      "id": 470075,
      "lat": 32.9469460930001,
      "lon": 35.174164638,
      "label": "מרכז המזון - ירכא",
      "text": "",
      "stayTimes": "20:30 - 22:30",
      "t_start": "2020-04-13T18:30:00",
      "t_end": "2020-04-13T20:30:00",
      "link": ""
    },
    {
      "id": 470076,
      "lat": 31.8135049000001,
      "lon": 34.6500062000001,
      "label": "בית הדר - אשדוד",
      "text": "",
      "stayTimes": "08:00 - 08:30",
      "t_start": "2020-04-15T06:00:00",
      "t_end": "2020-04-15T06:30:00",
      "link": ""
    },
    {
      "id": 470077,
      "lat": 32.6486540000001,
      "lon": 35.288241,
      "label": "בית אבות אור העמק - מזרע",
      "text": "",
      "stayTimes": "07:10 - 17:00",
      "t_start": "2020-04-12T05:10:00",
      "t_end": "2020-04-12T15:00:00",
      "link": ""
    },
    {
      "id": 470078,
      "lat": 32.04834607,
      "lon": 34.9577129480001,
      "label": "זול כל - אלעד",
      "text": "",
      "stayTimes": "18:00 - 18:10",
      "t_start": "2020-04-12T16:00:00",
      "t_end": "2020-04-12T16:10:00",
      "link": ""
    },
    {
      "id": 470079,
      "lat": 31.814293956,
      "lon": 34.7764854500001,
      "label": "מעון מוריה - גדרה",
      "text": "",
      "stayTimes": "05:30 - 14:30",
      "t_start": "2020-04-12T03:30:00",
      "t_end": "2020-04-12T12:30:00",
      "link": ""
    },
    {
      "id": 470080,
      "lat": 32.6486540000001,
      "lon": 35.288241,
      "label": "בית אבות אור העמק - מזרע",
      "text": "",
      "stayTimes": "07:10 - 14:00",
      "t_start": "2020-04-14T05:10:00",
      "t_end": "2020-04-14T12:00:00",
      "link": ""
    },
    {
      "id": 470081,
      "lat": 32.6486540000001,
      "lon": 35.288241,
      "label": "בית אבות אור העמק - מזרע",
      "text": "",
      "stayTimes": "17:30 - 20:00",
      "t_start": "2020-04-13T15:30:00",
      "t_end": "2020-04-13T18:00:00",
      "link": ""
    },
    {
      "id": 470082,
      "lat": 32.6494422000001,
      "lon": 35.2905623,
      "label": "טיב טעם - מזרע",
      "text": "",
      "stayTimes": "09:00 - 09:30",
      "t_start": "2020-04-14T07:00:00",
      "t_end": "2020-04-14T07:30:00",
      "link": ""
    },
    {
      "id": 470083,
      "lat": 32.6036544460001,
      "lon": 35.2960462290001,
      "label": "מקלות וניל - עפולה",
      "text": "",
      "stayTimes": "07:30 - 07:40",
      "t_start": "2020-04-16T05:30:00",
      "t_end": "2020-04-16T05:40:00",
      "link": ""
    },
    {
      "id": 470084,
      "lat": 32.6486540000001,
      "lon": 35.288241,
      "label": "בית אבות אור העמק - מזרע",
      "text": "",
      "stayTimes": "08:00 - 17:00",
      "t_start": "2020-04-16T06:00:00",
      "t_end": "2020-04-16T15:00:00",
      "link": ""
    },
    {
      "id": 470085,
      "lat": 31.814293956,
      "lon": 34.7764854500001,
      "label": "מעון מוריה - גדרה",
      "text": "",
      "stayTimes": "05:30 - 14:30",
      "t_start": "2020-04-13T03:30:00",
      "t_end": "2020-04-13T12:30:00",
      "link": ""
    },
    {
      "id": 470086,
      "lat": 31.814293956,
      "lon": 34.7764854500001,
      "label": "מעון מוריה - גדרה",
      "text": "",
      "stayTimes": "05:30 - 12:00",
      "t_start": "2020-04-14T03:30:00",
      "t_end": "2020-04-14T10:00:00",
      "link": ""
    },
    {
      "id": 470087,
      "lat": 32.6486540000001,
      "lon": 35.288241,
      "label": "בית אבות אור העמק - מזרע",
      "text": "",
      "stayTimes": "17:00 - 22:00",
      "t_start": "2020-04-17T15:00:00",
      "t_end": "2020-04-17T20:00:00",
      "link": ""
    },
    {
      "id": 470088,
      "lat": 32.784761019,
      "lon": 34.9861257700001,
      "label": "רולדין - חיפה",
      "text": "",
      "stayTimes": "13:00 - 13:10",
      "t_start": "2020-04-10T11:00:00",
      "t_end": "2020-04-10T11:10:00",
      "link": ""
    },
    {
      "id": 470089,
      "lat": 32.8033263,
      "lon": 34.9856356920001,
      "label": "סופר פארם \"כיכר האודיטוריום\" - חיפה",
      "text": "",
      "stayTimes": "12:00 - 12:15",
      "t_start": "2020-04-10T10:00:00",
      "t_end": "2020-04-10T10:15:00",
      "link": ""
    },
    {
      "id": 470090,
      "lat": 32.8032457240001,
      "lon": 34.9858969060001,
      "label": "חנות \"היין והסיגר\" \"כיכר האודיטוריום\" - חיפה",
      "text": "",
      "stayTimes": "12:30 - 12:40",
      "t_start": "2020-04-10T10:30:00",
      "t_end": "2020-04-10T10:40:00",
      "link": ""
    },
    {
      "id": 470091,
      "lat": 32.8035119240001,
      "lon": 34.986050849,
      "label": "סופר מגה בעיר \"כיכר האודיטוריום\" - חיפה",
      "text": "",
      "stayTimes": "12:45 - 12:55",
      "t_start": "2020-04-10T10:45:00",
      "t_end": "2020-04-10T10:55:00",
      "link": ""
    },
    {
      "id": 470092,
      "lat": 32.3220808740001,
      "lon": 34.8715314300001,
      "label": "רמי לוי - נתניה",
      "text": "",
      "stayTimes": "17:30 - 18:30",
      "t_start": "2020-04-13T15:30:00",
      "t_end": "2020-04-13T16:30:00",
      "link": ""
    },
    {
      "id": 470093,
      "lat": 32.6486540000001,
      "lon": 35.288241,
      "label": "בית אבות אור העמק - מזרע",
      "text": "",
      "stayTimes": "07:00 - 10:30",
      "t_start": "2020-04-17T05:00:00",
      "t_end": "2020-04-17T08:30:00",
      "link": ""
    },
    {
      "id": 470094,
      "lat": 31.958626683,
      "lon": 34.7928790440001,
      "label": "בית אבות הבולגרי - ראשון לציון",
      "text": "",
      "stayTimes": "07:00 - 15:00",
      "t_start": "2020-04-10T05:00:00",
      "t_end": "2020-04-10T13:00:00",
      "link": ""
    },
    {
      "id": 470095,
      "lat": 32.090821981,
      "lon": 34.8388174410001,
      "label": "יש - בני ברק - בני ברק",
      "text": "",
      "stayTimes": "12:00 - 14:00",
      "t_start": "2020-04-10T10:00:00",
      "t_end": "2020-04-10T12:00:00",
      "link": ""
    },
    {
      "id": 470096,
      "lat": 31.9266720000001,
      "lon": 34.8777440000001,
      "label": "סופר פארם - רמלה",
      "text": "",
      "stayTimes": "13:20 - 13:30",
      "t_start": "2020-04-10T11:20:00",
      "t_end": "2020-04-10T11:30:00",
      "link": ""
    },
    {
      "id": 470097,
      "lat": 31.788744847,
      "lon": 35.2024677570001,
      "label": "בנק הדאר - ירושלים",
      "text": "",
      "stayTimes": "07:30 - 13:00",
      "t_start": "2020-04-10T05:30:00",
      "t_end": "2020-04-10T11:00:00",
      "link": ""
    },
    {
      "id": 470098,
      "lat": 31.8172107660001,
      "lon": 35.1942493070001,
      "label": "שוק העיר, קניון רמות - ירושלים",
      "text": "",
      "stayTimes": "13:15 - 13:45",
      "t_start": "2020-04-10T11:15:00",
      "t_end": "2020-04-10T11:45:00",
      "link": ""
    },
    {
      "id": 470099,
      "lat": 32.0834682,
      "lon": 34.8157170000001,
      "label": "ויקטורי קניון איילון - רמת גן",
      "text": "",
      "stayTimes": "15:00 - 16:00",
      "t_start": "2020-04-10T13:00:00",
      "t_end": "2020-04-10T14:00:00",
      "link": ""
    },
    {
      "id": 470100,
      "lat": 31.7982437220001,
      "lon": 35.21483614,
      "label": "עזרת תורה 2, ירושלים",
      "text": "",
      "stayTimes": "08:00 - 08:30",
      "t_start": "2020-04-10T06:00:00",
      "t_end": "2020-04-10T06:30:00",
      "link": ""
    },
    {
      "id": 470101,
      "lat": 31.2576606000001,
      "lon": 34.7678661,
      "label": "שופרסל דיל קניון שאול המלך - באר שבע",
      "text": "",
      "stayTimes": "09:00 - 10:00",
      "t_start": "2020-04-10T07:00:00",
      "t_end": "2020-04-10T08:00:00",
      "link": ""
    },
    {
      "id": 470102,
      "lat": 31.690607507,
      "lon": 35.10848851,
      "label": "חנות \"שפע ברכת האל\" - ביתר עילית",
      "text": "",
      "stayTimes": "13:50 - 14:10",
      "t_start": "2020-04-10T11:50:00",
      "t_end": "2020-04-10T12:10:00",
      "link": ""
    },
    {
      "id": 470103,
      "lat": 32.0520222590001,
      "lon": 34.9500734000001,
      "label": "מקווה - אלעד",
      "text": "",
      "stayTimes": "21:00 - 21:30",
      "t_start": "2020-04-11T19:00:00",
      "t_end": "2020-04-11T19:30:00",
      "link": ""
    },
    {
      "id": 470104,
      "lat": 32.074504925,
      "lon": 34.8373013900001,
      "label": "בית אבות ויזניץ - בני ברק",
      "text": "",
      "stayTimes": "08:00 - 14:00",
      "t_start": "2020-04-12T06:00:00",
      "t_end": "2020-04-12T12:00:00",
      "link": ""
    },
    {
      "id": 470105,
      "lat": 31.7494016000001,
      "lon": 35.2167436,
      "label": "מוסך מרסדס - ירושלים",
      "text": "",
      "stayTimes": "07:15 - 12:00",
      "t_start": "2020-04-12T05:15:00",
      "t_end": "2020-04-12T10:00:00",
      "link": ""
    },
    {
      "id": 470106,
      "lat": 32.0346381780001,
      "lon": 34.8494226020001,
      "label": "סופרפארם אור יהודה - אור יהודה",
      "text": "",
      "stayTimes": "16:30 - 17:00",
      "t_start": "2020-04-13T14:30:00",
      "t_end": "2020-04-13T15:00:00",
      "link": ""
    },
    {
      "id": 470107,
      "lat": 32.0228526070001,
      "lon": 34.85871324,
      "label": "יוחננוף - אור יהודה",
      "text": "",
      "stayTimes": "11:00 - 11:30",
      "t_start": "2020-04-12T09:00:00",
      "t_end": "2020-04-12T09:30:00",
      "link": ""
    },
    {
      "id": 470108,
      "lat": 31.792264,
      "lon": 35.2132807,
      "label": "בית מדרש \"גור\"- מניין תפילה - ירושלים",
      "text": "",
      "stayTimes": "08:00 - 16:00",
      "t_start": "2020-04-13T06:00:00",
      "t_end": "2020-04-13T14:00:00",
      "link": ""
    },
    {
      "id": 470109,
      "lat": 32.4489873910001,
      "lon": 34.91471805,
      "label": "אושר עד  אזור תעשיה חדרה - חדרה",
      "text": "",
      "stayTimes": "12:00 - 12:30",
      "t_start": "2020-04-12T10:00:00",
      "t_end": "2020-04-12T10:30:00",
      "link": ""
    },
    {
      "id": 470110,
      "lat": 31.3182278,
      "lon": 34.6253776,
      "label": "שופר סל דיל - אופקים",
      "text": "",
      "stayTimes": "08:00 - 10:00",
      "t_start": "2020-04-10T06:00:00",
      "t_end": "2020-04-10T08:00:00",
      "link": ""
    },
    {
      "id": 470111,
      "lat": 31.6023045000001,
      "lon": 34.773082,
      "label": "מחסני השוק - קרית גת",
      "text": "",
      "stayTimes": "15:30 - 17:00",
      "t_start": "2020-04-12T13:30:00",
      "t_end": "2020-04-12T15:00:00",
      "link": ""
    },
    {
      "id": 470112,
      "lat": 31.664066,
      "lon": 34.565567017,
      "label": "סופרפארם קניון גירון - אשקלון",
      "text": "",
      "stayTimes": "12:00 - 12:05",
      "t_start": "2020-04-10T10:00:00",
      "t_end": "2020-04-10T10:05:00",
      "link": ""
    },
    {
      "id": 470113,
      "lat": 32.722023672,
      "lon": 35.4949889380001,
      "label": "ביא' יוקרה - יבנאל",
      "text": "",
      "stayTimes": "08:00 - 23:30",
      "t_start": "2020-04-10T06:00:00",
      "t_end": "2020-04-10T21:30:00",
      "link": ""
    },
    {
      "id": 470114,
      "lat": 32.3182947510001,
      "lon": 34.8779462970001,
      "label": "יינות ביתן - נתניה",
      "text": "",
      "stayTimes": "05:00 - 09:00",
      "t_start": "2020-04-10T03:00:00",
      "t_end": "2020-04-10T07:00:00",
      "link": ""
    },
    {
      "id": 470115,
      "lat": 32.3255974950001,
      "lon": 34.8607513850001,
      "label": "סופר פארם קניון הקרון - נתניה",
      "text": "",
      "stayTimes": "12:00 - 12:30",
      "t_start": "2020-04-10T10:00:00",
      "t_end": "2020-04-10T10:30:00",
      "link": ""
    },
    {
      "id": 470116,
      "lat": 32.3215792,
      "lon": 34.8593675000001,
      "label": "מינימרקט רעות - נתניה",
      "text": "",
      "stayTimes": "12:30 - 12:40",
      "t_start": "2020-04-12T10:30:00",
      "t_end": "2020-04-12T10:40:00",
      "link": ""
    },
    {
      "id": 470117,
      "lat": 32.0360309000001,
      "lon": 34.7627074000001,
      "label": "ב\"ח וולפסון - חולון",
      "text": "",
      "stayTimes": "07:00 - 19:00",
      "t_start": "2020-04-13T05:00:00",
      "t_end": "2020-04-13T17:00:00",
      "link": ""
    },
    {
      "id": 470118,
      "lat": 31.6802015000001,
      "lon": 34.5695303000001,
      "label": "בית כנסת אך טוב וחסד - אשקלון",
      "text": "",
      "stayTimes": "17:00 - 19:00",
      "t_start": "2020-04-14T15:00:00",
      "t_end": "2020-04-14T17:00:00",
      "link": ""
    },
    {
      "id": 470119,
      "lat": 31.3703087580001,
      "lon": 34.6085516520001,
      "label": "עוף הנגב - אופקים",
      "text": "",
      "stayTimes": "06:00 - 12:00",
      "t_start": "2020-04-10T04:00:00",
      "t_end": "2020-04-10T10:00:00",
      "link": ""
    },
    {
      "id": 470120,
      "lat": 32.3220773940001,
      "lon": 34.8714982010001,
      "label": "רמי לוי אזור תעשיה ישן - נתניה",
      "text": "",
      "stayTimes": "17:00 - 18:30",
      "t_start": "2020-04-13T15:00:00",
      "t_end": "2020-04-13T16:30:00",
      "link": ""
    },
    {
      "id": 470121,
      "lat": 31.8135049000001,
      "lon": 34.6500062000001,
      "label": "בית הדר - אשדוד",
      "text": "",
      "stayTimes": "00:00 - 23:30",
      "t_start": "2020-04-09T22:00:00",
      "t_end": "2020-04-10T21:30:00",
      "link": ""
    },
    {
      "id": 470122,
      "lat": 31.8135049000001,
      "lon": 34.6500062000001,
      "label": "בית הדר - אשדוד",
      "text": "",
      "stayTimes": "08:00 - 08:30",
      "t_start": "2020-04-11T06:00:00",
      "t_end": "2020-04-11T06:30:00",
      "link": ""
    },
    {
      "id": 470123,
      "lat": 32.055225767,
      "lon": 34.960713583,
      "label": "סופר שפע במרכז רימון - אלעד",
      "text": "",
      "stayTimes": "08:45 - 09:15",
      "t_start": "2020-04-12T06:45:00",
      "t_end": "2020-04-12T07:15:00",
      "link": ""
    },
    {
      "id": 470124,
      "lat": 32.324039945,
      "lon": 34.854999869,
      "label": "מגה בעיר - נתניה",
      "text": "",
      "stayTimes": "05:00 - 09:00",
      "t_start": "2020-04-10T03:00:00",
      "t_end": "2020-04-10T07:00:00",
      "link": ""
    },
    {
      "id": 470125,
      "lat": 32.048760551,
      "lon": 34.8427634340001,
      "label": "מחלקת יולדות תל השומר - רמת גן",
      "text": "",
      "stayTimes": "08:00 - 23:30",
      "t_start": "2020-04-13T06:00:00",
      "t_end": "2020-04-13T21:30:00",
      "link": ""
    },
    {
      "id": 470126,
      "lat": 32.3120405,
      "lon": 34.8709662000001,
      "label": "סופר פארם - נתניה",
      "text": "",
      "stayTimes": "11:00 - 11:20",
      "t_start": "2020-04-10T09:00:00",
      "t_end": "2020-04-10T09:20:00",
      "link": ""
    },
    {
      "id": 470127,
      "lat": 31.315558878,
      "lon": 34.6206675030001,
      "label": "מכבי אופקים מתחם קורונה - אופקים",
      "text": "",
      "stayTimes": "08:00 - 08:30",
      "t_start": "2020-04-13T06:00:00",
      "t_end": "2020-04-13T06:30:00",
      "link": ""
    },
    {
      "id": 470128,
      "lat": 31.8135049000001,
      "lon": 34.6500062000001,
      "label": "בית הדר - אשדוד",
      "text": "",
      "stayTimes": "00:00 - 23:30",
      "t_start": "2020-04-09T22:00:00",
      "t_end": "2020-04-10T21:30:00",
      "link": ""
    },
    {
      "id": 470129,
      "lat": 31.6584985000001,
      "lon": 34.5694202,
      "label": "סופר יעל - אשקלון",
      "text": "",
      "stayTimes": "12:00 - 14:00",
      "t_start": "2020-04-14T10:00:00",
      "t_end": "2020-04-14T12:00:00",
      "link": ""
    },
    {
      "id": 470130,
      "lat": 32.0897515830001,
      "lon": 34.8670658130001,
      "label": "חדר מיון בלינסון - פתח תקווה",
      "text": "",
      "stayTimes": "12:00 - 21:30",
      "t_start": "2020-04-13T10:00:00",
      "t_end": "2020-04-13T19:30:00",
      "link": ""
    },
    {
      "id": 470131,
      "lat": 32.0885211360001,
      "lon": 34.869083776,
      "label": "מגה בעיר - פתח תקווה",
      "text": "",
      "stayTimes": "15:00 - 15:10",
      "t_start": "2020-04-14T13:00:00",
      "t_end": "2020-04-14T13:10:00",
      "link": ""
    },
    {
      "id": 470132,
      "lat": 31.8135049000001,
      "lon": 34.6500062000001,
      "label": "בית הדר - אשדוד",
      "text": "",
      "stayTimes": "00:00 - 23:30",
      "t_start": "2020-04-11T22:00:00",
      "t_end": "2020-04-12T21:30:00",
      "link": ""
    },
    {
      "id": 470133,
      "lat": 31.8135049000001,
      "lon": 34.6500062000001,
      "label": "בית הדר - אשדוד",
      "text": "",
      "stayTimes": "00:00 - 23:30",
      "t_start": "2020-04-12T22:00:00",
      "t_end": "2020-04-13T21:30:00",
      "link": ""
    },
    {
      "id": 470134,
      "lat": 31.8624492000001,
      "lon": 34.8165881,
      "label": "סופר פארם - קרית עקרון",
      "text": "",
      "stayTimes": "08:30 - 09:00",
      "t_start": "2020-04-10T06:30:00",
      "t_end": "2020-04-10T07:00:00",
      "link": ""
    },
    {
      "id": 470135,
      "lat": 31.8624492000001,
      "lon": 34.8165881,
      "label": "סופר פארם - קרית עקרון",
      "text": "",
      "stayTimes": "08:30 - 09:00",
      "t_start": "2020-04-10T06:30:00",
      "t_end": "2020-04-10T07:00:00",
      "link": ""
    },
    {
      "id": 470136,
      "lat": 31.8650000000001,
      "lon": 34.8158333000001,
      "label": "מוצצים - קרית עקרון",
      "text": "",
      "stayTimes": "08:30 - 09:00",
      "t_start": "2020-04-10T06:30:00",
      "t_end": "2020-04-10T07:00:00",
      "link": ""
    },
    {
      "id": 470137,
      "lat": 31.6108987960001,
      "lon": 34.764898445,
      "label": "קופת חולים כללית ב - קרית גת",
      "text": "",
      "stayTimes": "07:30 - 09:30",
      "t_start": "2020-04-13T05:30:00",
      "t_end": "2020-04-13T07:30:00",
      "link": ""
    },
    {
      "id": 470138,
      "lat": 31.9328630000001,
      "lon": 34.8887540000001,
      "label": "סופר פארם קניון רמלוד - רמלה",
      "text": "",
      "stayTimes": "15:45 - 16:45",
      "t_start": "2020-04-13T13:45:00",
      "t_end": "2020-04-13T14:45:00",
      "link": ""
    },
    {
      "id": 470139,
      "lat": 32.0860725360001,
      "lon": 34.8303938600001,
      "label": "קופת חולים מכבי בני ברק - בני ברק",
      "text": "",
      "stayTimes": "11:00 - 12:00",
      "t_start": "2020-04-12T09:00:00",
      "t_end": "2020-04-12T10:00:00",
      "link": ""
    },
    {
      "id": 470140,
      "lat": 32.9236277000001,
      "lon": 35.3080387000001,
      "label": "רמי לוי - כרמיאל",
      "text": "",
      "stayTimes": "11:30 - 13:00",
      "t_start": "2020-04-10T09:30:00",
      "t_end": "2020-04-10T11:00:00",
      "link": ""
    },
    {
      "id": 470141,
      "lat": 31.814293956,
      "lon": 34.7764854500001,
      "label": "מעון מוריה גדרה - גדרה",
      "text": "",
      "stayTimes": "08:00 - 16:00",
      "t_start": "2020-04-12T06:00:00",
      "t_end": "2020-04-12T14:00:00",
      "link": ""
    },
    {
      "id": 470142,
      "lat": 32.3221211650001,
      "lon": 34.87151949,
      "label": "רמי לוי - נתניה",
      "text": "",
      "stayTimes": "17:30 - 18:30",
      "t_start": "2020-04-13T15:30:00",
      "t_end": "2020-04-13T16:30:00",
      "link": ""
    },
    {
      "id": 470143,
      "lat": 32.322080881,
      "lon": 34.8715195010001,
      "label": "רמי לוי - נתניה",
      "text": "",
      "stayTimes": "17:30 - 18:30",
      "t_start": "2020-04-13T15:30:00",
      "t_end": "2020-04-13T16:30:00",
      "link": ""
    },
    {
      "id": 470144,
      "lat": 32.6486540000001,
      "lon": 35.288241,
      "label": "בית אבות אור העמק - מזרע",
      "text": "",
      "stayTimes": "12:30 - 15:40",
      "t_start": "2020-04-17T10:30:00",
      "t_end": "2020-04-17T13:40:00",
      "link": ""
    },
    {
      "id": 470145,
      "lat": 32.3296970820001,
      "lon": 34.855378848,
      "label": "\"בית היין\" חנות משקאות ויין - נתניה",
      "text": "",
      "stayTimes": "10:30 - 14:30",
      "t_start": "2020-04-10T08:30:00",
      "t_end": "2020-04-10T12:30:00",
      "link": ""
    },
    {
      "id": 470146,
      "lat": 32.3255974950001,
      "lon": 34.8607513850001,
      "label": "סופר פארם קניון השרון - נתניה",
      "text": "",
      "stayTimes": "20:30 - 21:00",
      "t_start": "2020-04-13T18:30:00",
      "t_end": "2020-04-13T19:00:00",
      "link": ""
    },
    {
      "id": 470147,
      "lat": 32.3120405,
      "lon": 34.8709662000001,
      "label": "סופר פארם - נתניה",
      "text": "",
      "stayTimes": "12:00 - 12:30",
      "t_start": "2020-04-10T10:00:00",
      "t_end": "2020-04-10T10:30:00",
      "link": ""
    },
    {
      "id": 470148,
      "lat": 32.3201001830001,
      "lon": 34.8554106650001,
      "label": "סופר BE - נתניה",
      "text": "",
      "stayTimes": "10:30 - 10:40",
      "t_start": "2020-04-12T08:30:00",
      "t_end": "2020-04-12T08:40:00",
      "link": ""
    },
    {
      "id": 470149,
      "lat": 32.3215792,
      "lon": 34.8593675000001,
      "label": "מיני מרקט רעות - נתניה",
      "text": "",
      "stayTimes": "12:30 - 12:40",
      "t_start": "2020-04-12T10:30:00",
      "t_end": "2020-04-12T10:40:00",
      "link": ""
    },
    {
      "id": 470150,
      "lat": 32.4515247730001,
      "lon": 34.895396685,
      "label": "בית חולים הילל יפה - חדרה",
      "text": "",
      "stayTimes": "11:00 - 11:30",
      "t_start": "2020-04-11T09:00:00",
      "t_end": "2020-04-11T09:30:00",
      "link": ""
    },
    {
      "id": 470151,
      "lat": 32.4515247730001,
      "lon": 34.895396685,
      "label": "בית חולים הלל יפה - חדרה",
      "text": "",
      "stayTimes": "08:00 - 08:30",
      "t_start": "2020-04-11T06:00:00",
      "t_end": "2020-04-11T06:30:00",
      "link": ""
    },
    {
      "id": 470152,
      "lat": 31.2232274,
      "lon": 34.8029273000001,
      "label": "קשת טעמים - באר שבע",
      "text": "",
      "stayTimes": "11:00 - 12:00",
      "t_start": "2020-04-11T09:00:00",
      "t_end": "2020-04-11T10:00:00",
      "link": ""
    },
    {
      "id": 470153,
      "lat": 31.814293956,
      "lon": 34.7764854500001,
      "label": "מעון עלי מוריה - גדרה",
      "text": "",
      "stayTimes": "06:00 - 21:00",
      "t_start": "2020-04-11T04:00:00",
      "t_end": "2020-04-11T19:00:00",
      "link": ""
    },
    {
      "id": 470154,
      "lat": 31.8135049000001,
      "lon": 34.6500062000001,
      "label": "בית הדר - אשדוד",
      "text": "",
      "stayTimes": "00:00 - 23:30",
      "t_start": "2020-04-10T22:00:00",
      "t_end": "2020-04-11T21:30:00",
      "link": ""
    },
    {
      "id": 470155,
      "lat": 31.8135049000001,
      "lon": 34.6500062000001,
      "label": "בית הדר - אשדוד",
      "text": "",
      "stayTimes": "00:00 - 23:30",
      "t_start": "2020-04-11T22:00:00",
      "t_end": "2020-04-12T21:30:00",
      "link": ""
    },
    {
      "id": 470156,
      "lat": 31.8135049000001,
      "lon": 34.6500062000001,
      "label": "בית הדר - אשדוד",
      "text": "",
      "stayTimes": "00:00 - 23:30",
      "t_start": "2020-04-12T22:00:00",
      "t_end": "2020-04-13T21:30:00",
      "link": ""
    },
    {
      "id": 470157,
      "lat": 31.6801068780001,
      "lon": 34.570062513,
      "label": "גלידה גולדה - אשקלון",
      "text": "",
      "stayTimes": "21:00 - 21:30",
      "t_start": "2020-04-11T19:00:00",
      "t_end": "2020-04-11T19:30:00",
      "link": ""
    },
    {
      "id": 470158,
      "lat": 31.8030403000001,
      "lon": 35.2161090000001,
      "label": "בית אבות שומרי חומות - ירושלים",
      "text": "",
      "stayTimes": "08:00 - 08:30",
      "t_start": "2020-04-10T06:00:00",
      "t_end": "2020-04-10T06:30:00",
      "link": ""
    },
    {
      "id": 470159,
      "lat": 32.1011471160001,
      "lon": 34.8955459370001,
      "label": "פעמית סטוק - פתח תקווה",
      "text": "",
      "stayTimes": "15:00 - 15:30",
      "t_start": "2020-04-12T13:00:00",
      "t_end": "2020-04-12T13:30:00",
      "link": ""
    },
    {
      "id": 470160,
      "lat": 32.1058370000001,
      "lon": 34.8923941,
      "label": "אושר עד - פתח תקווה",
      "text": "",
      "stayTimes": "16:00 - 16:45",
      "t_start": "2020-04-12T14:00:00",
      "t_end": "2020-04-12T14:45:00",
      "link": ""
    },
    {
      "id": 470161,
      "lat": 31.8030403000001,
      "lon": 35.2161090000001,
      "label": "מעון הורים שומרי החומות - ירושלים",
      "text": "",
      "stayTimes": "07:00 - 16:00",
      "t_start": "2020-04-13T05:00:00",
      "t_end": "2020-04-13T14:00:00",
      "link": ""
    },
    {
      "id": 470162,
      "lat": 31.8298405840001,
      "lon": 35.2448803280001,
      "label": "קופת חולים כללית פסגת זאב - ירושלים",
      "text": "",
      "stayTimes": "10:30 - 12:30",
      "t_start": "2020-04-12T08:30:00",
      "t_end": "2020-04-12T10:30:00",
      "link": ""
    },
    {
      "id": 470163,
      "lat": 30.6080591,
      "lon": 34.8022958,
      "label": "קופ\"ח כללית - מצפה רמון",
      "text": "",
      "stayTimes": "12:00 - 13:00",
      "t_start": "2020-04-10T10:00:00",
      "t_end": "2020-04-10T11:00:00",
      "link": ""
    },
    {
      "id": 470164,
      "lat": 30.612762,
      "lon": 34.8024290000001,
      "label": "שופרסל דיל - מצפה רמון",
      "text": "",
      "stayTimes": "09:45 - 10:20",
      "t_start": "2020-04-10T07:45:00",
      "t_end": "2020-04-10T08:20:00",
      "link": ""
    },
    {
      "id": 470165,
      "lat": 31.9911338060001,
      "lon": 34.7607513570001,
      "label": "אושר עד - ראשון לציון",
      "text": "",
      "stayTimes": "21:00 - 22:00",
      "t_start": "2020-04-13T19:00:00",
      "t_end": "2020-04-13T20:00:00",
      "link": ""
    },
    {
      "id": 470166,
      "lat": 31.0596635000001,
      "lon": 35.0209987000001,
      "label": "מחסני השוק - דימונה",
      "text": "",
      "stayTimes": "17:30 - 19:00",
      "t_start": "2020-04-12T15:30:00",
      "t_end": "2020-04-12T17:00:00",
      "link": ""
    },
    {
      "id": 470167,
      "lat": 32.0891032000001,
      "lon": 34.8380488,
      "label": "שפע ברכת השם - בני ברק",
      "text": "",
      "stayTimes": "16:00 - 16:30",
      "t_start": "2020-04-13T14:00:00",
      "t_end": "2020-04-13T14:30:00",
      "link": ""
    },
    {
      "id": 470168,
      "lat": 32.1028236000001,
      "lon": 34.8361701000001,
      "label": "שופרסל - בני ברק",
      "text": "",
      "stayTimes": "14:30 - 15:45",
      "t_start": "2020-04-13T12:30:00",
      "t_end": "2020-04-13T13:45:00",
      "link": ""
    },
    {
      "id": 470169,
      "lat": 31.318128943,
      "lon": 34.6259836420001,
      "label": "מפעל \"עוף הנגב\" - אופקים",
      "text": "",
      "stayTimes": "06:00 - 11:00",
      "t_start": "2020-04-10T04:00:00",
      "t_end": "2020-04-10T09:00:00",
      "link": ""
    },
    {
      "id": 470170,
      "lat": 31.675718885,
      "lon": 34.558126859,
      "label": "דיור מוגן \"זהבית\" - אשקלון",
      "text": "",
      "stayTimes": "08:00 - 08:30",
      "t_start": "2020-04-16T06:00:00",
      "t_end": "2020-04-16T06:30:00",
      "link": ""
    },
    {
      "id": 470171,
      "lat": 31.9090748,
      "lon": 34.7988794,
      "label": "בית אבות נווה עמית רחובות - רחובות",
      "text": "",
      "stayTimes": "07:00 - 17:00",
      "t_start": "2020-04-14T05:00:00",
      "t_end": "2020-04-14T15:00:00",
      "link": ""
    },
    {
      "id": 470172,
      "lat": 32.0493981000001,
      "lon": 34.8470237000001,
      "label": "בית אבות \"גיל -עד\" בתוך מרכז רפאוי שיבא - רמת גן",
      "text": "",
      "stayTimes": "08:00 - 12:00",
      "t_start": "2020-04-10T06:00:00",
      "t_end": "2020-04-10T10:00:00",
      "link": ""
    },
    {
      "id": 470173,
      "lat": 31.7894889,
      "lon": 35.2119479,
      "label": "סופר חסד - ירושלים",
      "text": "",
      "stayTimes": "10:00 - 10:30",
      "t_start": "2020-04-10T08:00:00",
      "t_end": "2020-04-10T08:30:00",
      "link": ""
    },
    {
      "id": 470174,
      "lat": 31.9044489090001,
      "lon": 34.8119173950001,
      "label": "מכולת פינחסוב - רחובות",
      "text": "",
      "stayTimes": "12:30 - 12:40",
      "t_start": "2020-04-14T10:30:00",
      "t_end": "2020-04-14T10:40:00",
      "link": ""
    },
    {
      "id": 470175,
      "lat": 31.801784264,
      "lon": 34.6453257330001,
      "label": "ארן זלמן 4, אשדוד",
      "text": "",
      "stayTimes": "14:30 - 14:50",
      "t_start": "2020-04-10T12:30:00",
      "t_end": "2020-04-10T12:50:00",
      "link": ""
    },
    {
      "id": 470176,
      "lat": 31.7962880000001,
      "lon": 34.6481630000001,
      "label": "ילסייבסקי - אשדוד",
      "text": "",
      "stayTimes": "11:00 - 12:00",
      "t_start": "2020-04-12T09:00:00",
      "t_end": "2020-04-12T10:00:00",
      "link": ""
    },
    {
      "id": 470177,
      "lat": 31.8030403000001,
      "lon": 35.2161090000001,
      "label": "מעון הורים שומרי החומות - ירושלים",
      "text": "",
      "stayTimes": "07:00 - 16:00",
      "t_start": "2020-04-10T05:00:00",
      "t_end": "2020-04-10T14:00:00",
      "link": ""
    },
    {
      "id": 470178,
      "lat": 31.8030403000001,
      "lon": 35.2161090000001,
      "label": "מעון הורים שומרי החומות - ירושלים",
      "text": "",
      "stayTimes": "07:00 - 16:00",
      "t_start": "2020-04-12T05:00:00",
      "t_end": "2020-04-12T14:00:00",
      "link": ""
    },
    {
      "id": 470179,
      "lat": 31.8030403000001,
      "lon": 35.2161090000001,
      "label": "מעון הורים שומרי החומות - ירושלים",
      "text": "",
      "stayTimes": "00:00 - 07:00",
      "t_start": "2020-04-09T22:00:00",
      "t_end": "2020-04-10T05:00:00",
      "link": ""
    },
    {
      "id": 470180,
      "lat": 31.8030403000001,
      "lon": 35.2161090000001,
      "label": "מעון הורים שומרי החומות - ירושלים",
      "text": "",
      "stayTimes": "15:00 - 23:30",
      "t_start": "2020-04-10T13:00:00",
      "t_end": "2020-04-10T21:30:00",
      "link": ""
    },
    {
      "id": 470181,
      "lat": 31.8030403000001,
      "lon": 35.2161090000001,
      "label": "מעון הורים שומרי החומות - ירושלים",
      "text": "",
      "stayTimes": "00:00 - 07:00",
      "t_start": "2020-04-10T22:00:00",
      "t_end": "2020-04-11T05:00:00",
      "link": ""
    },
    {
      "id": 470182,
      "lat": 31.8030403000001,
      "lon": 35.2161090000001,
      "label": "מעון הורים שומרי החומות - ירושלים",
      "text": "",
      "stayTimes": "15:00 - 23:30",
      "t_start": "2020-04-11T13:00:00",
      "t_end": "2020-04-11T21:30:00",
      "link": ""
    },
    {
      "id": 470183,
      "lat": 31.8030403000001,
      "lon": 35.2161090000001,
      "label": "מעון הורים שומרי החומות - ירושלים",
      "text": "",
      "stayTimes": "00:00 - 07:00",
      "t_start": "2020-04-11T22:00:00",
      "t_end": "2020-04-12T05:00:00",
      "link": ""
    },
    {
      "id": 470184,
      "lat": 31.8030403000001,
      "lon": 35.2161090000001,
      "label": "מעון הורים שומרי החומות - ירושלים",
      "text": "",
      "stayTimes": "15:00 - 23:30",
      "t_start": "2020-04-12T13:00:00",
      "t_end": "2020-04-12T21:30:00",
      "link": ""
    },
    {
      "id": 470185,
      "lat": 31.8030403000001,
      "lon": 35.2161090000001,
      "label": "מעון הורים שומרי החומות - ירושלים",
      "text": "",
      "stayTimes": "00:00 - 07:00",
      "t_start": "2020-04-12T22:00:00",
      "t_end": "2020-04-13T05:00:00",
      "link": ""
    },
    {
      "id": 470186,
      "lat": 31.9032880880001,
      "lon": 34.8123613600001,
      "label": "שופרסל אקספרס - רחובות",
      "text": "",
      "stayTimes": "06:30 - 06:40",
      "t_start": "2020-04-10T04:30:00",
      "t_end": "2020-04-10T04:40:00",
      "link": ""
    },
    {
      "id": 470187,
      "lat": 32.7130058700001,
      "lon": 35.3357284310001,
      "label": "רשת המזון\"MERKAZA\" - נוף הגליל",
      "text": "",
      "stayTimes": "12:00 - 13:00",
      "t_start": "2020-04-11T10:00:00",
      "t_end": "2020-04-11T11:00:00",
      "link": ""
    },
    {
      "id": 470188,
      "lat": 31.6757736690001,
      "lon": 34.5581590460001,
      "label": "דיור מוגן זהבית - אשקלון",
      "text": "",
      "stayTimes": "08:00 - 08:30",
      "t_start": "2020-04-16T06:00:00",
      "t_end": "2020-04-16T06:30:00",
      "link": ""
    },
    {
      "id": 470189,
      "lat": 32.048746506,
      "lon": 34.8427672490001,
      "label": "בית חולים שיבא מעון יולדות - רמת גן",
      "text": "",
      "stayTimes": "12:00 - 17:00",
      "t_start": "2020-04-15T10:00:00",
      "t_end": "2020-04-15T15:00:00",
      "link": ""
    },
    {
      "id": 470190,
      "lat": 31.9347997570001,
      "lon": 35.0422293330001,
      "label": "סופר ברכול - מודיעין עילית",
      "text": "",
      "stayTimes": "13:30 - 14:00",
      "t_start": "2020-04-14T11:30:00",
      "t_end": "2020-04-14T12:00:00",
      "link": ""
    },
    {
      "id": 470191,
      "lat": 31.712761469,
      "lon": 34.98786391,
      "label": "שירותי בריאות כללית - מרפאת דונה - בית שמש",
      "text": "",
      "stayTimes": "08:00 - 09:00",
      "t_start": "2020-04-12T06:00:00",
      "t_end": "2020-04-12T07:00:00",
      "link": ""
    },
    {
      "id": 470192,
      "lat": 32.7130058700001,
      "lon": 35.3357284310001,
      "label": "רשת מזון\"MERKAZA\" - נוף הגליל",
      "text": "",
      "stayTimes": "12:00 - 13:00",
      "t_start": "2020-04-11T10:00:00",
      "t_end": "2020-04-11T11:00:00",
      "link": ""
    },
    {
      "id": 470193,
      "lat": 32.072166958,
      "lon": 35.269100134,
      "label": "קניונית, סופר מרקט - עלי",
      "text": "",
      "stayTimes": "10:30 - 12:00",
      "t_start": "2020-04-10T08:30:00",
      "t_end": "2020-04-10T10:00:00",
      "link": ""
    },
    {
      "id": 470194,
      "lat": 31.8135049000001,
      "lon": 34.6500062000001,
      "label": "בית הדר, מחלקת מונשמים ג' - אשדוד",
      "text": "",
      "stayTimes": "10:30 - 11:00",
      "t_start": "2020-04-14T08:30:00",
      "t_end": "2020-04-14T09:00:00",
      "link": ""
    },
    {
      "id": 470195,
      "lat": 31.7510800000001,
      "lon": 35.1906304,
      "label": "אצטדיון טדי - ירושלים",
      "text": "",
      "stayTimes": "10:30 - 11:30",
      "t_start": "2020-04-10T08:30:00",
      "t_end": "2020-04-10T09:30:00",
      "link": ""
    },
    {
      "id": 470196,
      "lat": 31.8030403000001,
      "lon": 35.2161090000001,
      "label": "מעון הורים שומרי החומות - ירושלים",
      "text": "",
      "stayTimes": "07:00 - 14:00",
      "t_start": "2020-04-12T05:00:00",
      "t_end": "2020-04-12T12:00:00",
      "link": ""
    },
    {
      "id": 470197,
      "lat": 33.0327904000001,
      "lon": 35.1034588000001,
      "label": "רמי לוי - נהריה",
      "text": "",
      "stayTimes": "08:00 - 09:00",
      "t_start": "2020-04-10T06:00:00",
      "t_end": "2020-04-10T07:00:00",
      "link": ""
    },
    {
      "id": 470198,
      "lat": 32.0897795710001,
      "lon": 34.886604248,
      "label": "\"מרכז הפרי והירק\" - פתח תקווה",
      "text": "",
      "stayTimes": "12:00 - 13:00",
      "t_start": "2020-04-12T10:00:00",
      "t_end": "2020-04-12T11:00:00",
      "link": ""
    },
    {
      "id": 470199,
      "lat": 32.091445053,
      "lon": 34.893222731,
      "label": "סופרסל \"אקספרס\" - פתח תקווה",
      "text": "",
      "stayTimes": "13:00 - 14:00",
      "t_start": "2020-04-12T11:00:00",
      "t_end": "2020-04-12T12:00:00",
      "link": ""
    },
    {
      "id": 470200,
      "lat": 32.091445053,
      "lon": 34.893222731,
      "label": "סופרסל \"אקספרס\" - פתח תקווה",
      "text": "",
      "stayTimes": "15:00 - 15:30",
      "t_start": "2020-04-10T13:00:00",
      "t_end": "2020-04-10T13:30:00",
      "link": ""
    },
    {
      "id": 470201,
      "lat": 31.6743269340001,
      "lon": 34.5583682710001,
      "label": "סופר הטייסים - אשקלון",
      "text": "",
      "stayTimes": "11:00 - 11:30",
      "t_start": "2020-04-16T09:00:00",
      "t_end": "2020-04-16T09:30:00",
      "link": ""
    },
    {
      "id": 470202,
      "lat": 31.668080349,
      "lon": 34.557433486,
      "label": "סיטי רחמים - אשקלון",
      "text": "",
      "stayTimes": "11:30 - 12:30",
      "t_start": "2020-04-13T09:30:00",
      "t_end": "2020-04-13T10:30:00",
      "link": ""
    },
    {
      "id": 470203,
      "lat": 31.788231066,
      "lon": 35.2212232360001,
      "label": "חנות זול בגדול - ירושלים",
      "text": "",
      "stayTimes": "15:00 - 15:30",
      "t_start": "2020-04-13T13:00:00",
      "t_end": "2020-04-13T13:30:00",
      "link": ""
    },
    {
      "id": 470204,
      "lat": 31.7952268990001,
      "lon": 35.2335887200001,
      "label": "קופת חולים כללית סניף שייך גראח - ירושלים",
      "text": "",
      "stayTimes": "09:30 - 10:00",
      "t_start": "2020-04-12T07:30:00",
      "t_end": "2020-04-12T08:00:00",
      "link": ""
    },
    {
      "id": 470205,
      "lat": 31.7934557720001,
      "lon": 35.2054927350001,
      "label": "בית אבות גני אורה - ירושלים",
      "text": "",
      "stayTimes": "08:00 - 15:00",
      "t_start": "2020-04-10T06:00:00",
      "t_end": "2020-04-10T13:00:00",
      "link": ""
    },
    {
      "id": 470206,
      "lat": 31.8030403000001,
      "lon": 35.2161090000001,
      "label": "בית אבות \" מעון הורים\" - ירושלים",
      "text": "",
      "stayTimes": "08:00 - 23:30",
      "t_start": "2020-04-12T06:00:00",
      "t_end": "2020-04-12T21:30:00",
      "link": ""
    },
    {
      "id": 470207,
      "lat": 31.6577452000001,
      "lon": 34.5884741,
      "label": "טיב טעם - אשקלון",
      "text": "",
      "stayTimes": "14:30 - 15:30",
      "t_start": "2020-04-15T12:30:00",
      "t_end": "2020-04-15T13:30:00",
      "link": ""
    },
    {
      "id": 470208,
      "lat": 31.6743269340001,
      "lon": 34.5583682710001,
      "label": "חנות אוכל טייסים - אשקלון",
      "text": "",
      "stayTimes": "13:00 - 13:30",
      "t_start": "2020-04-15T11:00:00",
      "t_end": "2020-04-15T11:30:00",
      "link": ""
    },
    {
      "id": 470209,
      "lat": 31.6757736690001,
      "lon": 34.558126859,
      "label": "דיור מוגן זהבית - אשקלון",
      "text": "",
      "stayTimes": "08:00 - 23:30",
      "t_start": "2020-04-15T06:00:00",
      "t_end": "2020-04-15T21:30:00",
      "link": ""
    },
    {
      "id": 470210,
      "lat": 31.8161982450001,
      "lon": 35.1913211400001,
      "label": "סופר נוח - ירושלים",
      "text": "",
      "stayTimes": "10:00 - 10:30",
      "t_start": "2020-04-13T08:00:00",
      "t_end": "2020-04-13T08:30:00",
      "link": ""
    },
    {
      "id": 470211,
      "lat": 31.8168660000001,
      "lon": 35.1949220000001,
      "label": "שוק העיר סופר - ירושלים",
      "text": "",
      "stayTimes": "11:00 - 12:00",
      "t_start": "2020-04-12T09:00:00",
      "t_end": "2020-04-12T10:00:00",
      "link": ""
    },
    {
      "id": 470212,
      "lat": 31.8162614660001,
      "lon": 35.2026989140001,
      "label": "קופת חולים כללית רמות א - ירושלים",
      "text": "",
      "stayTimes": "11:00 - 11:30",
      "t_start": "2020-04-13T09:00:00",
      "t_end": "2020-04-13T09:30:00",
      "link": ""
    },
    {
      "id": 470213,
      "lat": 31.746205118,
      "lon": 34.9999872510001,
      "label": "זול ובגדול - בית שמש",
      "text": "",
      "stayTimes": "11:00 - 11:30",
      "t_start": "2020-04-16T09:00:00",
      "t_end": "2020-04-16T09:30:00",
      "link": ""
    },
    {
      "id": 470214,
      "lat": 31.7855956670001,
      "lon": 35.2256001110001,
      "label": "מרפאת מאוחדת - ירושלים",
      "text": "",
      "stayTimes": "13:00 - 13:30",
      "t_start": "2020-04-13T11:00:00",
      "t_end": "2020-04-13T11:30:00",
      "link": ""
    },
    {
      "id": 470215,
      "lat": 31.786257753,
      "lon": 35.1836297,
      "label": "מוסך מאפיית \"ברמן\" - ירושלים",
      "text": "",
      "stayTimes": "07:30 - 16:30",
      "t_start": "2020-04-16T05:30:00",
      "t_end": "2020-04-16T14:30:00",
      "link": ""
    },
    {
      "id": 470216,
      "lat": 31.7672563,
      "lon": 35.3014487,
      "label": "יינות ביתן - מעלה אדומים",
      "text": "",
      "stayTimes": "21:30 - 22:00",
      "t_start": "2020-04-12T19:30:00",
      "t_end": "2020-04-12T20:00:00",
      "link": ""
    },
    {
      "id": 470217,
      "lat": 32.9469460930001,
      "lon": 35.174164638,
      "label": "מרכז מזון ירכא - ירכא",
      "text": "",
      "stayTimes": "10:00 - 13:00",
      "t_start": "2020-04-11T08:00:00",
      "t_end": "2020-04-11T11:00:00",
      "link": ""
    },
    {
      "id": 470218,
      "lat": 32.9469460930001,
      "lon": 35.174164638,
      "label": "מרכז המזון ירכא - ירכא",
      "text": "",
      "stayTimes": "10:00 - 13:00",
      "t_start": "2020-04-11T08:00:00",
      "t_end": "2020-04-11T11:00:00",
      "link": ""
    },
    {
      "id": 470219,
      "lat": 31.793497605,
      "lon": 35.205474683,
      "label": "בית אבות גני אורה - ירושלים",
      "text": "",
      "stayTimes": "08:00 - 08:30",
      "t_start": "2020-04-15T06:00:00",
      "t_end": "2020-04-15T06:30:00",
      "link": ""
    },
    {
      "id": 470220,
      "lat": 32.4376137,
      "lon": 34.9222913,
      "label": "ויקטורי בתוך קהיון חדרה - חדרה",
      "text": "",
      "stayTimes": "12:30 - 14:00",
      "t_start": "2020-04-12T10:30:00",
      "t_end": "2020-04-12T12:00:00",
      "link": ""
    },
    {
      "id": 470221,
      "lat": 32.6486540000001,
      "lon": 35.288241,
      "label": "בית אבות אור העמק - מזרע",
      "text": "",
      "stayTimes": "07:15 - 17:30",
      "t_start": "2020-04-13T05:15:00",
      "t_end": "2020-04-13T15:30:00",
      "link": ""
    },
    {
      "id": 470222,
      "lat": 32.9202623300001,
      "lon": 35.0925282060001,
      "label": "סופרמרקט ויקטורי - עכו",
      "text": "",
      "stayTimes": "14:30 - 15:30",
      "t_start": "2020-04-10T12:30:00",
      "t_end": "2020-04-10T13:30:00",
      "link": ""
    },
    {
      "id": 470223,
      "lat": 32.9198531220001,
      "lon": 35.092241195,
      "label": "סופרמרקט ויקטורי - עכו",
      "text": "",
      "stayTimes": "17:00 - 18:00",
      "t_start": "2020-04-13T15:00:00",
      "t_end": "2020-04-13T16:00:00",
      "link": ""
    },
    {
      "id": 470224,
      "lat": 32.0790865270001,
      "lon": 34.840483497,
      "label": "סופר \"יש חסד \" - בני ברק",
      "text": "",
      "stayTimes": "18:00 - 19:00",
      "t_start": "2020-04-14T16:00:00",
      "t_end": "2020-04-14T17:00:00",
      "link": ""
    },
    {
      "id": 470225,
      "lat": 32.9345874040001,
      "lon": 35.268433067,
      "label": "בית מטבחיים דבאח בדיראלאסד - דייר אל-אסד",
      "text": "",
      "stayTimes": "10:00 - 15:00",
      "t_start": "2020-04-12T08:00:00",
      "t_end": "2020-04-12T13:00:00",
      "link": ""
    },
    {
      "id": 470226,
      "lat": 31.894559746,
      "lon": 34.8040664160001,
      "label": "רמז מרכז מקצועי קופ\"ח כללית - רחובות",
      "text": "",
      "stayTimes": "08:00 - 08:30",
      "t_start": "2020-04-13T06:00:00",
      "t_end": "2020-04-13T06:30:00",
      "link": ""
    },
    {
      "id": 470227,
      "lat": 32.9345874040001,
      "lon": 35.268433067,
      "label": "חצר קניון דבאח - דייר אל-אסד",
      "text": "",
      "stayTimes": "13:30 - 14:30",
      "t_start": "2020-04-14T11:30:00",
      "t_end": "2020-04-14T12:30:00",
      "link": ""
    },
    {
      "id": 470228,
      "lat": 31.789385764,
      "lon": 34.6649219500001,
      "label": "סופר נתיב החסד - אשדוד",
      "text": "",
      "stayTimes": "12:30 - 13:30",
      "t_start": "2020-04-13T10:30:00",
      "t_end": "2020-04-13T11:30:00",
      "link": ""
    },
    {
      "id": 470229,
      "lat": 31.810927,
      "lon": 34.6560819000001,
      "label": "טיב טעם - אשדוד",
      "text": "",
      "stayTimes": "08:00 - 09:15",
      "t_start": "2020-04-12T06:00:00",
      "t_end": "2020-04-12T07:15:00",
      "link": ""
    },
    {
      "id": 470230,
      "lat": 31.7849069870001,
      "lon": 34.659511062,
      "label": "יינות ביתן - אשדוד",
      "text": "",
      "stayTimes": "08:00 - 09:00",
      "t_start": "2020-04-13T06:00:00",
      "t_end": "2020-04-13T07:00:00",
      "link": ""
    },
    {
      "id": 470231,
      "lat": 31.7849069870001,
      "lon": 34.659511062,
      "label": "יינות ביתן - אשדוד",
      "text": "",
      "stayTimes": "13:00 - 14:00",
      "t_start": "2020-04-10T11:00:00",
      "t_end": "2020-04-10T12:00:00",
      "link": ""
    },
    {
      "id": 470232,
      "lat": 32.0852925070001,
      "lon": 34.8116566630001,
      "label": "סופרסל שלי בקניון - רמת גן",
      "text": "",
      "stayTimes": "15:30 - 15:40",
      "t_start": "2020-04-14T13:30:00",
      "t_end": "2020-04-14T13:40:00",
      "link": ""
    },
    {
      "id": 470233,
      "lat": 32.9613728670001,
      "lon": 35.4952217640001,
      "label": "קופת חולים כללית מרכז - צפת",
      "text": "",
      "stayTimes": "12:30 - 13:00",
      "t_start": "2020-04-12T10:30:00",
      "t_end": "2020-04-12T11:00:00",
      "link": ""
    },
    {
      "id": 470234,
      "lat": 32.621038034,
      "lon": 35.3165950600001,
      "label": "בית חולים עפולה , מחלקת טיפול נמרץ - עפולה",
      "text": "",
      "stayTimes": "08:00 - 08:30",
      "t_start": "2020-04-14T06:00:00",
      "t_end": "2020-04-14T06:30:00",
      "link": ""
    },
    {
      "id": 470235,
      "lat": 31.3733931,
      "lon": 34.8092845,
      "label": "מחסני השוק להבים - להבים",
      "text": "",
      "stayTimes": "11:00 - 11:30",
      "t_start": "2020-04-16T09:00:00",
      "t_end": "2020-04-16T09:30:00",
      "link": ""
    },
    {
      "id": 470236,
      "lat": 31.7949201380001,
      "lon": 34.6399715370001,
      "label": "סופרפארם - אשדוד",
      "text": "",
      "stayTimes": "20:30 - 21:00",
      "t_start": "2020-04-14T18:30:00",
      "t_end": "2020-04-14T19:00:00",
      "link": ""
    },
    {
      "id": 470237,
      "lat": 32.1823231000001,
      "lon": 34.8954868000001,
      "label": "בי\"ח מאיר- יחידה זיהומולוגית - כפר סבא",
      "text": "",
      "stayTimes": "08:30 - 09:00",
      "t_start": "2020-04-17T06:30:00",
      "t_end": "2020-04-17T07:00:00",
      "link": ""
    },
    {
      "id": 470238,
      "lat": 32.1841665000001,
      "lon": 34.8531795000001,
      "label": "סופר פארם - רעננה",
      "text": "",
      "stayTimes": "18:15 - 18:30",
      "t_start": "2020-04-16T16:15:00",
      "t_end": "2020-04-16T16:30:00",
      "link": ""
    },
    {
      "id": 470239,
      "lat": 32.1836543000001,
      "lon": 34.8530601000001,
      "label": "טיב טעם - רעננה",
      "text": "",
      "stayTimes": "19:00 - 19:30",
      "t_start": "2020-04-16T17:00:00",
      "t_end": "2020-04-16T17:30:00",
      "link": ""
    },
    {
      "id": 470240,
      "lat": 32.189621749,
      "lon": 34.854761931,
      "label": "עמנואל - רעננה",
      "text": "",
      "stayTimes": "15:00 - 15:15",
      "t_start": "2020-04-14T13:00:00",
      "t_end": "2020-04-14T13:15:00",
      "link": ""
    },
    {
      "id": 470241,
      "lat": 32.986226855,
      "lon": 35.0958594580001,
      "label": "שוק פייסל הגדול - מזרעה",
      "text": "",
      "stayTimes": "16:00 - 18:00",
      "t_start": "2020-04-13T14:00:00",
      "t_end": "2020-04-13T16:00:00",
      "link": ""
    },
    {
      "id": 470242,
      "lat": 32.986226855,
      "lon": 35.0958594580001,
      "label": "שוק פייסל הגדול - מזרעה",
      "text": "",
      "stayTimes": "16:00 - 18:00",
      "t_start": "2020-04-13T14:00:00",
      "t_end": "2020-04-13T16:00:00",
      "link": ""
    },
    {
      "id": 470243,
      "lat": 31.2700671310001,
      "lon": 34.796756788,
      "label": "מגה בעיר - באר שבע",
      "text": "",
      "stayTimes": "12:00 - 14:00",
      "t_start": "2020-04-13T10:00:00",
      "t_end": "2020-04-13T12:00:00",
      "link": ""
    },
    {
      "id": 470244,
      "lat": 31.2700671310001,
      "lon": 34.796756788,
      "label": "מכולת הכוכב - באר שבע",
      "text": "",
      "stayTimes": "12:00 - 13:00",
      "t_start": "2020-04-14T10:00:00",
      "t_end": "2020-04-14T11:00:00",
      "link": ""
    },
    {
      "id": 470245,
      "lat": 31.975751874,
      "lon": 34.8078484320001,
      "label": "סופרפארם - ראשון לציון",
      "text": "",
      "stayTimes": "12:00 - 12:30",
      "t_start": "2020-04-11T10:00:00",
      "t_end": "2020-04-11T10:30:00",
      "link": ""
    },
    {
      "id": 470246,
      "lat": 32.9254181970001,
      "lon": 35.3130105340001,
      "label": "KING STORE - כרמיאל",
      "text": "",
      "stayTimes": "14:30 - 15:15",
      "t_start": "2020-04-12T12:30:00",
      "t_end": "2020-04-12T13:15:00",
      "link": ""
    },
    {
      "id": 470247,
      "lat": 32.1810270340001,
      "lon": 34.8948060590001,
      "label": "מיון בית חולים מאיר - כפר סבא",
      "text": "",
      "stayTimes": "20:00 - 23:30",
      "t_start": "2020-04-13T18:00:00",
      "t_end": "2020-04-13T21:30:00",
      "link": ""
    },
    {
      "id": 470248,
      "lat": 32.09055499,
      "lon": 34.867065283,
      "label": "מיון בית חולים בלינסון - פתח תקווה",
      "text": "",
      "stayTimes": "13:00 - 23:30",
      "t_start": "2020-04-16T11:00:00",
      "t_end": "2020-04-16T21:30:00",
      "link": ""
    },
    {
      "id": 470249,
      "lat": 31.7949197,
      "lon": 34.6399758000001,
      "label": "סופר פארם - אשדוד",
      "text": "",
      "stayTimes": "20:30 - 21:00",
      "t_start": "2020-04-14T18:30:00",
      "t_end": "2020-04-14T19:00:00",
      "link": ""
    },
    {
      "id": 470250,
      "lat": 33.0083233,
      "lon": 35.1171239,
      "label": "בי\"ח נהריה מיון - נהריה",
      "text": "",
      "stayTimes": "11:30 - 13:30",
      "t_start": "2020-04-11T09:30:00",
      "t_end": "2020-04-11T11:30:00",
      "link": ""
    },
    {
      "id": 470251,
      "lat": 32.232983893,
      "lon": 34.9755923590001,
      "label": "\"ירקות ממדוח\" - טירה",
      "text": "",
      "stayTimes": "09:30 - 09:40",
      "t_start": "2020-04-17T07:30:00",
      "t_end": "2020-04-17T07:40:00",
      "link": ""
    },
    {
      "id": 470252,
      "lat": 32.9244205520001,
      "lon": 35.276957511,
      "label": "סופרמרקט- דבאח ובניו - דייר אל-אסד",
      "text": "",
      "stayTimes": "15:00 - 22:30",
      "t_start": "2020-04-10T13:00:00",
      "t_end": "2020-04-10T20:30:00",
      "link": ""
    },
    {
      "id": 470253,
      "lat": 32.924456574,
      "lon": 35.2769575130001,
      "label": "סופרמרקט- דבאח ובניו - דייר אל-אסד",
      "text": "",
      "stayTimes": "07:00 - 15:30",
      "t_start": "2020-04-11T05:00:00",
      "t_end": "2020-04-11T13:30:00",
      "link": ""
    },
    {
      "id": 470254,
      "lat": 32.924240438,
      "lon": 35.2767429360001,
      "label": "סופרמרקט- דבאח ובניו - דייר אל-אסד",
      "text": "",
      "stayTimes": "08:00 - 15:30",
      "t_start": "2020-04-14T06:00:00",
      "t_end": "2020-04-14T13:30:00",
      "link": ""
    },
    {
      "id": 470255,
      "lat": 32.9238802100001,
      "lon": 35.277418852,
      "label": "סופרמרקט- דאבאח ובניו - דייר אל-אסד",
      "text": "",
      "stayTimes": "15:00 - 20:30",
      "t_start": "2020-04-15T13:00:00",
      "t_end": "2020-04-15T18:30:00",
      "link": ""
    },
    {
      "id": 470256,
      "lat": 32.9230336680001,
      "lon": 35.27955389,
      "label": "סופרמרקט- דבאח ובניו - דייר אל-אסד",
      "text": "",
      "stayTimes": "12:30 - 21:00",
      "t_start": "2020-04-16T10:30:00",
      "t_end": "2020-04-16T19:00:00",
      "link": ""
    },
    {
      "id": 470257,
      "lat": 32.9244025410001,
      "lon": 35.276978969,
      "label": "סופרמרקט- דבאח ובניו - דייר אל-אסד",
      "text": "",
      "stayTimes": "15:00 - 18:00",
      "t_start": "2020-04-17T13:00:00",
      "t_end": "2020-04-17T16:00:00",
      "link": ""
    },
    {
      "id": 470258,
      "lat": 31.7135938260001,
      "lon": 34.9981497320001,
      "label": "בסט סופר - בית שמש",
      "text": "",
      "stayTimes": "21:30 - 22:30",
      "t_start": "2020-04-15T19:30:00",
      "t_end": "2020-04-15T20:30:00",
      "link": ""
    },
    {
      "id": 470259,
      "lat": 31.801014567,
      "lon": 34.647436731,
      "label": "בית מרקחת \"לאומית\" - אשדוד",
      "text": "",
      "stayTimes": "11:00 - 12:00",
      "t_start": "2020-04-13T09:00:00",
      "t_end": "2020-04-13T10:00:00",
      "link": ""
    },
    {
      "id": 470260,
      "lat": 32.6486540000001,
      "lon": 35.288241,
      "label": "בית אבות אור העמק - מזרע",
      "text": "",
      "stayTimes": "09:00 - 13:00",
      "t_start": "2020-04-12T07:00:00",
      "t_end": "2020-04-12T11:00:00",
      "link": ""
    },
    {
      "id": 470261,
      "lat": 32.1823231000001,
      "lon": 34.8954868000001,
      "label": "בי\"ח מאיר- מחלקה פנימית ד' - כפר סבא",
      "text": "",
      "stayTimes": "07:00 - 19:00",
      "t_start": "2020-04-15T05:00:00",
      "t_end": "2020-04-15T17:00:00",
      "link": ""
    },
    {
      "id": 470262,
      "lat": 32.028290579,
      "lon": 34.7483266520001,
      "label": "בי\"ח שיקומי בית בלב - בת ים",
      "text": "",
      "stayTimes": "10:00 - 11:00",
      "t_start": "2020-04-17T08:00:00",
      "t_end": "2020-04-17T09:00:00",
      "link": ""
    },
    {
      "id": 470263,
      "lat": 32.1823231000001,
      "lon": 34.8954868000001,
      "label": "בי\"ח מאיר- מחלקה פנימית ד' - כפר סבא",
      "text": "",
      "stayTimes": "07:00 - 19:00",
      "t_start": "2020-04-12T05:00:00",
      "t_end": "2020-04-12T17:00:00",
      "link": ""
    },
    {
      "id": 470264,
      "lat": 32.1823231000001,
      "lon": 34.8954868000001,
      "label": "בי\"ח מאיר- מחלקה פנימית ד' - כפר סבא",
      "text": "",
      "stayTimes": "07:00 - 19:00",
      "t_start": "2020-04-10T05:00:00",
      "t_end": "2020-04-10T17:00:00",
      "link": ""
    },
    {
      "id": 470265,
      "lat": 32.181691662,
      "lon": 34.8960960370001,
      "label": "רשת BE פארם - כפר סבא",
      "text": "",
      "stayTimes": "09:05 - 09:10",
      "t_start": "2020-04-17T07:05:00",
      "t_end": "2020-04-17T07:10:00",
      "link": ""
    },
    {
      "id": 470266,
      "lat": 32.9243927000001,
      "lon": 35.2769814000001,
      "label": "קניון דבאח - דייר אל-אסד",
      "text": "",
      "stayTimes": "12:00 - 14:30",
      "t_start": "2020-04-10T10:00:00",
      "t_end": "2020-04-10T12:30:00",
      "link": ""
    },
    {
      "id": 470267,
      "lat": 32.9235495,
      "lon": 35.3140916,
      "label": "מפעל דבאח בכרמיאל - כרמיאל",
      "text": "",
      "stayTimes": "07:00 - 18:00",
      "t_start": "2020-04-15T05:00:00",
      "t_end": "2020-04-15T16:00:00",
      "link": ""
    },
    {
      "id": 470268,
      "lat": 32.0452360780001,
      "lon": 34.842521306,
      "label": "בית חולים שיב\"א מחלקה פנימית - רמת גן",
      "text": "",
      "stayTimes": "07:00 - 19:00",
      "t_start": "2020-04-12T05:00:00",
      "t_end": "2020-04-12T17:00:00",
      "link": ""
    },
    {
      "id": 470269,
      "lat": 31.8153024150001,
      "lon": 35.2149615700001,
      "label": "הוסטל הלב והמעין רמת שלמה - ירושלים",
      "text": "",
      "stayTimes": "13:30 - 21:30",
      "t_start": "2020-04-16T11:30:00",
      "t_end": "2020-04-16T19:30:00",
      "link": ""
    },
    {
      "id": 470270,
      "lat": 32.182385713,
      "lon": 34.895502509,
      "label": "מיון נשימתי בי\"ח מאיר - כפר סבא",
      "text": "",
      "stayTimes": "18:30 - 23:59",
      "t_start": "2020-04-18T16:30:00",
      "t_end": "2020-04-18T21:59:00",
      "link": ""
    },
    {
      "id": 470271,
      "lat": 31.6928544,
      "lon": 35.1096686000001,
      "label": "חסד לאלפים - ביתר עילית",
      "text": "",
      "stayTimes": "02:00 - 03:00",
      "t_start": "2020-04-16T00:00:00",
      "t_end": "2020-04-16T01:00:00",
      "link": ""
    },
    {
      "id": 470272,
      "lat": 31.6904939,
      "lon": 35.1084599000001,
      "label": "שפע ברכת ה' - ביתר עילית",
      "text": "",
      "stayTimes": "10:00 - 10:30",
      "t_start": "2020-04-12T08:00:00",
      "t_end": "2020-04-12T08:30:00",
      "link": ""
    },
    {
      "id": 470273,
      "lat": 31.41472,
      "lon": 34.578362,
      "label": "בית כנסת קול יעקוב - נתיבות",
      "text": "",
      "stayTimes": "13:00 - 15:30",
      "t_start": "2020-04-16T11:00:00",
      "t_end": "2020-04-16T13:30:00",
      "link": ""
    },
    {
      "id": 470274,
      "lat": 32.0256611360001,
      "lon": 34.7573726840001,
      "label": "בית חולים אברבנל - בת ים",
      "text": "",
      "stayTimes": "00:00 - 23:59",
      "t_start": "2020-04-09T22:00:00",
      "t_end": "2020-04-10T21:59:00",
      "link": ""
    },
    {
      "id": 470275,
      "lat": 32.0756564980001,
      "lon": 34.8363558280001,
      "label": "סופר ברכה - בני ברק",
      "text": "",
      "stayTimes": "11:00 - 11:30",
      "t_start": "2020-04-14T09:00:00",
      "t_end": "2020-04-14T09:30:00",
      "link": ""
    },
    {
      "id": 470276,
      "lat": 32.057030927,
      "lon": 34.868853019,
      "label": "סופר מגה בעיר - גני תקווה",
      "text": "",
      "stayTimes": "13:00 - 14:30",
      "t_start": "2020-04-10T11:00:00",
      "t_end": "2020-04-10T12:30:00",
      "link": ""
    },
    {
      "id": 470277,
      "lat": 32.057107,
      "lon": 34.8691424,
      "label": "בית מרקחת סופר פארם גבעת סביון - גני תקווה",
      "text": "",
      "stayTimes": "12:15 - 13:00",
      "t_start": "2020-04-14T10:15:00",
      "t_end": "2020-04-14T11:00:00",
      "link": ""
    },
    {
      "id": 470278,
      "lat": 32.0295718300001,
      "lon": 34.845199742,
      "label": "קופ\"ח כללית - אור יהודה",
      "text": "",
      "stayTimes": "10:00 - 12:00",
      "t_start": "2020-04-16T08:00:00",
      "t_end": "2020-04-16T10:00:00",
      "link": ""
    },
    {
      "id": 470279,
      "lat": 32.0862216,
      "lon": 34.8530480000001,
      "label": "סופר ברקת - גבעת שמואל",
      "text": "",
      "stayTimes": "12:00 - 13:00",
      "t_start": "2020-04-17T10:00:00",
      "t_end": "2020-04-17T11:00:00",
      "link": ""
    },
    {
      "id": 470280,
      "lat": 31.7898877640001,
      "lon": 35.193002302,
      "label": "מינימרקט נתן בן יהודה - ירושלים",
      "text": "",
      "stayTimes": "07:00 - 15:00",
      "t_start": "2020-04-10T05:00:00",
      "t_end": "2020-04-10T13:00:00",
      "link": ""
    },
    {
      "id": 470281,
      "lat": 31.8019644,
      "lon": 34.6662224,
      "label": "בית עלמין אשדוד - אשדוד",
      "text": "",
      "stayTimes": "14:30 - 15:30",
      "t_start": "2020-04-10T12:30:00",
      "t_end": "2020-04-10T13:30:00",
      "link": ""
    },
    {
      "id": 470282,
      "lat": 31.697211822,
      "lon": 35.120860248,
      "label": "סופר שפע חיים - ביתר עילית",
      "text": "",
      "stayTimes": "09:00 - 11:00",
      "t_start": "2020-04-16T07:00:00",
      "t_end": "2020-04-16T09:00:00",
      "link": ""
    },
    {
      "id": 470283,
      "lat": 32.6413986200001,
      "lon": 35.3596814090001,
      "label": "\"יכין\" אלון תבור, מחלקת ירקות - עפולה",
      "text": "",
      "stayTimes": "06:30 - 10:30",
      "t_start": "2020-04-16T04:30:00",
      "t_end": "2020-04-16T08:30:00",
      "link": ""
    },
    {
      "id": 470284,
      "lat": 32.621038034,
      "lon": 35.3165950600001,
      "label": "מיון ביח' העמק - עפולה",
      "text": "",
      "stayTimes": "10:30 - 11:30",
      "t_start": "2020-04-16T08:30:00",
      "t_end": "2020-04-16T09:30:00",
      "link": ""
    },
    {
      "id": 470285,
      "lat": 31.7566910000001,
      "lon": 34.98792,
      "label": "\"טרם\" בית שמש - בית שמש",
      "text": "",
      "stayTimes": "22:00 - 23:00",
      "t_start": "2020-04-12T20:00:00",
      "t_end": "2020-04-12T21:00:00",
      "link": ""
    },
    {
      "id": 470286,
      "lat": 32.0799705750001,
      "lon": 34.833529196,
      "label": "ניו פארם - בני ברק",
      "text": "",
      "stayTimes": "13:00 - 13:05",
      "t_start": "2020-04-12T11:00:00",
      "t_end": "2020-04-12T11:05:00",
      "link": ""
    },
    {
      "id": 470287,
      "lat": 32.0129061690001,
      "lon": 34.804263658,
      "label": "מפעל מוצרי נייר דפניר - חולון",
      "text": "",
      "stayTimes": "08:00 - 08:30",
      "t_start": "2020-04-13T06:00:00",
      "t_end": "2020-04-13T06:30:00",
      "link": ""
    },
    {
      "id": 470288,
      "lat": 31.8135049000001,
      "lon": 34.6500062000001,
      "label": "בית הדר - אשדוד",
      "text": "",
      "stayTimes": "11:00 - 11:30",
      "t_start": "2020-04-10T09:00:00",
      "t_end": "2020-04-10T09:30:00",
      "link": ""
    },
    {
      "id": 470289,
      "lat": 31.7841080920001,
      "lon": 34.6528039030001,
      "label": "אסותא כלניות - אשדוד",
      "text": "",
      "stayTimes": "12:00 - 14:00",
      "t_start": "2020-04-14T10:00:00",
      "t_end": "2020-04-14T12:00:00",
      "link": ""
    },
    {
      "id": 470290,
      "lat": 32.7130058700001,
      "lon": 35.3357284310001,
      "label": "מרכאזה - נוף הגליל",
      "text": "",
      "stayTimes": "12:30 - 13:45",
      "t_start": "2020-04-16T10:30:00",
      "t_end": "2020-04-16T11:45:00",
      "link": ""
    },
    {
      "id": 470291,
      "lat": 31.7921206610001,
      "lon": 34.667103533,
      "label": "סופר נתיב החסד - אשדוד",
      "text": "",
      "stayTimes": "09:30 - 10:30",
      "t_start": "2020-04-12T07:30:00",
      "t_end": "2020-04-12T08:30:00",
      "link": ""
    },
    {
      "id": 470292,
      "lat": 31.791654571,
      "lon": 34.668152578,
      "label": "סופר נתיב החסד - אשדוד",
      "text": "",
      "stayTimes": "09:30 - 10:30",
      "t_start": "2020-04-13T07:30:00",
      "t_end": "2020-04-13T08:30:00",
      "link": ""
    },
    {
      "id": 470293,
      "lat": 31.792128765,
      "lon": 34.667103534,
      "label": "סופר נתיב החסד - אשדוד",
      "text": "",
      "stayTimes": "09:30 - 10:30",
      "t_start": "2020-04-15T07:30:00",
      "t_end": "2020-04-15T08:30:00",
      "link": ""
    },
    {
      "id": 470294,
      "lat": 31.7921053800001,
      "lon": 34.667089359,
      "label": "סופר נתיב החסד - אשדוד",
      "text": "",
      "stayTimes": "09:30 - 10:30",
      "t_start": "2020-04-16T07:30:00",
      "t_end": "2020-04-16T08:30:00",
      "link": ""
    },
    {
      "id": 470295,
      "lat": 32.0999678970001,
      "lon": 34.8952338130001,
      "label": "שופרסל דיל - פתח תקווה",
      "text": "",
      "stayTimes": "08:00 - 08:30",
      "t_start": "2020-04-10T06:00:00",
      "t_end": "2020-04-10T06:30:00",
      "link": ""
    },
    {
      "id": 470296,
      "lat": 32.0999678970001,
      "lon": 34.8952338130001,
      "label": "שופרסל דיל - פתח תקווה",
      "text": "",
      "stayTimes": "08:00 - 08:30",
      "t_start": "2020-04-16T06:00:00",
      "t_end": "2020-04-16T06:30:00",
      "link": ""
    },
    {
      "id": 470297,
      "lat": 32.0999678970001,
      "lon": 34.8952338130001,
      "label": "שופרסל דיל - פתח תקווה",
      "text": "",
      "stayTimes": "08:00 - 08:30",
      "t_start": "2020-04-14T06:00:00",
      "t_end": "2020-04-14T06:30:00",
      "link": ""
    },
    {
      "id": 470298,
      "lat": 31.4213816120001,
      "lon": 34.600072927,
      "label": "פיצוחי דני - נתיבות",
      "text": "",
      "stayTimes": "15:00 - 15:30",
      "t_start": "2020-04-14T13:00:00",
      "t_end": "2020-04-14T13:30:00",
      "link": ""
    },
    {
      "id": 470299,
      "lat": 32.1058370000001,
      "lon": 34.8923941,
      "label": "אושר עד - סופר - פתח תקווה",
      "text": "",
      "stayTimes": "08:00 - 08:30",
      "t_start": "2020-04-12T06:00:00",
      "t_end": "2020-04-12T06:30:00",
      "link": ""
    },
    {
      "id": 470300,
      "lat": 32.6933943000001,
      "lon": 35.3034068000001,
      "label": "משהדאוי קינג סטור - נוף הגליל",
      "text": "",
      "stayTimes": "14:00 - 14:45",
      "t_start": "2020-04-16T12:00:00",
      "t_end": "2020-04-16T12:45:00",
      "link": ""
    },
    {
      "id": 470301,
      "lat": 32.0256611360001,
      "lon": 34.7573726840001,
      "label": "בית חולים אברבנל - בת ים",
      "text": "",
      "stayTimes": "00:00 - 23:59",
      "t_start": "2020-04-10T22:00:00",
      "t_end": "2020-04-11T21:59:00",
      "link": ""
    },
    {
      "id": 470302,
      "lat": 32.0256611360001,
      "lon": 34.7573726840001,
      "label": "בית חולים אברבנל - בת ים",
      "text": "",
      "stayTimes": "00:00 - 23:59",
      "t_start": "2020-04-11T22:00:00",
      "t_end": "2020-04-12T21:59:00",
      "link": ""
    },
    {
      "id": 470303,
      "lat": 32.0256611360001,
      "lon": 34.7573726840001,
      "label": "בית חולים אברבנל - בת ים",
      "text": "",
      "stayTimes": "00:00 - 23:59",
      "t_start": "2020-04-12T22:00:00",
      "t_end": "2020-04-13T21:59:00",
      "link": ""
    },
    {
      "id": 470304,
      "lat": 32.0256611360001,
      "lon": 34.7573726840001,
      "label": "בית חולים אברבנל - בת ים",
      "text": "",
      "stayTimes": "00:00 - 23:59",
      "t_start": "2020-04-13T22:00:00",
      "t_end": "2020-04-14T21:59:00",
      "link": ""
    },
    {
      "id": 470305,
      "lat": 32.0256611360001,
      "lon": 34.7573726840001,
      "label": "בית חולים אברבנל - בת ים",
      "text": "",
      "stayTimes": "00:00 - 23:59",
      "t_start": "2020-04-14T22:00:00",
      "t_end": "2020-04-15T21:59:00",
      "link": ""
    },
    {
      "id": 470306,
      "lat": 32.0256611360001,
      "lon": 34.7573726840001,
      "label": "בית חולים אברבנל - בת ים",
      "text": "",
      "stayTimes": "00:00 - 23:59",
      "t_start": "2020-04-15T22:00:00",
      "t_end": "2020-04-16T21:59:00",
      "link": ""
    },
    {
      "id": 470307,
      "lat": 32.0481437330001,
      "lon": 34.8442158660001,
      "label": "בית חולים שיבא,פנימית א - רמת גן",
      "text": "",
      "stayTimes": "00:00 - 07:30",
      "t_start": "2020-04-14T22:00:00",
      "t_end": "2020-04-15T05:30:00",
      "link": ""
    },
    {
      "id": 470308,
      "lat": 32.0482594110001,
      "lon": 34.843937505,
      "label": "בית חולים שיבא,פנימית א - רמת גן",
      "text": "",
      "stayTimes": "07:00 - 19:30",
      "t_start": "2020-04-16T05:00:00",
      "t_end": "2020-04-16T17:30:00",
      "link": ""
    },
    {
      "id": 470309,
      "lat": 32.0482649940001,
      "lon": 34.8439179160001,
      "label": "בית חולים שיבא,פנימית א - רמת גן",
      "text": "",
      "stayTimes": "19:00 - 23:59",
      "t_start": "2020-04-17T17:00:00",
      "t_end": "2020-04-17T21:59:00",
      "link": ""
    },
    {
      "id": 470310,
      "lat": 32.0482649960001,
      "lon": 34.8439345130001,
      "label": "בית חולים שיבא,פנימית א - רמת גן",
      "text": "",
      "stayTimes": "00:00 - 07:30",
      "t_start": "2020-04-17T22:00:00",
      "t_end": "2020-04-18T05:30:00",
      "link": ""
    },
    {
      "id": 470311,
      "lat": 31.7880137970001,
      "lon": 34.6440177630001,
      "label": "מרפאה בבית פרימאק - אשדוד",
      "text": "",
      "stayTimes": "17:30 - 18:30",
      "t_start": "2020-04-16T15:30:00",
      "t_end": "2020-04-16T16:30:00",
      "link": ""
    },