{
  "points": [
    {
      "id": 471550,
      "lat": 32.4381675060001,
      "lon": 34.921736131,
      "label": "סופר ויקטורי  קניון חדרה - חדרה",
      "text": "",
      "stayTimes": "20:00 - 21:00",
      "t_start": "2020-04-13T18:00:00",
      "t_end": "2020-04-13T19:00:00",
      "link": ""
    },
    {
      "id": 471551,
      "lat": 32.4855131,
      "lon": 34.9698419000001,
      "label": "מרכז גריאטרי שוהם - פרדס חנה-כרכור",
      "text": "",
      "stayTimes": "07:00 - 15:00",
      "t_start": "2020-04-13T05:00:00",
      "t_end": "2020-04-13T13:00:00",
      "link": ""
    },
    {
      "id": 471552,
      "lat": 32.4855131,
      "lon": 34.9698419000001,
      "label": "מרכז גריאטרי שוהם - פרדס חנה-כרכור",
      "text": "",
      "stayTimes": "07:00 - 15:00",
      "t_start": "2020-04-11T05:00:00",
      "t_end": "2020-04-11T13:00:00",
      "link": ""
    },
    {
      "id": 471553,
      "lat": 31.7839243650001,
      "lon": 35.211389889,
      "label": "שערי הלכה - ירושלים",
      "text": "",
      "stayTimes": "08:00 - 08:30",
      "t_start": "2020-04-13T06:00:00",
      "t_end": "2020-04-13T06:30:00",
      "link": ""
    },
    {
      "id": 471554,
      "lat": 32.097276767,
      "lon": 34.896168312,
      "label": "Yellow - פתח תקווה",
      "text": "",
      "stayTimes": "00:30 - 01:00",
      "t_start": "2020-04-14T22:30:00",
      "t_end": "2020-04-14T23:00:00",
      "link": ""
    },
    {
      "id": 471555,
      "lat": 31.748793311,
      "lon": 34.9910159770001,
      "label": "מד\"א בית שמש - בית שמש",
      "text": "",
      "stayTimes": "15:30 - 23:00",
      "t_start": "2020-04-16T13:30:00",
      "t_end": "2020-04-16T21:00:00",
      "link": ""
    },
    {
      "id": 471556,
      "lat": 31.748793311,
      "lon": 34.9910159770001,
      "label": "מד\"א בית-שמש - בית שמש",
      "text": "",
      "stayTimes": "08:00 - 15:00",
      "t_start": "2020-04-19T06:00:00",
      "t_end": "2020-04-19T13:00:00",
      "link": ""
    },
    {
      "id": 471557,
      "lat": 31.748793311,
      "lon": 34.9910159770001,
      "label": "מד\"א בית שמש - בית שמש",
      "text": "",
      "stayTimes": "08:00 - 15:00",
      "t_start": "2020-04-20T06:00:00",
      "t_end": "2020-04-20T13:00:00",
      "link": ""
    },
    {
      "id": 471558,
      "lat": 32.182031958,
      "lon": 34.8960695550001,
      "label": "פנימית ג בי\"ח מאיר - כפר סבא",
      "text": "",
      "stayTimes": "07:00 - 19:00",
      "t_start": "2020-04-11T05:00:00",
      "t_end": "2020-04-11T17:00:00",
      "link": ""
    },
    {
      "id": 471559,
      "lat": 32.182084925,
      "lon": 34.896033792,
      "label": "פנימית ג בי\"ח מאיר - כפר סבא",
      "text": "",
      "stayTimes": "09:00 - 19:00",
      "t_start": "2020-04-12T07:00:00",
      "t_end": "2020-04-12T17:00:00",
      "link": ""
    },
    {
      "id": 471560,
      "lat": 32.182045563,
      "lon": 34.89608739,
      "label": "פנימית ג בי\"ח מאיר - כפר סבא",
      "text": "",
      "stayTimes": "07:00 - 19:00",
      "t_start": "2020-04-15T05:00:00",
      "t_end": "2020-04-15T17:00:00",
      "link": ""
    },
    {
      "id": 471561,
      "lat": 32.095172072,
      "lon": 34.8314434800001,
      "label": "בר כל - בני ברק",
      "text": "",
      "stayTimes": "15:00 - 15:30",
      "t_start": "2020-04-12T13:00:00",
      "t_end": "2020-04-12T13:30:00",
      "link": ""
    },
    {
      "id": 471562,
      "lat": 32.1550269150001,
      "lon": 34.9536160170001,
      "label": "מרפאה כללית - ג'לג'וליה",
      "text": "",
      "stayTimes": "17:00 - 17:10",
      "t_start": "2020-04-14T15:00:00",
      "t_end": "2020-04-14T15:10:00",
      "link": ""
    },
    {
      "id": 471563,
      "lat": 32.11685601,
      "lon": 34.976999334,
      "label": "מוקד שרות רפואה דחופה - כפר קאסם",
      "text": "",
      "stayTimes": "16:00 - 16:15",
      "t_start": "2020-04-17T14:00:00",
      "t_end": "2020-04-17T14:15:00",
      "link": ""
    },
    {
      "id": 471564,
      "lat": 31.785329443,
      "lon": 35.213897563,
      "label": "תחנת שלם מרחב קדם מחוז ירושלים - ירושלים",
      "text": "",
      "stayTimes": "12:00 - 23:00",
      "t_start": "2020-04-13T10:00:00",
      "t_end": "2020-04-13T21:00:00",
      "link": ""
    },
    {
      "id": 471565,
      "lat": 32.055225767,
      "lon": 34.960713583,
      "label": "יינות ביתן מרכז רימון - אלעד",
      "text": "",
      "stayTimes": "12:00 - 13:00",
      "t_start": "2020-04-12T10:00:00",
      "t_end": "2020-04-12T11:00:00",
      "link": ""
    },
    {
      "id": 471566,
      "lat": 32.049602749,
      "lon": 34.9535502260001,
      "label": "חנות ירקות - אלעד",
      "text": "",
      "stayTimes": "10:00 - 10:30",
      "t_start": "2020-04-14T08:00:00",
      "t_end": "2020-04-14T08:30:00",
      "link": ""
    },
    {
      "id": 471567,
      "lat": 32.098927535,
      "lon": 34.829715252,
      "label": "אושר עד - בני ברק",
      "text": "",
      "stayTimes": "08:00 - 08:30",
      "t_start": "2020-04-14T06:00:00",
      "t_end": "2020-04-14T06:30:00",
      "link": ""
    },
    {
      "id": 471568,
      "lat": 32.090821981,
      "lon": 34.8388174410001,
      "label": "יש - בני ברק",
      "text": "",
      "stayTimes": "13:30 - 14:00",
      "t_start": "2020-04-12T11:30:00",
      "t_end": "2020-04-12T12:00:00",
      "link": ""
    },
    {
      "id": 471569,
      "lat": 31.788221164,
      "lon": 35.220505142,
      "label": "סופר זול ובגדול - ירושלים",
      "text": "",
      "stayTimes": "10:00 - 12:00",
      "t_start": "2020-04-14T08:00:00",
      "t_end": "2020-04-14T10:00:00",
      "link": ""
    },
    {
      "id": 471570,
      "lat": 31.788221164,
      "lon": 35.220505142,
      "label": "סופר זול ובגדול - ירושלים",
      "text": "",
      "stayTimes": "10:00 - 13:00",
      "t_start": "2020-04-12T08:00:00",
      "t_end": "2020-04-12T11:00:00",
      "link": ""
    },
    {
      "id": 471571,
      "lat": 31.788221164,
      "lon": 35.220505142,
      "label": "סופר זול ובגדול - ירושלים",
      "text": "",
      "stayTimes": "10:00 - 13:00",
      "t_start": "2020-04-13T08:00:00",
      "t_end": "2020-04-13T11:00:00",
      "link": ""
    },
    {
      "id": 471572,
      "lat": 32.4746736180001,
      "lon": 34.9978632830001,
      "label": "שופרסל \"שלי\" אחוזה ירוקה כרכור - פרדס חנה-כרכור",
      "text": "",
      "stayTimes": "09:00 - 10:00",
      "t_start": "2020-04-17T07:00:00",
      "t_end": "2020-04-17T08:00:00",
      "link": ""
    },
    {
      "id": 471573,
      "lat": 31.7884694700001,
      "lon": 35.205537007,
      "label": "טרם - ירושלים",
      "text": "",
      "stayTimes": "15:00 - 23:59",
      "t_start": "2020-04-20T13:00:00",
      "t_end": "2020-04-20T21:59:00",
      "link": ""
    },
    {
      "id": 471574,
      "lat": 32.0798922610001,
      "lon": 34.9024021450001,
      "label": "סופר \"שופרסל דיל\" - פתח תקווה",
      "text": "",
      "stayTimes": "11:00 - 12:00",
      "t_start": "2020-04-16T09:00:00",
      "t_end": "2020-04-16T10:00:00",
      "link": ""
    },
    {
      "id": 471575,
      "lat": 32.4704617,
      "lon": 35.0387773,
      "label": "שופרסל דיל חריש - חריש",
      "text": "",
      "stayTimes": "12:30 - 13:30",
      "t_start": "2020-04-17T10:30:00",
      "t_end": "2020-04-17T11:30:00",
      "link": ""
    },
    {
      "id": 471576,
      "lat": 32.4705928000001,
      "lon": 35.0391716,
      "label": "סופר פארם חריש - חריש",
      "text": "",
      "stayTimes": "13:30 - 13:45",
      "t_start": "2020-04-17T11:30:00",
      "t_end": "2020-04-17T11:45:00",
      "link": ""
    },
    {
      "id": 471577,
      "lat": 32.0860474580001,
      "lon": 34.832200765,
      "label": "אופטיקה 280 - בני ברק",
      "text": "",
      "stayTimes": "14:00 - 14:40",
      "t_start": "2020-04-20T12:00:00",
      "t_end": "2020-04-20T12:40:00",
      "link": ""
    },
    {
      "id": 471578,
      "lat": 32.0874578780001,
      "lon": 34.828462673,
      "label": "בנק דיסקונט - בני ברק",
      "text": "",
      "stayTimes": "23:00 - 23:15",
      "t_start": "2020-04-12T21:00:00",
      "t_end": "2020-04-12T21:15:00",
      "link": ""
    },
    {
      "id": 471579,
      "lat": 32.4746736180001,
      "lon": 34.9978632830001,
      "label": "שופרסל \"שלי \" סניף פרדס חנה - פרדס חנה-כרכור",
      "text": "",
      "stayTimes": "11:30 - 11:45",
      "t_start": "2020-04-17T09:30:00",
      "t_end": "2020-04-17T09:45:00",
      "link": ""
    },
    {
      "id": 471580,
      "lat": 31.4159425080001,
      "lon": 34.579142615,
      "label": "מאפיית אוחיון - נתיבות",
      "text": "",
      "stayTimes": "20:30 - 21:00",
      "t_start": "2020-04-16T18:30:00",
      "t_end": "2020-04-16T19:00:00",
      "link": ""
    },
    {
      "id": 471581,
      "lat": 31.416068571,
      "lon": 34.5790315040001,
      "label": "מאפיית אוחיון - נתיבות",
      "text": "",
      "stayTimes": "21:00 - 21:30",
      "t_start": "2020-04-18T19:00:00",
      "t_end": "2020-04-18T19:30:00",
      "link": ""
    },
    {
      "id": 471582,
      "lat": 31.817951475,
      "lon": 35.199893156,
      "label": "\"סופר מרזיב\" שירת הים - ירושלים",
      "text": "",
      "stayTimes": "12:00 - 13:00",
      "t_start": "2020-04-13T10:00:00",
      "t_end": "2020-04-13T11:00:00",
      "link": ""
    },
    {
      "id": 471583,
      "lat": 31.7512059050001,
      "lon": 35.18655062,
      "label": "סופר פארם קניון מלחה - ירושלים",
      "text": "",
      "stayTimes": "15:30 - 16:00",
      "t_start": "2020-04-13T13:30:00",
      "t_end": "2020-04-13T14:00:00",
      "link": ""
    },
    {
      "id": 471584,
      "lat": 31.7488410980001,
      "lon": 35.2109615050001,
      "label": "יוחננוף - ירושלים",
      "text": "",
      "stayTimes": "21:00 - 22:00",
      "t_start": "2020-04-16T19:00:00",
      "t_end": "2020-04-16T20:00:00",
      "link": ""
    },
    {
      "id": 471585,
      "lat": 32.470720903,
      "lon": 35.038988143,
      "label": "יין בעיר חריש - חריש",
      "text": "",
      "stayTimes": "13:45 - 14:00",
      "t_start": "2020-04-17T11:45:00",
      "t_end": "2020-04-17T12:00:00",
      "link": ""
    },
    {
      "id": 471586,
      "lat": 31.7144626350001,
      "lon": 34.9904344030001,
      "label": "סופר \"שוק מהדרין\" נחל קישון רמה א'. - בית שמש",
      "text": "",
      "stayTimes": "17:00 - 18:00",
      "t_start": "2020-04-12T15:00:00",
      "t_end": "2020-04-12T16:00:00",
      "link": ""
    },
    {
      "id": 471587,
      "lat": 31.7051188,
      "lon": 35.1168587000001,
      "label": "סופר יש חסד - ביתר עילית",
      "text": "",
      "stayTimes": "11:30 - 12:00",
      "t_start": "2020-04-13T09:30:00",
      "t_end": "2020-04-13T10:00:00",
      "link": ""
    },
    {
      "id": 471588,
      "lat": 32.0879306000001,
      "lon": 34.8567575000001,
      "label": "רמי לוי - פתח תקווה",
      "text": "",
      "stayTimes": "10:00 - 11:00",
      "t_start": "2020-04-16T08:00:00",
      "t_end": "2020-04-16T09:00:00",
      "link": ""
    },
    {
      "id": 471589,
      "lat": 31.7852588000001,
      "lon": 35.1830189,
      "label": "אושר עד גבעת שאול - ירושלים",
      "text": "",
      "stayTimes": "11:00 - 12:00",
      "t_start": "2020-04-22T09:00:00",
      "t_end": "2020-04-22T10:00:00",
      "link": ""
    },
    {
      "id": 471590,
      "lat": 31.6654723890001,
      "lon": 34.562808182,
      "label": "מרפאת שיניים אפרת - אשקלון",
      "text": "",
      "stayTimes": "10:30 - 12:30",
      "t_start": "2020-04-21T08:30:00",
      "t_end": "2020-04-21T10:30:00",
      "link": ""
    },
    {
      "id": 471591,
      "lat": 32.090821981,
      "lon": 34.8388174410001,
      "label": "סופר יש חסד - בני ברק",
      "text": "",
      "stayTimes": "19:00 - 20:00",
      "t_start": "2020-04-13T17:00:00",
      "t_end": "2020-04-13T18:00:00",
      "link": ""
    },
    {
      "id": 471592,
      "lat": 31.7674248810001,
      "lon": 35.295225841,
      "label": "טרם - מעלה אדומים",
      "text": "",
      "stayTimes": "23:00 - 23:30",
      "t_start": "2020-04-12T21:00:00",
      "t_end": "2020-04-12T21:30:00",
      "link": ""
    },
    {
      "id": 471593,
      "lat": 31.9272982360001,
      "lon": 35.0383409300001,
      "label": "יש חסד - מודיעין עילית",
      "text": "",
      "stayTimes": "00:00 - 00:30",
      "t_start": "2020-04-16T22:00:00",
      "t_end": "2020-04-16T22:30:00",
      "link": ""
    },
    {
      "id": 471594,
      "lat": 32.8428574000001,
      "lon": 35.1641175,
      "label": "אל  משהדאוי  סופרמרקט - טמרה",
      "text": "",
      "stayTimes": "15:30 - 16:00",
      "t_start": "2020-04-20T13:30:00",
      "t_end": "2020-04-20T14:00:00",
      "link": ""
    },
    {
      "id": 471595,
      "lat": 31.2656951230001,
      "lon": 34.7633655970001,
      "label": "סופר דיל - באר שבע",
      "text": "",
      "stayTimes": "11:00 - 11:30",
      "t_start": "2020-04-14T09:00:00",
      "t_end": "2020-04-14T09:30:00",
      "link": ""
    },
    {
      "id": 471596,
      "lat": 31.785329443,
      "lon": 35.213897563,
      "label": "תחנת קדם - ירושלים",
      "text": "",
      "stayTimes": "22:00 - 22:30",
      "t_start": "2020-04-12T20:00:00",
      "t_end": "2020-04-12T20:30:00",
      "link": ""
    },
    {
      "id": 471597,
      "lat": 31.785329443,
      "lon": 35.213897563,
      "label": "תחנת קדם - ירושלים",
      "text": "",
      "stayTimes": "22:00 - 23:30",
      "t_start": "2020-04-11T20:00:00",
      "t_end": "2020-04-11T21:30:00",
      "link": ""
    },
    {
      "id": 471598,
      "lat": 32.0055320000001,
      "lon": 34.8854112000001,
      "label": "נתב\"ג - לוד",
      "text": "",
      "stayTimes": "08:15 - 17:00",
      "t_start": "2020-04-12T06:15:00",
      "t_end": "2020-04-12T15:00:00",
      "link": ""
    },
    {
      "id": 471599,
      "lat": 32.7931230880001,
      "lon": 35.523817466,
      "label": "בית אבות נוף כנרת - טבריה",
      "text": "",
      "stayTimes": "08:00 - 08:30",
      "t_start": "2020-04-12T06:00:00",
      "t_end": "2020-04-12T06:30:00",
      "link": ""
    },
    {
      "id": 471600,
      "lat": 32.7931230880001,
      "lon": 35.523817466,
      "label": "בית אבות נוף כנרת - טבריה",
      "text": "",
      "stayTimes": "08:00 - 08:30",
      "t_start": "2020-04-12T06:00:00",
      "t_end": "2020-04-12T06:30:00",
      "link": ""
    },
    {
      "id": 471601,
      "lat": 32.181293979,
      "lon": 34.8952400370001,
      "label": "בית חולים מאיר מחלקת אורטופדיה - כפר סבא",
      "text": "",
      "stayTimes": "08:00 - 08:30",
      "t_start": "2020-04-17T06:00:00",
      "t_end": "2020-04-17T06:30:00",
      "link": ""
    },
    {
      "id": 471602,
      "lat": 32.1812576560001,
      "lon": 34.895211427,
      "label": "בית חולים מאיר מח' אורטופדיה - כפר סבא",
      "text": "",
      "stayTimes": "12:00 - 12:30",
      "t_start": "2020-04-17T10:00:00",
      "t_end": "2020-04-17T10:30:00",
      "link": ""
    },
    {
      "id": 471603,
      "lat": 32.1812394950001,
      "lon": 34.8952758,
      "label": "בית חולים מאיר מח' אורטופדיה - כפר סבא",
      "text": "",
      "stayTimes": "08:00 - 08:30",
      "t_start": "2020-04-18T06:00:00",
      "t_end": "2020-04-18T06:30:00",
      "link": ""
    },
    {
      "id": 471604,
      "lat": 32.1810270340001,
      "lon": 34.8948060590001,
      "label": "בית חולים מאיר מח' אורטופדיה - כפר סבא",
      "text": "",
      "stayTimes": "12:00 - 12:30",
      "t_start": "2020-04-18T10:00:00",
      "t_end": "2020-04-18T10:30:00",
      "link": ""
    },
    {
      "id": 471605,
      "lat": 32.181275817,
      "lon": 34.8952293080001,
      "label": "בית חולים מאיר מח' אורטופדיה - כפר סבא",
      "text": "",
      "stayTimes": "08:00 - 08:30",
      "t_start": "2020-04-19T06:00:00",
      "t_end": "2020-04-19T06:30:00",
      "link": ""
    },
    {
      "id": 471606,
      "lat": 32.181275817,
      "lon": 34.8952328840001,
      "label": "בית חולים מאיר מח' אורטופדיה - כפר סבא",
      "text": "",
      "stayTimes": "12:00 - 12:30",
      "t_start": "2020-04-19T10:00:00",
      "t_end": "2020-04-19T10:30:00",
      "link": ""
    },
    {
      "id": 471607,
      "lat": 32.181266737,
      "lon": 34.895215003,
      "label": "בית חולים מאיר מח' אורטופדיה - כפר סבא",
      "text": "",
      "stayTimes": "08:00 - 08:30",
      "t_start": "2020-04-20T06:00:00",
      "t_end": "2020-04-20T06:30:00",
      "link": ""
    },
    {
      "id": 471608,
      "lat": 32.1812637100001,
      "lon": 34.8952507650001,
      "label": "בית חולים מאיר מח' אורטופדיה - כפר סבא",
      "text": "",
      "stayTimes": "12:00 - 12:30",
      "t_start": "2020-04-20T10:00:00",
      "t_end": "2020-04-20T10:30:00",
      "link": ""
    },
    {
      "id": 471609,
      "lat": 31.607740259,
      "lon": 34.7593345600001,
      "label": "החייל האלמוני 6, קרית גת",
      "text": "",
      "stayTimes": "11:00 - 13:00",
      "t_start": "2020-04-21T09:00:00",
      "t_end": "2020-04-21T11:00:00",
      "link": ""
    },
    {
      "id": 471610,
      "lat": 32.0193588000001,
      "lon": 34.9614117,
      "label": "יקביי הכרמל - שוהם",
      "text": "",
      "stayTimes": "14:00 - 16:30",
      "t_start": "2020-04-21T12:00:00",
      "t_end": "2020-04-21T14:30:00",
      "link": ""
    },
    {
      "id": 471611,
      "lat": 31.416792851,
      "lon": 34.571979212,
      "label": "אלי זול  (חנות ממתקים) - נתיבות",
      "text": "",
      "stayTimes": "14:00 - 14:30",
      "t_start": "2020-04-13T12:00:00",
      "t_end": "2020-04-13T12:30:00",
      "link": ""
    },
    {
      "id": 471612,
      "lat": 32.9173842220001,
      "lon": 35.250529106,
      "label": "תחנת דלק YELLOW מג'ד אל כרום - מג'ד אל-כרום",
      "text": "",
      "stayTimes": "06:00 - 14:00",
      "t_start": "2020-04-14T04:00:00",
      "t_end": "2020-04-14T12:00:00",
      "link": ""
    },
    {
      "id": 471613,
      "lat": 32.9173842220001,
      "lon": 35.250529106,
      "label": "תחנת דלק YELLOW - מג'ד אל-כרום",
      "text": "",
      "stayTimes": "10:00 - 23:00",
      "t_start": "2020-04-15T08:00:00",
      "t_end": "2020-04-15T21:00:00",
      "link": ""
    },
    {
      "id": 471614,
      "lat": 32.9173842220001,
      "lon": 35.250529106,
      "label": "תחנת דלק YELLOW - מג'ד אל-כרום",
      "text": "",
      "stayTimes": "12:00 - 14:00",
      "t_start": "2020-04-18T10:00:00",
      "t_end": "2020-04-18T12:00:00",
      "link": ""
    },
    {
      "id": 471615,
      "lat": 31.7674248810001,
      "lon": 35.295225841,
      "label": "טרם מעלה אדומים - מעלה אדומים",
      "text": "",
      "stayTimes": "16:00 - 16:30",
      "t_start": "2020-04-14T14:00:00",
      "t_end": "2020-04-14T14:30:00",
      "link": ""
    },
    {
      "id": 471616,
      "lat": 32.2692323430001,
      "lon": 35.006186459,
      "label": "בית מרקחת מג'אד פארם - טייבה",
      "text": "",
      "stayTimes": "18:30 - 18:45",
      "t_start": "2020-04-12T16:30:00",
      "t_end": "2020-04-12T16:45:00",
      "link": ""
    },
    {
      "id": 471617,
      "lat": 32.2628131860001,
      "lon": 35.014472013,
      "label": "סופר בראון טייבה - טייבה",
      "text": "",
      "stayTimes": "18:00 - 18:30",
      "t_start": "2020-04-12T16:00:00",
      "t_end": "2020-04-12T16:30:00",
      "link": ""
    },
    {
      "id": 471618,
      "lat": 32.047602512,
      "lon": 34.9560923880001,
      "label": "קופת חולים לאומית - אלעד",
      "text": "",
      "stayTimes": "08:00 - 08:30",
      "t_start": "2020-04-19T06:00:00",
      "t_end": "2020-04-19T06:30:00",
      "link": ""
    },
    {
      "id": 471619,
      "lat": 31.934637566,
      "lon": 35.0423227520001,
      "label": "סופרמרקט \"בר כל\" - מודיעין עילית",
      "text": "",
      "stayTimes": "20:00 - 21:00",
      "t_start": "2020-04-19T18:00:00",
      "t_end": "2020-04-19T19:00:00",
      "link": ""
    },
    {
      "id": 471620,
      "lat": 31.9302372230001,
      "lon": 35.038582725,
      "label": "סופר מרקט \"יש\" - מודיעין עילית",
      "text": "",
      "stayTimes": "10:00 - 10:30",
      "t_start": "2020-04-16T08:00:00",
      "t_end": "2020-04-16T08:30:00",
      "link": ""
    },
    {
      "id": 471621,
      "lat": 32.0900685,
      "lon": 34.867923326,
      "label": "בית חולים בלינסון - פתח תקווה",
      "text": "",
      "stayTimes": "20:30 - 21:00",
      "t_start": "2020-04-18T18:30:00",
      "t_end": "2020-04-18T19:00:00",
      "link": ""
    },
    {
      "id": 471622,
      "lat": 32.088662105,
      "lon": 34.889573473,
      "label": "מרפאה לאומית - פתח תקווה",
      "text": "",
      "stayTimes": "09:40 - 09:50",
      "t_start": "2020-04-13T07:40:00",
      "t_end": "2020-04-13T07:50:00",
      "link": ""
    },
    {
      "id": 471623,
      "lat": 32.088662105,
      "lon": 34.889573473,
      "label": "מרפאה לאומית - פתח תקווה",
      "text": "",
      "stayTimes": "09:50 - 10:00",
      "t_start": "2020-04-13T07:50:00",
      "t_end": "2020-04-13T08:00:00",
      "link": ""
    },
    {
      "id": 471624,
      "lat": 32.08040571,
      "lon": 34.874823065,
      "label": "טרם פתח תקוה - פתח תקווה",
      "text": "",
      "stayTimes": "17:00 - 17:10",
      "t_start": "2020-04-12T15:00:00",
      "t_end": "2020-04-12T15:10:00",
      "link": ""
    },
    {
      "id": 471625,
      "lat": 33.0063472950001,
      "lon": 35.0976566780001,
      "label": "זוגלובק - שלומי",
      "text": "",
      "stayTimes": "06:00 - 17:00",
      "t_start": "2020-04-12T04:00:00",
      "t_end": "2020-04-12T15:00:00",
      "link": ""
    },
    {
      "id": 471626,
      "lat": 33.0063472950001,
      "lon": 35.0976566780001,
      "label": "זוגלובק - שלומי",
      "text": "",
      "stayTimes": "06:00 - 17:00",
      "t_start": "2020-04-13T04:00:00",
      "t_end": "2020-04-13T15:00:00",
      "link": ""
    },
    {
      "id": 471627,
      "lat": 33.0063472950001,
      "lon": 35.0976566780001,
      "label": "זוגלובאק - שלומי",
      "text": "",
      "stayTimes": "06:00 - 17:00",
      "t_start": "2020-04-16T04:00:00",
      "t_end": "2020-04-16T15:00:00",
      "link": ""
    },
    {
      "id": 471628,
      "lat": 31.7884481940001,
      "lon": 35.207115382,
      "label": "בית אגד מרפאה - מאוחדת - ירושלים",
      "text": "",
      "stayTimes": "11:00 - 12:00",
      "t_start": "2020-04-19T09:00:00",
      "t_end": "2020-04-19T10:00:00",
      "link": ""
    },
    {
      "id": 471629,
      "lat": 33.0197082020001,
      "lon": 35.2828309440001,
      "label": "זול סטוק - מעלות-תרשיחא",
      "text": "",
      "stayTimes": "17:30 - 17:35",
      "t_start": "2020-04-19T15:30:00",
      "t_end": "2020-04-19T15:35:00",
      "link": ""
    },
    {
      "id": 471630,
      "lat": 32.952275382,
      "lon": 35.178511498,
      "label": "הום סנטר - ירכא",
      "text": "",
      "stayTimes": "10:00 - 11:30",
      "t_start": "2020-04-17T08:00:00",
      "t_end": "2020-04-17T09:30:00",
      "link": ""
    },
    {
      "id": 471631,
      "lat": 32.1847524660001,
      "lon": 34.8967412600001,
      "label": "מוניות הורדים - כפר סבא",
      "text": "",
      "stayTimes": "10:00 - 13:00",
      "t_start": "2020-04-18T08:00:00",
      "t_end": "2020-04-18T11:00:00",
      "link": ""
    },
    {
      "id": 471632,
      "lat": 32.2697890000001,
      "lon": 35.017976,
      "label": "מרכז רפואי אלראזי כביש 26 טייבה - טייבה",
      "text": "",
      "stayTimes": "20:45 - 21:10",
      "t_start": "2020-04-14T18:45:00",
      "t_end": "2020-04-14T19:10:00",
      "link": ""
    },
    {
      "id": 471633,
      "lat": 32.9243927000001,
      "lon": 35.2769814000001,
      "label": "קניון דבאח - דייר אל-אסד",
      "text": "",
      "stayTimes": "15:00 - 22:30",
      "t_start": "2020-04-11T13:00:00",
      "t_end": "2020-04-11T20:30:00",
      "link": ""
    },
    {
      "id": 471634,
      "lat": 32.9243927000001,
      "lon": 35.2769814000001,
      "label": "קניון דבאח - דייר אל-אסד",
      "text": "",
      "stayTimes": "12:00 - 20:00",
      "t_start": "2020-04-13T10:00:00",
      "t_end": "2020-04-13T18:00:00",
      "link": ""
    },
    {
      "id": 471635,
      "lat": 32.9243927000001,
      "lon": 35.2769814000001,
      "label": "קניון דבאח - דייר אל-אסד",
      "text": "",
      "stayTimes": "08:00 - 20:00",
      "t_start": "2020-04-12T06:00:00",
      "t_end": "2020-04-12T18:00:00",
      "link": ""
    },
    {
      "id": 471636,
      "lat": 32.9243927000001,
      "lon": 35.2769814000001,
      "label": "קניון דבאח - דייר אל-אסד",
      "text": "",
      "stayTimes": "08:00 - 15:30",
      "t_start": "2020-04-16T06:00:00",
      "t_end": "2020-04-16T13:30:00",
      "link": ""
    },
    {
      "id": 471637,
      "lat": 31.416792851,
      "lon": 34.571979212,
      "label": "חנות ממתקים אלי זול - נתיבות",
      "text": "",
      "stayTimes": "13:30 - 14:30",
      "t_start": "2020-04-14T11:30:00",
      "t_end": "2020-04-14T12:30:00",
      "link": ""
    },
    {
      "id": 471638,
      "lat": 31.8084865750001,
      "lon": 35.1985345690001,
      "label": "קופ\"ח לאומית - ירושלים",
      "text": "",
      "stayTimes": "08:00 - 20:30",
      "t_start": "2020-04-20T06:00:00",
      "t_end": "2020-04-20T18:30:00",
      "link": ""
    },
    {
      "id": 471639,
      "lat": 32.066217646,
      "lon": 34.8287757260001,
      "label": "סופר סל שלי - רמת גן",
      "text": "",
      "stayTimes": "11:45 - 12:15",
      "t_start": "2020-04-19T09:45:00",
      "t_end": "2020-04-19T10:15:00",
      "link": ""
    },
    {
      "id": 471640,
      "lat": 31.7884694700001,
      "lon": 35.205537007,
      "label": "טרם שערי העיר - ירושלים",
      "text": "",
      "stayTimes": "03:00 - 06:00",
      "t_start": "2020-04-22T01:00:00",
      "t_end": "2020-04-22T04:00:00",
      "link": ""
    },
    {
      "id": 471641,
      "lat": 31.6928544,
      "lon": 35.1096686000001,
      "label": "חסד לאלפים רמות - ירושלים",
      "text": "",
      "stayTimes": "10:00 - 10:30",
      "t_start": "2020-04-22T08:00:00",
      "t_end": "2020-04-22T08:30:00",
      "link": ""
    },
    {
      "id": 471642,
      "lat": 31.7884373910001,
      "lon": 35.2064509310001,
      "label": "מעיין 2000 - ירושלים",
      "text": "",
      "stayTimes": "12:00 - 12:30",
      "t_start": "2020-04-17T10:00:00",
      "t_end": "2020-04-17T10:30:00",
      "link": ""
    },
    {
      "id": 471643,
      "lat": 31.7921554440001,
      "lon": 35.2047189260001,
      "label": "שערי רווחה - ירושלים",
      "text": "",
      "stayTimes": "18:00 - 18:30",
      "t_start": "2020-04-20T16:00:00",
      "t_end": "2020-04-20T16:30:00",
      "link": ""
    },
    {
      "id": 471644,
      "lat": 31.7511387440001,
      "lon": 35.215422888,
      "label": "רמי לוי - ירושלים",
      "text": "",
      "stayTimes": "16:00 - 18:00",
      "t_start": "2020-04-22T14:00:00",
      "t_end": "2020-04-22T16:00:00",
      "link": ""
    },
    {
      "id": 471645,
      "lat": 32.922368308,
      "lon": 35.0715629260001,
      "label": "שלון חומרי בנין - עכו",
      "text": "",
      "stayTimes": "12:00 - 18:00",
      "t_start": "2020-04-23T10:00:00",
      "t_end": "2020-04-23T16:00:00",
      "link": ""
    },
    {
      "id": 471646,
      "lat": 32.9223671830001,
      "lon": 35.071564267,
      "label": "שלון חומרי בניין - עכו",
      "text": "",
      "stayTimes": "12:00 - 20:00",
      "t_start": "2020-04-22T10:00:00",
      "t_end": "2020-04-22T18:00:00",
      "link": ""
    },
    {
      "id": 471647,
      "lat": 31.7662681210001,
      "lon": 35.1478980860001,
      "label": "סניף סופר פארם בקניון של הדסה עין כרם - ירושלים",
      "text": "",
      "stayTimes": "13:00 - 13:20",
      "t_start": "2020-04-21T11:00:00",
      "t_end": "2020-04-21T11:20:00",
      "link": ""
    },
    {
      "id": 471648,
      "lat": 32.0525778960001,
      "lon": 34.9511771420001,
      "label": "יש חסד - אלעד",
      "text": "",
      "stayTimes": "22:00 - 23:00",
      "t_start": "2020-04-19T20:00:00",
      "t_end": "2020-04-19T21:00:00",
      "link": ""
    },
    {
      "id": 471649,
      "lat": 31.766297766,
      "lon": 35.1478960750001,
      "label": "סניף סופר פארם בקניון של הדסה עין כרם - ירושלים",
      "text": "",
      "stayTimes": "09:00 - 09:10",
      "t_start": "2020-04-20T07:00:00",
      "t_end": "2020-04-20T07:10:00",
      "link": ""
    },
    {
      "id": 471650,
      "lat": 31.3182278,
      "lon": 34.6253776,
      "label": "שופרסל - אופקים",
      "text": "",
      "stayTimes": "08:00 - 11:00",
      "t_start": "2020-04-15T06:00:00",
      "t_end": "2020-04-15T09:00:00",
      "link": ""
    },
    {
      "id": 471651,
      "lat": 31.3182278,
      "lon": 34.6253776,
      "label": "שופר סל - אופקים",
      "text": "",
      "stayTimes": "18:30 - 22:00",
      "t_start": "2020-04-16T16:30:00",
      "t_end": "2020-04-16T20:00:00",
      "link": ""
    },
    {
      "id": 471652,
      "lat": 31.7144626350001,
      "lon": 34.9904344030001,
      "label": "שוק מהדרין - בית שמש",
      "text": "",
      "stayTimes": "21:30 - 22:00",
      "t_start": "2020-04-15T19:30:00",
      "t_end": "2020-04-15T20:00:00",
      "link": ""
    },
    {
      "id": 471653,
      "lat": 31.4173985,
      "lon": 34.6148693000001,
      "label": "סופר רמי לוי - נתיבות",
      "text": "",
      "stayTimes": "13:00 - 13:30",
      "t_start": "2020-04-13T11:00:00",
      "t_end": "2020-04-13T11:30:00",
      "link": ""
    },
    {
      "id": 471654,
      "lat": 32.9469460930001,
      "lon": 35.174164638,
      "label": "מרכז המזון - ירכא",
      "text": "",
      "stayTimes": "20:30 - 22:30",
      "t_start": "2020-04-13T18:30:00",
      "t_end": "2020-04-13T20:30:00",
      "link": ""
    },
    {
      "id": 471655,
      "lat": 31.8135049000001,
      "lon": 34.6500062000001,
      "label": "בית הדר - אשדוד",
      "text": "",
      "stayTimes": "08:00 - 08:30",
      "t_start": "2020-04-15T06:00:00",
      "t_end": "2020-04-15T06:30:00",
      "link": ""
    },
    {
      "id": 471656,
      "lat": 32.6486540000001,
      "lon": 35.288241,
      "label": "בית אבות אור העמק - מזרע",
      "text": "",
      "stayTimes": "07:10 - 17:00",
      "t_start": "2020-04-12T05:10:00",
      "t_end": "2020-04-12T15:00:00",
      "link": ""
    },
    {
      "id": 471657,
      "lat": 32.04834607,
      "lon": 34.9577129480001,
      "label": "זול כל - אלעד",
      "text": "",
      "stayTimes": "18:00 - 18:10",
      "t_start": "2020-04-12T16:00:00",
      "t_end": "2020-04-12T16:10:00",
      "link": ""
    },
    {
      "id": 471658,
      "lat": 31.814293956,
      "lon": 34.7764854500001,
      "label": "מעון מוריה - גדרה",
      "text": "",
      "stayTimes": "05:30 - 14:30",
      "t_start": "2020-04-12T03:30:00",
      "t_end": "2020-04-12T12:30:00",
      "link": ""
    },
    {
      "id": 471659,
      "lat": 32.6486540000001,
      "lon": 35.288241,
      "label": "בית אבות אור העמק - מזרע",
      "text": "",
      "stayTimes": "07:10 - 14:00",
      "t_start": "2020-04-14T05:10:00",
      "t_end": "2020-04-14T12:00:00",
      "link": ""
    },
    {
      "id": 471660,
      "lat": 32.6486540000001,
      "lon": 35.288241,
      "label": "בית אבות אור העמק - מזרע",
      "text": "",
      "stayTimes": "17:30 - 20:00",
      "t_start": "2020-04-13T15:30:00",
      "t_end": "2020-04-13T18:00:00",
      "link": ""
    },
    {
      "id": 471661,
      "lat": 32.6494422000001,
      "lon": 35.2905623,
      "label": "טיב טעם - מזרע",
      "text": "",
      "stayTimes": "09:00 - 09:30",
      "t_start": "2020-04-14T07:00:00",
      "t_end": "2020-04-14T07:30:00",
      "link": ""
    },
    {
      "id": 471662,
      "lat": 32.6036544460001,
      "lon": 35.2960462290001,
      "label": "מקלות וניל - עפולה",
      "text": "",
      "stayTimes": "07:30 - 07:40",
      "t_start": "2020-04-16T05:30:00",
      "t_end": "2020-04-16T05:40:00",
      "link": ""
    },
    {
      "id": 471663,
      "lat": 32.6486540000001,
      "lon": 35.288241,
      "label": "בית אבות אור העמק - מזרע",
      "text": "",
      "stayTimes": "08:00 - 17:00",
      "t_start": "2020-04-16T06:00:00",
      "t_end": "2020-04-16T15:00:00",
      "link": ""
    },
    {
      "id": 471664,
      "lat": 31.814293956,
      "lon": 34.7764854500001,
      "label": "מעון מוריה - גדרה",
      "text": "",
      "stayTimes": "05:30 - 14:30",
      "t_start": "2020-04-13T03:30:00",
      "t_end": "2020-04-13T12:30:00",
      "link": ""
    },
    {
      "id": 471665,
      "lat": 31.814293956,
      "lon": 34.7764854500001,
      "label": "מעון מוריה - גדרה",
      "text": "",
      "stayTimes": "05:30 - 12:00",
      "t_start": "2020-04-14T03:30:00",
      "t_end": "2020-04-14T10:00:00",
      "link": ""
    },
    {
      "id": 471666,
      "lat": 32.6486540000001,
      "lon": 35.288241,
      "label": "בית אבות אור העמק - מזרע",
      "text": "",
      "stayTimes": "17:00 - 22:00",
      "t_start": "2020-04-17T15:00:00",
      "t_end": "2020-04-17T20:00:00",
      "link": ""
    },
    {
      "id": 471667,
      "lat": 32.3220808740001,
      "lon": 34.8715314300001,
      "label": "רמי לוי - נתניה",
      "text": "",
      "stayTimes": "17:30 - 18:30",
      "t_start": "2020-04-13T15:30:00",
      "t_end": "2020-04-13T16:30:00",
      "link": ""
    },
    {
      "id": 471668,
      "lat": 32.6486540000001,
      "lon": 35.288241,
      "label": "בית אבות אור העמק - מזרע",
      "text": "",
      "stayTimes": "07:00 - 10:30",
      "t_start": "2020-04-17T05:00:00",
      "t_end": "2020-04-17T08:30:00",
      "link": ""
    },
    {
      "id": 471669,
      "lat": 32.0520222590001,
      "lon": 34.9500734000001,
      "label": "מקווה - אלעד",
      "text": "",
      "stayTimes": "21:00 - 21:30",
      "t_start": "2020-04-11T19:00:00",
      "t_end": "2020-04-11T19:30:00",
      "link": ""
    },
    {
      "id": 471670,
      "lat": 32.074504925,
      "lon": 34.8373013900001,
      "label": "בית אבות ויזניץ - בני ברק",
      "text": "",
      "stayTimes": "08:00 - 14:00",
      "t_start": "2020-04-12T06:00:00",
      "t_end": "2020-04-12T12:00:00",
      "link": ""
    },
    {
      "id": 471671,
      "lat": 31.7494016000001,
      "lon": 35.2167436,
      "label": "מוסך מרסדס - ירושלים",
      "text": "",
      "stayTimes": "07:15 - 12:00",
      "t_start": "2020-04-12T05:15:00",
      "t_end": "2020-04-12T10:00:00",
      "link": ""
    },
    {
      "id": 471672,
      "lat": 32.0346381780001,
      "lon": 34.8494226020001,
      "label": "סופרפארם אור יהודה - אור יהודה",
      "text": "",
      "stayTimes": "16:30 - 17:00",
      "t_start": "2020-04-13T14:30:00",
      "t_end": "2020-04-13T15:00:00",
      "link": ""
    },
    {
      "id": 471673,
      "lat": 32.0228526070001,
      "lon": 34.85871324,
      "label": "יוחננוף - אור יהודה",
      "text": "",
      "stayTimes": "11:00 - 11:30",
      "t_start": "2020-04-12T09:00:00",
      "t_end": "2020-04-12T09:30:00",
      "link": ""
    },
    {
      "id": 471674,
      "lat": 31.792264,
      "lon": 35.2132807,
      "label": "בית מדרש \"גור\"- מניין תפילה - ירושלים",
      "text": "",
      "stayTimes": "08:00 - 16:00",
      "t_start": "2020-04-13T06:00:00",
      "t_end": "2020-04-13T14:00:00",
      "link": ""
    },
    {
      "id": 471675,
      "lat": 32.4489873910001,
      "lon": 34.91471805,
      "label": "אושר עד  אזור תעשיה חדרה - חדרה",
      "text": "",
      "stayTimes": "12:00 - 12:30",
      "t_start": "2020-04-12T10:00:00",
      "t_end": "2020-04-12T10:30:00",
      "link": ""
    },
    {
      "id": 471676,
      "lat": 31.6023045000001,
      "lon": 34.773082,
      "label": "מחסני השוק - קרית גת",
      "text": "",
      "stayTimes": "15:30 - 17:00",
      "t_start": "2020-04-12T13:30:00",
      "t_end": "2020-04-12T15:00:00",
      "link": ""
    },
    {
      "id": 471677,
      "lat": 32.3215792,
      "lon": 34.8593675000001,
      "label": "מינימרקט רעות - נתניה",
      "text": "",
      "stayTimes": "12:30 - 12:40",
      "t_start": "2020-04-12T10:30:00",
      "t_end": "2020-04-12T10:40:00",
      "link": ""
    },
    {
      "id": 471678,
      "lat": 32.0360309000001,
      "lon": 34.7627074000001,
      "label": "ב\"ח וולפסון - חולון",
      "text": "",
      "stayTimes": "07:00 - 19:00",
      "t_start": "2020-04-13T05:00:00",
      "t_end": "2020-04-13T17:00:00",
      "link": ""
    },
    {
      "id": 471679,
      "lat": 31.6802015000001,
      "lon": 34.5695303000001,
      "label": "בית כנסת אך טוב וחסד - אשקלון",
      "text": "",
      "stayTimes": "17:00 - 19:00",
      "t_start": "2020-04-14T15:00:00",
      "t_end": "2020-04-14T17:00:00",
      "link": ""
    },
    {
      "id": 471680,
      "lat": 32.3220773940001,
      "lon": 34.8714982010001,
      "label": "רמי לוי אזור תעשיה ישן - נתניה",
      "text": "",
      "stayTimes": "17:00 - 18:30",
      "t_start": "2020-04-13T15:00:00",
      "t_end": "2020-04-13T16:30:00",
      "link": ""
    },
    {
      "id": 471681,
      "lat": 31.8135049000001,
      "lon": 34.6500062000001,
      "label": "בית הדר - אשדוד",
      "text": "",
      "stayTimes": "08:00 - 08:30",
      "t_start": "2020-04-11T06:00:00",
      "t_end": "2020-04-11T06:30:00",
      "link": ""
    },
    {
      "id": 471682,
      "lat": 32.055225767,
      "lon": 34.960713583,
      "label": "סופר שפע במרכז רימון - אלעד",
      "text": "",
      "stayTimes": "08:45 - 09:15",
      "t_start": "2020-04-12T06:45:00",
      "t_end": "2020-04-12T07:15:00",
      "link": ""
    },
    {
      "id": 471683,
      "lat": 32.048760551,
      "lon": 34.8427634340001,
      "label": "מחלקת יולדות תל השומר - רמת גן",
      "text": "",
      "stayTimes": "08:00 - 23:30",
      "t_start": "2020-04-13T06:00:00",
      "t_end": "2020-04-13T21:30:00",
      "link": ""
    },
    {
      "id": 471684,
      "lat": 31.315558878,
      "lon": 34.6206675030001,
      "label": "מכבי אופקים מתחם קורונה - אופקים",
      "text": "",
      "stayTimes": "08:00 - 08:30",
      "t_start": "2020-04-13T06:00:00",
      "t_end": "2020-04-13T06:30:00",
      "link": ""
    },
    {
      "id": 471685,
      "lat": 31.6584985000001,
      "lon": 34.5694202,
      "label": "סופר יעל - אשקלון",
      "text": "",
      "stayTimes": "12:00 - 14:00",
      "t_start": "2020-04-14T10:00:00",
      "t_end": "2020-04-14T12:00:00",
      "link": ""
    },
    {
      "id": 471686,
      "lat": 32.0897515830001,
      "lon": 34.8670658130001,
      "label": "חדר מיון בלינסון - פתח תקווה",
      "text": "",
      "stayTimes": "12:00 - 21:30",
      "t_start": "2020-04-13T10:00:00",
      "t_end": "2020-04-13T19:30:00",
      "link": ""
    },
    {
      "id": 471687,
      "lat": 32.0885211360001,
      "lon": 34.869083776,
      "label": "מגה בעיר - פתח תקווה",
      "text": "",
      "stayTimes": "15:00 - 15:10",
      "t_start": "2020-04-14T13:00:00",
      "t_end": "2020-04-14T13:10:00",
      "link": ""
    },
    {
      "id": 471688,
      "lat": 31.8135049000001,
      "lon": 34.6500062000001,
      "label": "בית הדר - אשדוד",
      "text": "",
      "stayTimes": "00:00 - 23:30",
      "t_start": "2020-04-11T22:00:00",
      "t_end": "2020-04-12T21:30:00",
      "link": ""
    },
    {
      "id": 471689,
      "lat": 31.8135049000001,
      "lon": 34.6500062000001,
      "label": "בית הדר - אשדוד",
      "text": "",
      "stayTimes": "00:00 - 23:30",
      "t_start": "2020-04-12T22:00:00",
      "t_end": "2020-04-13T21:30:00",
      "link": ""
    },
    {
      "id": 471690,
      "lat": 31.6108987960001,
      "lon": 34.764898445,
      "label": "קופת חולים כללית ב - קרית גת",
      "text": "",
      "stayTimes": "07:30 - 09:30",
      "t_start": "2020-04-13T05:30:00",
      "t_end": "2020-04-13T07:30:00",
      "link": ""
    },
    {
      "id": 471691,
      "lat": 31.9328630000001,
      "lon": 34.8887540000001,
      "label": "סופר פארם קניון רמלוד - רמלה",
      "text": "",
      "stayTimes": "15:45 - 16:45",
      "t_start": "2020-04-13T13:45:00",
      "t_end": "2020-04-13T14:45:00",
      "link": ""
    },
    {
      "id": 471692,
      "lat": 32.0860725360001,
      "lon": 34.8303938600001,
      "label": "קופת חולים מכבי בני ברק - בני ברק",
      "text": "",
      "stayTimes": "11:00 - 12:00",
      "t_start": "2020-04-12T09:00:00",
      "t_end": "2020-04-12T10:00:00",
      "link": ""
    },
    {
      "id": 471693,
      "lat": 31.814293956,
      "lon": 34.7764854500001,
      "label": "מעון מוריה גדרה - גדרה",
      "text": "",
      "stayTimes": "08:00 - 16:00",
      "t_start": "2020-04-12T06:00:00",
      "t_end": "2020-04-12T14:00:00",
      "link": ""
    },
    {
      "id": 471694,
      "lat": 32.3221211650001,
      "lon": 34.87151949,
      "label": "רמי לוי - נתניה",
      "text": "",
      "stayTimes": "17:30 - 18:30",
      "t_start": "2020-04-13T15:30:00",
      "t_end": "2020-04-13T16:30:00",
      "link": ""
    },
    {
      "id": 471695,
      "lat": 32.322080881,
      "lon": 34.8715195010001,
      "label": "רמי לוי - נתניה",
      "text": "",
      "stayTimes": "17:30 - 18:30",
      "t_start": "2020-04-13T15:30:00",
      "t_end": "2020-04-13T16:30:00",
      "link": ""
    },
    {
      "id": 471696,
      "lat": 32.6486540000001,
      "lon": 35.288241,
      "label": "בית אבות אור העמק - מזרע",
      "text": "",
      "stayTimes": "12:30 - 15:40",
      "t_start": "2020-04-17T10:30:00",
      "t_end": "2020-04-17T13:40:00",
      "link": ""
    },
    {
      "id": 471697,
      "lat": 32.3255974950001,
      "lon": 34.8607513850001,
      "label": "סופר פארם קניון השרון - נתניה",
      "text": "",
      "stayTimes": "20:30 - 21:00",
      "t_start": "2020-04-13T18:30:00",
      "t_end": "2020-04-13T19:00:00",
      "link": ""
    },
    {
      "id": 471698,
      "lat": 32.3201001830001,
      "lon": 34.8554106650001,
      "label": "סופר BE - נתניה",
      "text": "",
      "stayTimes": "10:30 - 10:40",
      "t_start": "2020-04-12T08:30:00",
      "t_end": "2020-04-12T08:40:00",
      "link": ""
    },
    {
      "id": 471699,
      "lat": 32.3215792,
      "lon": 34.8593675000001,
      "label": "מיני מרקט רעות - נתניה",
      "text": "",
      "stayTimes": "12:30 - 12:40",
      "t_start": "2020-04-12T10:30:00",
      "t_end": "2020-04-12T10:40:00",
      "link": ""
    },
    {
      "id": 471700,
      "lat": 32.4515247730001,
      "lon": 34.895396685,
      "label": "בית חולים הילל יפה - חדרה",
      "text": "",
      "stayTimes": "11:00 - 11:30",
      "t_start": "2020-04-11T09:00:00",
      "t_end": "2020-04-11T09:30:00",
      "link": ""
    },
    {
      "id": 471701,
      "lat": 32.4515247730001,
      "lon": 34.895396685,
      "label": "בית חולים הלל יפה - חדרה",
      "text": "",
      "stayTimes": "08:00 - 08:30",
      "t_start": "2020-04-11T06:00:00",
      "t_end": "2020-04-11T06:30:00",
      "link": ""
    },
    {
      "id": 471702,
      "lat": 31.2232274,
      "lon": 34.8029273000001,
      "label": "קשת טעמים - באר שבע",
      "text": "",
      "stayTimes": "11:00 - 12:00",
      "t_start": "2020-04-11T09:00:00",
      "t_end": "2020-04-11T10:00:00",
      "link": ""
    },
    {
      "id": 471703,
      "lat": 31.814293956,
      "lon": 34.7764854500001,
      "label": "מעון עלי מוריה - גדרה",
      "text": "",
      "stayTimes": "06:00 - 21:00",
      "t_start": "2020-04-11T04:00:00",
      "t_end": "2020-04-11T19:00:00",
      "link": ""
    },
    {
      "id": 471704,
      "lat": 31.8135049000001,
      "lon": 34.6500062000001,
      "label": "בית הדר - אשדוד",
      "text": "",
      "stayTimes": "00:00 - 23:30",
      "t_start": "2020-04-10T22:00:00",
      "t_end": "2020-04-11T21:30:00",
      "link": ""
    },
    {
      "id": 471705,
      "lat": 31.8135049000001,
      "lon": 34.6500062000001,
      "label": "בית הדר - אשדוד",
      "text": "",
      "stayTimes": "00:00 - 23:30",
      "t_start": "2020-04-11T22:00:00",
      "t_end": "2020-04-12T21:30:00",
      "link": ""
    },
    {
      "id": 471706,
      "lat": 31.8135049000001,
      "lon": 34.6500062000001,
      "label": "בית הדר - אשדוד",
      "text": "",
      "stayTimes": "00:00 - 23:30",
      "t_start": "2020-04-12T22:00:00",
      "t_end": "2020-04-13T21:30:00",
      "link": ""
    },
    {
      "id": 471707,
      "lat": 31.6801068780001,
      "lon": 34.570062513,
      "label": "גלידה גולדה - אשקלון",
      "text": "",
      "stayTimes": "21:00 - 21:30",
      "t_start": "2020-04-11T19:00:00",
      "t_end": "2020-04-11T19:30:00",
      "link": ""
    },
    {
      "id": 471708,
      "lat": 32.1011471160001,
      "lon": 34.8955459370001,
      "label": "פעמית סטוק - פתח תקווה",
      "text": "",
      "stayTimes": "15:00 - 15:30",
      "t_start": "2020-04-12T13:00:00",
      "t_end": "2020-04-12T13:30:00",
      "link": ""
    },
    {
      "id": 471709,
      "lat": 32.1058370000001,
      "lon": 34.8923941,
      "label": "אושר עד - פתח תקווה",
      "text": "",
      "stayTimes": "16:00 - 16:45",
      "t_start": "2020-04-12T14:00:00",
      "t_end": "2020-04-12T14:45:00",
      "link": ""
    },
    {
      "id": 471710,
      "lat": 31.8030403000001,
      "lon": 35.2161090000001,
      "label": "מעון הורים שומרי החומות - ירושלים",
      "text": "",
      "stayTimes": "07:00 - 16:00",
      "t_start": "2020-04-13T05:00:00",
      "t_end": "2020-04-13T14:00:00",
      "link": ""
    },
    {
      "id": 471711,
      "lat": 31.8298405840001,
      "lon": 35.2448803280001,
      "label": "קופת חולים כללית פסגת זאב - ירושלים",
      "text": "",
      "stayTimes": "10:30 - 12:30",
      "t_start": "2020-04-12T08:30:00",
      "t_end": "2020-04-12T10:30:00",
      "link": ""
    },
    {
      "id": 471712,
      "lat": 31.9911338060001,
      "lon": 34.7607513570001,
      "label": "אושר עד - ראשון לציון",
      "text": "",
      "stayTimes": "21:00 - 22:00",
      "t_start": "2020-04-13T19:00:00",
      "t_end": "2020-04-13T20:00:00",
      "link": ""
    },
    {
      "id": 471713,
      "lat": 31.0596635000001,
      "lon": 35.0209987000001,
      "label": "מחסני השוק - דימונה",
      "text": "",
      "stayTimes": "17:30 - 19:00",
      "t_start": "2020-04-12T15:30:00",
      "t_end": "2020-04-12T17:00:00",
      "link": ""
    },
    {
      "id": 471714,
      "lat": 32.0891032000001,
      "lon": 34.8380488,
      "label": "שפע ברכת השם - בני ברק",
      "text": "",
      "stayTimes": "16:00 - 16:30",
      "t_start": "2020-04-13T14:00:00",
      "t_end": "2020-04-13T14:30:00",
      "link": ""
    },
    {
      "id": 471715,
      "lat": 32.1028236000001,
      "lon": 34.8361701000001,
      "label": "שופרסל - בני ברק",
      "text": "",
      "stayTimes": "14:30 - 15:45",
      "t_start": "2020-04-13T12:30:00",
      "t_end": "2020-04-13T13:45:00",
      "link": ""
    },
    {
      "id": 471716,
      "lat": 31.675718885,
      "lon": 34.558126859,
      "label": "דיור מוגן \"זהבית\" - אשקלון",
      "text": "",
      "stayTimes": "08:00 - 08:30",
      "t_start": "2020-04-16T06:00:00",
      "t_end": "2020-04-16T06:30:00",
      "link": ""
    },
    {
      "id": 471717,
      "lat": 31.9090748,
      "lon": 34.7988794,
      "label": "בית אבות נווה עמית רחובות - רחובות",
      "text": "",
      "stayTimes": "07:00 - 17:00",
      "t_start": "2020-04-14T05:00:00",
      "t_end": "2020-04-14T15:00:00",
      "link": ""
    },
    {
      "id": 471718,
      "lat": 31.9044489090001,
      "lon": 34.8119173950001,
      "label": "מכולת פינחסוב - רחובות",
      "text": "",
      "stayTimes": "12:30 - 12:40",
      "t_start": "2020-04-14T10:30:00",
      "t_end": "2020-04-14T10:40:00",
      "link": ""
    },
    {
      "id": 471719,
      "lat": 31.7962880000001,
      "lon": 34.6481630000001,
      "label": "ילסייבסקי - אשדוד",
      "text": "",
      "stayTimes": "11:00 - 12:00",
      "t_start": "2020-04-12T09:00:00",
      "t_end": "2020-04-12T10:00:00",
      "link": ""
    },
    {
      "id": 471720,
      "lat": 31.8030403000001,
      "lon": 35.2161090000001,
      "label": "מעון הורים שומרי החומות - ירושלים",
      "text": "",
      "stayTimes": "07:00 - 16:00",
      "t_start": "2020-04-12T05:00:00",
      "t_end": "2020-04-12T14:00:00",
      "link": ""
    },
    {
      "id": 471721,
      "lat": 31.8030403000001,
      "lon": 35.2161090000001,
      "label": "מעון הורים שומרי החומות - ירושלים",
      "text": "",
      "stayTimes": "00:00 - 07:00",
      "t_start": "2020-04-10T22:00:00",
      "t_end": "2020-04-11T05:00:00",
      "link": ""
    },
    {
      "id": 471722,
      "lat": 31.8030403000001,
      "lon": 35.2161090000001,
      "label": "מעון הורים שומרי החומות - ירושלים",
      "text": "",
      "stayTimes": "15:00 - 23:30",
      "t_start": "2020-04-11T13:00:00",
      "t_end": "2020-04-11T21:30:00",
      "link": ""
    },
    {
      "id": 471723,
      "lat": 31.8030403000001,
      "lon": 35.2161090000001,
      "label": "מעון הורים שומרי החומות - ירושלים",
      "text": "",
      "stayTimes": "00:00 - 07:00",
      "t_start": "2020-04-11T22:00:00",
      "t_end": "2020-04-12T05:00:00",
      "link": ""
    },
    {
      "id": 471724,
      "lat": 31.8030403000001,
      "lon": 35.2161090000001,
      "label": "מעון הורים שומרי החומות - ירושלים",
      "text": "",
      "stayTimes": "15:00 - 23:30",
      "t_start": "2020-04-12T13:00:00",
      "t_end": "2020-04-12T21:30:00",
      "link": ""
    },
    {
      "id": 471725,
      "lat": 31.8030403000001,
      "lon": 35.2161090000001,
      "label": "מעון הורים שומרי החומות - ירושלים",
      "text": "",
      "stayTimes": "00:00 - 07:00",
      "t_start": "2020-04-12T22:00:00",
      "t_end": "2020-04-13T05:00:00",
      "link": ""
    },
    {
      "id": 471726,
      "lat": 32.7130058700001,
      "lon": 35.3357284310001,
      "label": "רשת המזון\"MERKAZA\" - נוף הגליל",
      "text": "",
      "stayTimes": "12:00 - 13:00",
      "t_start": "2020-04-11T10:00:00",
      "t_end": "2020-04-11T11:00:00",
      "link": ""
    },
    {
      "id": 471727,
      "lat": 31.6757736690001,
      "lon": 34.5581590460001,
      "label": "דיור מוגן זהבית - אשקלון",
      "text": "",
      "stayTimes": "08:00 - 08:30",
      "t_start": "2020-04-16T06:00:00",
      "t_end": "2020-04-16T06:30:00",
      "link": ""
    },
    {
      "id": 471728,
      "lat": 32.048746506,
      "lon": 34.8427672490001,
      "label": "בית חולים שיבא מעון יולדות - רמת גן",
      "text": "",
      "stayTimes": "12:00 - 17:00",
      "t_start": "2020-04-15T10:00:00",
      "t_end": "2020-04-15T15:00:00",
      "link": ""
    },
    {
      "id": 471729,
      "lat": 31.9347997570001,
      "lon": 35.0422293330001,
      "label": "סופר ברכול - מודיעין עילית",
      "text": "",
      "stayTimes": "13:30 - 14:00",
      "t_start": "2020-04-14T11:30:00",
      "t_end": "2020-04-14T12:00:00",
      "link": ""
    },
    {
      "id": 471730,
      "lat": 31.712761469,
      "lon": 34.98786391,
      "label": "שירותי בריאות כללית - מרפאת דונה - בית שמש",
      "text": "",
      "stayTimes": "08:00 - 09:00",
      "t_start": "2020-04-12T06:00:00",
      "t_end": "2020-04-12T07:00:00",
      "link": ""
    },
    {
      "id": 471731,
      "lat": 32.7130058700001,
      "lon": 35.3357284310001,
      "label": "רשת מזון\"MERKAZA\" - נוף הגליל",
      "text": "",
      "stayTimes": "12:00 - 13:00",
      "t_start": "2020-04-11T10:00:00",
      "t_end": "2020-04-11T11:00:00",
      "link": ""
    },
    {
      "id": 471732,
      "lat": 31.8135049000001,
      "lon": 34.6500062000001,
      "label": "בית הדר, מחלקת מונשמים ג' - אשדוד",
      "text": "",
      "stayTimes": "10:30 - 11:00",
      "t_start": "2020-04-14T08:30:00",
      "t_end": "2020-04-14T09:00:00",
      "link": ""
    },
    {
      "id": 471733,
      "lat": 31.8030403000001,
      "lon": 35.2161090000001,
      "label": "מעון הורים שומרי החומות - ירושלים",
      "text": "",
      "stayTimes": "07:00 - 14:00",
      "t_start": "2020-04-12T05:00:00",
      "t_end": "2020-04-12T12:00:00",
      "link": ""
    },
    {
      "id": 471734,
      "lat": 32.0897795710001,
      "lon": 34.886604248,
      "label": "\"מרכז הפרי והירק\" - פתח תקווה",
      "text": "",
      "stayTimes": "12:00 - 13:00",
      "t_start": "2020-04-12T10:00:00",
      "t_end": "2020-04-12T11:00:00",
      "link": ""
    },
    {
      "id": 471735,
      "lat": 32.091445053,
      "lon": 34.893222731,
      "label": "סופרסל \"אקספרס\" - פתח תקווה",
      "text": "",
      "stayTimes": "13:00 - 14:00",
      "t_start": "2020-04-12T11:00:00",
      "t_end": "2020-04-12T12:00:00",
      "link": ""
    },
    {
      "id": 471736,
      "lat": 31.6743269340001,
      "lon": 34.5583682710001,
      "label": "סופר הטייסים - אשקלון",
      "text": "",
      "stayTimes": "11:00 - 11:30",
      "t_start": "2020-04-16T09:00:00",
      "t_end": "2020-04-16T09:30:00",
      "link": ""
    },
    {
      "id": 471737,
      "lat": 31.668080349,
      "lon": 34.557433486,
      "label": "סיטי רחמים - אשקלון",
      "text": "",
      "stayTimes": "11:30 - 12:30",
      "t_start": "2020-04-13T09:30:00",
      "t_end": "2020-04-13T10:30:00",
      "link": ""
    },
    {
      "id": 471738,
      "lat": 31.788231066,
      "lon": 35.2212232360001,
      "label": "חנות זול בגדול - ירושלים",
      "text": "",
      "stayTimes": "15:00 - 15:30",
      "t_start": "2020-04-13T13:00:00",
      "t_end": "2020-04-13T13:30:00",
      "link": ""
    },
    {
      "id": 471739,
      "lat": 31.7952268990001,
      "lon": 35.2335887200001,
      "label": "קופת חולים כללית סניף שייך גראח - ירושלים",
      "text": "",
      "stayTimes": "09:30 - 10:00",
      "t_start": "2020-04-12T07:30:00",
      "t_end": "2020-04-12T08:00:00",
      "link": ""
    },
    {
      "id": 471740,
      "lat": 31.8030403000001,
      "lon": 35.2161090000001,
      "label": "בית אבות \" מעון הורים\" - ירושלים",
      "text": "",
      "stayTimes": "08:00 - 23:30",
      "t_start": "2020-04-12T06:00:00",
      "t_end": "2020-04-12T21:30:00",
      "link": ""
    },
    {
      "id": 471741,
      "lat": 31.6577452000001,
      "lon": 34.5884741,
      "label": "טיב טעם - אשקלון",
      "text": "",
      "stayTimes": "14:30 - 15:30",
      "t_start": "2020-04-15T12:30:00",
      "t_end": "2020-04-15T13:30:00",
      "link": ""
    },
    {
      "id": 471742,
      "lat": 31.6743269340001,
      "lon": 34.5583682710001,
      "label": "חנות אוכל טייסים - אשקלון",
      "text": "",
      "stayTimes": "13:00 - 13:30",
      "t_start": "2020-04-15T11:00:00",
      "t_end": "2020-04-15T11:30:00",
      "link": ""
    },
    {
      "id": 471743,
      "lat": 31.6757736690001,
      "lon": 34.558126859,
      "label": "דיור מוגן זהבית - אשקלון",
      "text": "",
      "stayTimes": "08:00 - 23:30",
      "t_start": "2020-04-15T06:00:00",
      "t_end": "2020-04-15T21:30:00",
      "link": ""
    },
    {
      "id": 471744,
      "lat": 31.8161982450001,
      "lon": 35.1913211400001,
      "label": "סופר נוח - ירושלים",
      "text": "",
      "stayTimes": "10:00 - 10:30",
      "t_start": "2020-04-13T08:00:00",
      "t_end": "2020-04-13T08:30:00",
      "link": ""
    },
    {
      "id": 471745,
      "lat": 31.8168660000001,
      "lon": 35.1949220000001,
      "label": "שוק העיר סופר - ירושלים",
      "text": "",
      "stayTimes": "11:00 - 12:00",
      "t_start": "2020-04-12T09:00:00",
      "t_end": "2020-04-12T10:00:00",
      "link": ""
    },
    {
      "id": 471746,
      "lat": 31.8162614660001,
      "lon": 35.2026989140001,
      "label": "קופת חולים כללית רמות א - ירושלים",
      "text": "",
      "stayTimes": "11:00 - 11:30",
      "t_start": "2020-04-13T09:00:00",
      "t_end": "2020-04-13T09:30:00",
      "link": ""
    },
    {
      "id": 471747,
      "lat": 31.746205118,
      "lon": 34.9999872510001,
      "label": "זול ובגדול - בית שמש",
      "text": "",
      "stayTimes": "11:00 - 11:30",
      "t_start": "2020-04-16T09:00:00",
      "t_end": "2020-04-16T09:30:00",
      "link": ""
    },
    {
      "id": 471748,
      "lat": 31.7855956670001,
      "lon": 35.2256001110001,
      "label": "מרפאת מאוחדת - ירושלים",
      "text": "",
      "stayTimes": "13:00 - 13:30",
      "t_start": "2020-04-13T11:00:00",
      "t_end": "2020-04-13T11:30:00",
      "link": ""
    },
    {
      "id": 471749,
      "lat": 31.786257753,
      "lon": 35.1836297,
      "label": "מוסך מאפיית \"ברמן\" - ירושלים",
      "text": "",
      "stayTimes": "07:30 - 16:30",
      "t_start": "2020-04-16T05:30:00",
      "t_end": "2020-04-16T14:30:00",
      "link": ""
    },
    {
      "id": 471750,
      "lat": 31.7672563,
      "lon": 35.3014487,
      "label": "יינות ביתן - מעלה אדומים",
      "text": "",
      "stayTimes": "21:30 - 22:00",
      "t_start": "2020-04-12T19:30:00",
      "t_end": "2020-04-12T20:00:00",
      "link": ""
    },
    {
      "id": 471751,
      "lat": 32.9469460930001,
      "lon": 35.174164638,
      "label": "מרכז מזון ירכא - ירכא",
      "text": "",
      "stayTimes": "10:00 - 13:00",
      "t_start": "2020-04-11T08:00:00",
      "t_end": "2020-04-11T11:00:00",
      "link": ""
    },
    {
      "id": 471752,
      "lat": 32.9469460930001,
      "lon": 35.174164638,
      "label": "מרכז המזון ירכא - ירכא",
      "text": "",
      "stayTimes": "10:00 - 13:00",
      "t_start": "2020-04-11T08:00:00",
      "t_end": "2020-04-11T11:00:00",
      "link": ""
    },
    {
      "id": 471753,
      "lat": 31.793497605,
      "lon": 35.205474683,
      "label": "בית אבות גני אורה - ירושלים",
      "text": "",
      "stayTimes": "08:00 - 08:30",
      "t_start": "2020-04-15T06:00:00",
      "t_end": "2020-04-15T06:30:00",
      "link": ""
    },
    {
      "id": 471754,
      "lat": 32.4376137,
      "lon": 34.9222913,
      "label": "ויקטורי בתוך קהיון חדרה - חדרה",
      "text": "",
      "stayTimes": "12:30 - 14:00",
      "t_start": "2020-04-12T10:30:00",
      "t_end": "2020-04-12T12:00:00",
      "link": ""
    },
    {
      "id": 471755,
      "lat": 32.6486540000001,
      "lon": 35.288241,
      "label": "בית אבות אור העמק - מזרע",
      "text": "",
      "stayTimes": "07:15 - 17:30",
      "t_start": "2020-04-13T05:15:00",
      "t_end": "2020-04-13T15:30:00",
      "link": ""
    },
    {
      "id": 471756,
      "lat": 32.9198531220001,
      "lon": 35.092241195,
      "label": "סופרמרקט ויקטורי - עכו",
      "text": "",
      "stayTimes": "17:00 - 18:00",
      "t_start": "2020-04-13T15:00:00",
      "t_end": "2020-04-13T16:00:00",
      "link": ""
    },
    {
      "id": 471757,
      "lat": 32.0790865270001,
      "lon": 34.840483497,
      "label": "סופר \"יש חסד \" - בני ברק",
      "text": "",
      "stayTimes": "18:00 - 19:00",
      "t_start": "2020-04-14T16:00:00",
      "t_end": "2020-04-14T17:00:00",
      "link": ""
    },
    {
      "id": 471758,
      "lat": 32.9345874040001,
      "lon": 35.268433067,
      "label": "בית מטבחיים דבאח בדיראלאסד - דייר אל-אסד",
      "text": "",
      "stayTimes": "10:00 - 15:00",
      "t_start": "2020-04-12T08:00:00",
      "t_end": "2020-04-12T13:00:00",
      "link": ""
    },
    {
      "id": 471759,
      "lat": 31.894559746,
      "lon": 34.8040664160001,
      "label": "רמז מרכז מקצועי קופ\"ח כללית - רחובות",
      "text": "",
      "stayTimes": "08:00 - 08:30",
      "t_start": "2020-04-13T06:00:00",
      "t_end": "2020-04-13T06:30:00",
      "link": ""
    },
    {
      "id": 471760,
      "lat": 32.9345874040001,
      "lon": 35.268433067,
      "label": "חצר קניון דבאח - דייר אל-אסד",
      "text": "",
      "stayTimes": "13:30 - 14:30",
      "t_start": "2020-04-14T11:30:00",
      "t_end": "2020-04-14T12:30:00",
      "link": ""
    },
    {
      "id": 471761,
      "lat": 31.789385764,
      "lon": 34.6649219500001,
      "label": "סופר נתיב החסד - אשדוד",
      "text": "",
      "stayTimes": "12:30 - 13:30",
      "t_start": "2020-04-13T10:30:00",
      "t_end": "2020-04-13T11:30:00",
      "link": ""
    },
    {
      "id": 471762,
      "lat": 31.810927,
      "lon": 34.6560819000001,
      "label": "טיב טעם - אשדוד",
      "text": "",
      "stayTimes": "08:00 - 09:15",
      "t_start": "2020-04-12T06:00:00",
      "t_end": "2020-04-12T07:15:00",
      "link": ""
    },
    {
      "id": 471763,
      "lat": 31.7849069870001,
      "lon": 34.659511062,
      "label": "יינות ביתן - אשדוד",
      "text": "",
      "stayTimes": "08:00 - 09:00",
      "t_start": "2020-04-13T06:00:00",
      "t_end": "2020-04-13T07:00:00",
      "link": ""
    },
    {
      "id": 471764,
      "lat": 32.0852925070001,
      "lon": 34.8116566630001,
      "label": "סופרסל שלי בקניון - רמת גן",
      "text": "",
      "stayTimes": "15:30 - 15:40",
      "t_start": "2020-04-14T13:30:00",
      "t_end": "2020-04-14T13:40:00",
      "link": ""
    },
    {
      "id": 471765,
      "lat": 32.9613728670001,
      "lon": 35.4952217640001,
      "label": "קופת חולים כללית מרכז - צפת",
      "text": "",
      "stayTimes": "12:30 - 13:00",
      "t_start": "2020-04-12T10:30:00",
      "t_end": "2020-04-12T11:00:00",
      "link": ""
    },
    {
      "id": 471766,
      "lat": 32.621038034,
      "lon": 35.3165950600001,
      "label": "בית חולים עפולה , מחלקת טיפול נמרץ - עפולה",
      "text": "",
      "stayTimes": "08:00 - 08:30",
      "t_start": "2020-04-14T06:00:00",
      "t_end": "2020-04-14T06:30:00",
      "link": ""
    },
    {
      "id": 471767,
      "lat": 31.3733931,
      "lon": 34.8092845,
      "label": "מחסני השוק להבים - להבים",
      "text": "",
      "stayTimes": "11:00 - 11:30",
      "t_start": "2020-04-16T09:00:00",
      "t_end": "2020-04-16T09:30:00",
      "link": ""
    },
    {
      "id": 471768,
      "lat": 31.7949201380001,
      "lon": 34.6399715370001,
      "label": "סופרפארם - אשדוד",
      "text": "",
      "stayTimes": "20:30 - 21:00",
      "t_start": "2020-04-14T18:30:00",
      "t_end": "2020-04-14T19:00:00",
      "link": ""
    },
    {
      "id": 471769,
      "lat": 32.1823231000001,
      "lon": 34.8954868000001,
      "label": "בי\"ח מאיר- יחידה זיהומולוגית - כפר סבא",
      "text": "",
      "stayTimes": "08:30 - 09:00",
      "t_start": "2020-04-17T06:30:00",
      "t_end": "2020-04-17T07:00:00",
      "link": ""
    },
    {
      "id": 471770,
      "lat": 32.1841665000001,
      "lon": 34.8531795000001,
      "label": "סופר פארם - רעננה",
      "text": "",
      "stayTimes": "18:15 - 18:30",
      "t_start": "2020-04-16T16:15:00",
      "t_end": "2020-04-16T16:30:00",
      "link": ""
    },
    {
      "id": 471771,
      "lat": 32.1836543000001,
      "lon": 34.8530601000001,
      "label": "טיב טעם - רעננה",
      "text": "",
      "stayTimes": "19:00 - 19:30",
      "t_start": "2020-04-16T17:00:00",
      "t_end": "2020-04-16T17:30:00",
      "link": ""
    },
    {
      "id": 471772,
      "lat": 32.189621749,
      "lon": 34.854761931,
      "label": "עמנואל - רעננה",
      "text": "",
      "stayTimes": "15:00 - 15:15",
      "t_start": "2020-04-14T13:00:00",
      "t_end": "2020-04-14T13:15:00",
      "link": ""
    },
    {
      "id": 471773,
      "lat": 32.986226855,
      "lon": 35.0958594580001,
      "label": "שוק פייסל הגדול - מזרעה",
      "text": "",
      "stayTimes": "16:00 - 18:00",
      "t_start": "2020-04-13T14:00:00",
      "t_end": "2020-04-13T16:00:00",
      "link": ""
    },
    {
      "id": 471774,
      "lat": 32.986226855,
      "lon": 35.0958594580001,
      "label": "שוק פייסל הגדול - מזרעה",
      "text": "",
      "stayTimes": "16:00 - 18:00",
      "t_start": "2020-04-13T14:00:00",
      "t_end": "2020-04-13T16:00:00",
      "link": ""
    },
    {
      "id": 471775,
      "lat": 31.2700671310001,
      "lon": 34.796756788,
      "label": "מגה בעיר - באר שבע",
      "text": "",
      "stayTimes": "12:00 - 14:00",
      "t_start": "2020-04-13T10:00:00",
      "t_end": "2020-04-13T12:00:00",
      "link": ""
    },
    {
      "id": 471776,
      "lat": 31.2700671310001,
      "lon": 34.796756788,
      "label": "מכולת הכוכב - באר שבע",
      "text": "",
      "stayTimes": "12:00 - 13:00",
      "t_start": "2020-04-14T10:00:00",
      "t_end": "2020-04-14T11:00:00",
      "link": ""
    },
    {
      "id": 471777,
      "lat": 31.975751874,
      "lon": 34.8078484320001,
      "label": "סופרפארם - ראשון לציון",
      "text": "",
      "stayTimes": "12:00 - 12:30",
      "t_start": "2020-04-11T10:00:00",
      "t_end": "2020-04-11T10:30:00",
      "link": ""
    },
    {
      "id": 471778,
      "lat": 32.9254181970001,
      "lon": 35.3130105340001,
      "label": "KING STORE - כרמיאל",
      "text": "",
      "stayTimes": "14:30 - 15:15",
      "t_start": "2020-04-12T12:30:00",
      "t_end": "2020-04-12T13:15:00",
      "link": ""
    },
    {
      "id": 471779,
      "lat": 32.1810270340001,
      "lon": 34.8948060590001,
      "label": "מיון בית חולים מאיר - כפר סבא",
      "text": "",
      "stayTimes": "20:00 - 23:30",
      "t_start": "2020-04-13T18:00:00",
      "t_end": "2020-04-13T21:30:00",
      "link": ""
    },
    {
      "id": 471780,
      "lat": 32.09055499,
      "lon": 34.867065283,
      "label": "מיון בית חולים בלינסון - פתח תקווה",
      "text": "",
      "stayTimes": "13:00 - 23:30",
      "t_start": "2020-04-16T11:00:00",
      "t_end": "2020-04-16T21:30:00",
      "link": ""
    },
    {
      "id": 471781,
      "lat": 31.7949197,
      "lon": 34.6399758000001,
      "label": "סופר פארם - אשדוד",
      "text": "",
      "stayTimes": "20:30 - 21:00",
      "t_start": "2020-04-14T18:30:00",
      "t_end": "2020-04-14T19:00:00",
      "link": ""
    },
    {
      "id": 471782,
      "lat": 33.0083233,
      "lon": 35.1171239,
      "label": "בי\"ח נהריה מיון - נהריה",
      "text": "",
      "stayTimes": "11:30 - 13:30",
      "t_start": "2020-04-11T09:30:00",
      "t_end": "2020-04-11T11:30:00",
      "link": ""
    },
    {
      "id": 471783,
      "lat": 32.232983893,
      "lon": 34.9755923590001,
      "label": "\"ירקות ממדוח\" - טירה",
      "text": "",
      "stayTimes": "09:30 - 09:40",
      "t_start": "2020-04-17T07:30:00",
      "t_end": "2020-04-17T07:40:00",
      "link": ""
    },
    {
      "id": 471784,
      "lat": 32.924456574,
      "lon": 35.2769575130001,
      "label": "סופרמרקט- דבאח ובניו - דייר אל-אסד",
      "text": "",
      "stayTimes": "07:00 - 15:30",
      "t_start": "2020-04-11T05:00:00",
      "t_end": "2020-04-11T13:30:00",
      "link": ""
    },
    {
      "id": 471785,
      "lat": 32.924240438,
      "lon": 35.2767429360001,
      "label": "סופרמרקט- דבאח ובניו - דייר אל-אסד",
      "text": "",
      "stayTimes": "08:00 - 15:30",
      "t_start": "2020-04-14T06:00:00",
      "t_end": "2020-04-14T13:30:00",
      "link": ""
    },
    {
      "id": 471786,
      "lat": 32.9238802100001,
      "lon": 35.277418852,
      "label": "סופרמרקט- דאבאח ובניו - דייר אל-אסד",
      "text": "",
      "stayTimes": "15:00 - 20:30",
      "t_start": "2020-04-15T13:00:00",
      "t_end": "2020-04-15T18:30:00",
      "link": ""
    },
    {
      "id": 471787,
      "lat": 32.9230336680001,
      "lon": 35.27955389,
      "label": "סופרמרקט- דבאח ובניו - דייר אל-אסד",
      "text": "",
      "stayTimes": "12:30 - 21:00",
      "t_start": "2020-04-16T10:30:00",
      "t_end": "2020-04-16T19:00:00",
      "link": ""
    },
    {
      "id": 471788,
      "lat": 32.9244025410001,
      "lon": 35.276978969,
      "label": "סופרמרקט- דבאח ובניו - דייר אל-אסד",
      "text": "",
      "stayTimes": "15:00 - 18:00",
      "t_start": "2020-04-17T13:00:00",
      "t_end": "2020-04-17T16:00:00",
      "link": ""
    },
    {
      "id": 471789,
      "lat": 31.7135938260001,
      "lon": 34.9981497320001,
      "label": "בסט סופר - בית שמש",
      "text": "",
      "stayTimes": "21:30 - 22:30",
      "t_start": "2020-04-15T19:30:00",
      "t_end": "2020-04-15T20:30:00",
      "link": ""
    },
    {
      "id": 471790,
      "lat": 31.801014567,
      "lon": 34.647436731,
      "label": "בית מרקחת \"לאומית\" - אשדוד",
      "text": "",
      "stayTimes": "11:00 - 12:00",
      "t_start": "2020-04-13T09:00:00",
      "t_end": "2020-04-13T10:00:00",
      "link": ""
    },
    {
      "id": 471791,
      "lat": 32.6486540000001,
      "lon": 35.288241,
      "label": "בית אבות אור העמק - מזרע",
      "text": "",
      "stayTimes": "09:00 - 13:00",
      "t_start": "2020-04-12T07:00:00",
      "t_end": "2020-04-12T11:00:00",
      "link": ""
    },
    {
      "id": 471792,
      "lat": 32.1823231000001,
      "lon": 34.8954868000001,
      "label": "בי\"ח מאיר- מחלקה פנימית ד' - כפר סבא",
      "text": "",
      "stayTimes": "07:00 - 19:00",
      "t_start": "2020-04-15T05:00:00",
      "t_end": "2020-04-15T17:00:00",
      "link": ""
    },
    {
      "id": 471793,
      "lat": 32.028290579,
      "lon": 34.7483266520001,
      "label": "בי\"ח שיקומי בית בלב - בת ים",
      "text": "",
      "stayTimes": "10:00 - 11:00",
      "t_start": "2020-04-17T08:00:00",
      "t_end": "2020-04-17T09:00:00",
      "link": ""
    },
    {
      "id": 471794,
      "lat": 32.1823231000001,
      "lon": 34.8954868000001,
      "label": "בי\"ח מאיר- מחלקה פנימית ד' - כפר סבא",
      "text": "",
      "stayTimes": "07:00 - 19:00",
      "t_start": "2020-04-12T05:00:00",
      "t_end": "2020-04-12T17:00:00",
      "link": ""
    },
    {
      "id": 471795,
      "lat": 32.181691662,
      "lon": 34.8960960370001,
      "label": "רשת BE פארם - כפר סבא",
      "text": "",
      "stayTimes": "09:05 - 09:10",
      "t_start": "2020-04-17T07:05:00",
      "t_end": "2020-04-17T07:10:00",
      "link": ""
    },
    {
      "id": 471796,
      "lat": 32.9235495,
      "lon": 35.3140916,
      "label": "מפעל דבאח בכרמיאל - כרמיאל",
      "text": "",
      "stayTimes": "07:00 - 18:00",
      "t_start": "2020-04-15T05:00:00",
      "t_end": "2020-04-15T16:00:00",
      "link": ""
    },
    {
      "id": 471797,
      "lat": 32.0452360780001,
      "lon": 34.842521306,
      "label": "בית חולים שיב\"א מחלקה פנימית - רמת גן",
      "text": "",
      "stayTimes": "07:00 - 19:00",
      "t_start": "2020-04-12T05:00:00",
      "t_end": "2020-04-12T17:00:00",
      "link": ""
    },
    {
      "id": 471798,
      "lat": 31.8153024150001,
      "lon": 35.2149615700001,
      "label": "הוסטל הלב והמעין רמת שלמה - ירושלים",
      "text": "",
      "stayTimes": "13:30 - 21:30",
      "t_start": "2020-04-16T11:30:00",
      "t_end": "2020-04-16T19:30:00",
      "link": ""
    },
    {
      "id": 471799,
      "lat": 32.182385713,
      "lon": 34.895502509,
      "label": "מיון נשימתי בי\"ח מאיר - כפר סבא",
      "text": "",
      "stayTimes": "18:30 - 23:59",
      "t_start": "2020-04-18T16:30:00",
      "t_end": "2020-04-18T21:59:00",
      "link": ""
    },
    {
      "id": 471800,
      "lat": 31.6928544,
      "lon": 35.1096686000001,
      "label": "חסד לאלפים - ביתר עילית",
      "text": "",
      "stayTimes": "02:00 - 03:00",
      "t_start": "2020-04-16T00:00:00",
      "t_end": "2020-04-16T01:00:00",
      "link": ""
    },
    {
      "id": 471801,
      "lat": 31.6904939,
      "lon": 35.1084599000001,
      "label": "שפע ברכת ה' - ביתר עילית",
      "text": "",
      "stayTimes": "10:00 - 10:30",
      "t_start": "2020-04-12T08:00:00",
      "t_end": "2020-04-12T08:30:00",
      "link": ""
    },
    {
      "id": 471802,
      "lat": 31.41472,
      "lon": 34.578362,
      "label": "בית כנסת קול יעקוב - נתיבות",
      "text": "",
      "stayTimes": "13:00 - 15:30",
      "t_start": "2020-04-16T11:00:00",
      "t_end": "2020-04-16T13:30:00",
      "link": ""
    },
    {
      "id": 471803,
      "lat": 32.0756564980001,
      "lon": 34.8363558280001,
      "label": "סופר ברכה - בני ברק",
      "text": "",
      "stayTimes": "11:00 - 11:30",
      "t_start": "2020-04-14T09:00:00",
      "t_end": "2020-04-14T09:30:00",
      "link": ""
    },
    {
      "id": 471804,
      "lat": 32.057107,
      "lon": 34.8691424,
      "label": "בית מרקחת סופר פארם גבעת סביון - גני תקווה",
      "text": "",
      "stayTimes": "12:15 - 13:00",
      "t_start": "2020-04-14T10:15:00",
      "t_end": "2020-04-14T11:00:00",
      "link": ""
    },
    {
      "id": 471805,
      "lat": 32.0295718300001,
      "lon": 34.845199742,
      "label": "קופ\"ח כללית - אור יהודה",
      "text": "",
      "stayTimes": "10:00 - 12:00",
      "t_start": "2020-04-16T08:00:00",
      "t_end": "2020-04-16T10:00:00",
      "link": ""
    },
    {
      "id": 471806,
      "lat": 32.0862216,
      "lon": 34.8530480000001,
      "label": "סופר ברקת - גבעת שמואל",
      "text": "",
      "stayTimes": "12:00 - 13:00",
      "t_start": "2020-04-17T10:00:00",
      "t_end": "2020-04-17T11:00:00",
      "link": ""
    },
    {
      "id": 471807,
      "lat": 31.697211822,
      "lon": 35.120860248,
      "label": "סופר שפע חיים - ביתר עילית",
      "text": "",
      "stayTimes": "09:00 - 11:00",
      "t_start": "2020-04-16T07:00:00",
      "t_end": "2020-04-16T09:00:00",
      "link": ""
    },
    {
      "id": 471808,
      "lat": 32.6413986200001,
      "lon": 35.3596814090001,
      "label": "\"יכין\" אלון תבור, מחלקת ירקות - עפולה",
      "text": "",
      "stayTimes": "06:30 - 10:30",
      "t_start": "2020-04-16T04:30:00",
      "t_end": "2020-04-16T08:30:00",
      "link": ""
    },
    {
      "id": 471809,
      "lat": 32.621038034,
      "lon": 35.3165950600001,
      "label": "מיון ביח' העמק - עפולה",
      "text": "",
      "stayTimes": "10:30 - 11:30",
      "t_start": "2020-04-16T08:30:00",
      "t_end": "2020-04-16T09:30:00",
      "link": ""
    },
    {
      "id": 471810,
      "lat": 31.7566910000001,
      "lon": 34.98792,
      "label": "\"טרם\" בית שמש - בית שמש",
      "text": "",
      "stayTimes": "22:00 - 23:00",
      "t_start": "2020-04-12T20:00:00",
      "t_end": "2020-04-12T21:00:00",
      "link": ""
    },
    {
      "id": 471811,
      "lat": 32.0799705750001,
      "lon": 34.833529196,
      "label": "ניו פארם - בני ברק",
      "text": "",
      "stayTimes": "13:00 - 13:05",
      "t_start": "2020-04-12T11:00:00",
      "t_end": "2020-04-12T11:05:00",
      "link": ""
    },
    {
      "id": 471812,
      "lat": 32.0129061690001,
      "lon": 34.804263658,
      "label": "מפעל מוצרי נייר דפניר - חולון",
      "text": "",
      "stayTimes": "08:00 - 08:30",
      "t_start": "2020-04-13T06:00:00",
      "t_end": "2020-04-13T06:30:00",
      "link": ""
    },
    {
      "id": 471813,
      "lat": 31.7841080920001,
      "lon": 34.6528039030001,
      "label": "אסותא כלניות - אשדוד",
      "text": "",
      "stayTimes": "12:00 - 14:00",
      "t_start": "2020-04-14T10:00:00",
      "t_end": "2020-04-14T12:00:00",
      "link": ""
    },
    {
      "id": 471814,
      "lat": 32.7130058700001,
      "lon": 35.3357284310001,
      "label": "מרכאזה - נוף הגליל",
      "text": "",
      "stayTimes": "12:30 - 13:45",
      "t_start": "2020-04-16T10:30:00",
      "t_end": "2020-04-16T11:45:00",
      "link": ""
    },
    {
      "id": 471815,
      "lat": 31.7921206610001,
      "lon": 34.667103533,
      "label": "סופר נתיב החסד - אשדוד",
      "text": "",
      "stayTimes": "09:30 - 10:30",
      "t_start": "2020-04-12T07:30:00",
      "t_end": "2020-04-12T08:30:00",
      "link": ""
    },
    {
      "id": 471816,
      "lat": 31.791654571,
      "lon": 34.668152578,
      "label": "סופר נתיב החסד - אשדוד",
      "text": "",
      "stayTimes": "09:30 - 10:30",
      "t_start": "2020-04-13T07:30:00",
      "t_end": "2020-04-13T08:30:00",
      "link": ""
    },
    {
      "id": 471817,
      "lat": 31.792128765,
      "lon": 34.667103534,
      "label": "סופר נתיב החסד - אשדוד",
      "text": "",
      "stayTimes": "09:30 - 10:30",
      "t_start": "2020-04-15T07:30:00",
      "t_end": "2020-04-15T08:30:00",
      "link": ""
    },
    {
      "id": 471818,
      "lat": 31.7921053800001,
      "lon": 34.667089359,
      "label": "סופר נתיב החסד - אשדוד",
      "text": "",
      "stayTimes": "09:30 - 10:30",
      "t_start": "2020-04-16T07:30:00",
      "t_end": "2020-04-16T08:30:00",
      "link": ""
    },
    {
      "id": 471819,
      "lat": 32.0999678970001,
      "lon": 34.8952338130001,
      "label": "שופרסל דיל - פתח תקווה",
      "text": "",
      "stayTimes": "08:00 - 08:30",
      "t_start": "2020-04-16T06:00:00",
      "t_end": "2020-04-16T06:30:00",
      "link": ""
    },
    {
      "id": 471820,
      "lat": 32.0999678970001,
      "lon": 34.8952338130001,
      "label": "שופרסל דיל - פתח תקווה",
      "text": "",
      "stayTimes": "08:00 - 08:30",
      "t_start": "2020-04-14T06:00:00",
      "t_end": "2020-04-14T06:30:00",
      "link": ""
    },
    {
      "id": 471821,
      "lat": 31.4213816120001,
      "lon": 34.600072927,
      "label": "פיצוחי דני - נתיבות",
      "text": "",
      "stayTimes": "15:00 - 15:30",
      "t_start": "2020-04-14T13:00:00",
      "t_end": "2020-04-14T13:30:00",
      "link": ""
    },
    {
      "id": 471822,
      "lat": 32.1058370000001,
      "lon": 34.8923941,
      "label": "אושר עד - סופר - פתח תקווה",
      "text": "",
      "stayTimes": "08:00 - 08:30",
      "t_start": "2020-04-12T06:00:00",
      "t_end": "2020-04-12T06:30:00",
      "link": ""
    },
    {
      "id": 471823,
      "lat": 32.6933943000001,
      "lon": 35.3034068000001,
      "label": "משהדאוי קינג סטור - נוף הגליל",
      "text": "",
      "stayTimes": "14:00 - 14:45",
      "t_start": "2020-04-16T12:00:00",
      "t_end": "2020-04-16T12:45:00",
      "link": ""
    },
    {
      "id": 471824,
      "lat": 32.0256611360001,
      "lon": 34.7573726840001,
      "label": "בית חולים אברבנל - בת ים",
      "text": "",
      "stayTimes": "00:00 - 23:59",
      "t_start": "2020-04-10T22:00:00",
      "t_end": "2020-04-11T21:59:00",
      "link": ""
    },
    {
      "id": 471825,
      "lat": 32.0256611360001,
      "lon": 34.7573726840001,
      "label": "בית חולים אברבנל - בת ים",
      "text": "",
      "stayTimes": "00:00 - 23:59",
      "t_start": "2020-04-11T22:00:00",
      "t_end": "2020-04-12T21:59:00",
      "link": ""
    },
    {
      "id": 471826,
      "lat": 32.0256611360001,
      "lon": 34.7573726840001,
      "label": "בית חולים אברבנל - בת ים",
      "text": "",
      "stayTimes": "00:00 - 23:59",
      "t_start": "2020-04-12T22:00:00",
      "t_end": "2020-04-13T21:59:00",
      "link": ""
    },
    {
      "id": 471827,
      "lat": 32.0256611360001,
      "lon": 34.7573726840001,
      "label": "בית חולים אברבנל - בת ים",
      "text": "",
      "stayTimes": "00:00 - 23:59",
      "t_start": "2020-04-13T22:00:00",
      "t_end": "2020-04-14T21:59:00",
      "link": ""
    },
    {
      "id": 471828,
      "lat": 32.0256611360001,
      "lon": 34.7573726840001,
      "label": "בית חולים אברבנל - בת ים",
      "text": "",
      "stayTimes": "00:00 - 23:59",
      "t_start": "2020-04-14T22:00:00",
      "t_end": "2020-04-15T21:59:00",
      "link": ""
    },
    {
      "id": 471829,
      "lat": 32.0256611360001,
      "lon": 34.7573726840001,
      "label": "בית חולים אברבנל - בת ים",
      "text": "",
      "stayTimes": "00:00 - 23:59",
      "t_start": "2020-04-15T22:00:00",
      "t_end": "2020-04-16T21:59:00",
      "link": ""
    },
    {
      "id": 471830,
      "lat": 32.0481437330001,
      "lon": 34.8442158660001,
      "label": "בית חולים שיבא,פנימית א - רמת גן",
      "text": "",
      "stayTimes": "00:00 - 07:30",
      "t_start": "2020-04-14T22:00:00",
      "t_end": "2020-04-15T05:30:00",
      "link": ""
    },
    {
      "id": 471831,
      "lat": 32.0482594110001,
      "lon": 34.843937505,
      "label": "בית חולים שיבא,פנימית א - רמת גן",
      "text": "",
      "stayTimes": "07:00 - 19:30",
      "t_start": "2020-04-16T05:00:00",
      "t_end": "2020-04-16T17:30:00",
      "link": ""
    },
    {
      "id": 471832,
      "lat": 32.0482649940001,
      "lon": 34.8439179160001,
      "label": "בית חולים שיבא,פנימית א - רמת גן",
      "text": "",
      "stayTimes": "19:00 - 23:59",
      "t_start": "2020-04-17T17:00:00",
      "t_end": "2020-04-17T21:59:00",
      "link": ""
    },
    {
      "id": 471833,
      "lat": 32.0482649960001,
      "lon": 34.8439345130001,
      "label": "בית חולים שיבא,פנימית א - רמת גן",
      "text": "",
      "stayTimes": "00:00 - 07:30",
      "t_start": "2020-04-17T22:00:00",
      "t_end": "2020-04-18T05:30:00",
      "link": ""
    },
    {
      "id": 471834,
      "lat": 31.7880137970001,
      "lon": 34.6440177630001,
      "label": "מרפאה בבית פרימאק - אשדוד",
      "text": "",
      "stayTimes": "17:30 - 18:30",
      "t_start": "2020-04-16T15:30:00",
      "t_end": "2020-04-16T16:30:00",
      "link": ""
    },
    {
      "id": 471835,
      "lat": 32.986226855,
      "lon": 35.0958594580001,
      "label": "שוק פייסל  מזרעה - מזרעה",
      "text": "",
      "stayTimes": "16:00 - 18:00",
      "t_start": "2020-04-13T14:00:00",
      "t_end": "2020-04-13T16:00:00",
      "link": ""
    },
    {
      "id": 471836,
      "lat": 32.1024538980001,
      "lon": 34.896089196,
      "label": "פלאפון - פתח תקווה",
      "text": "",
      "stayTimes": "09:15 - 09:30",
      "t_start": "2020-04-17T07:15:00",
      "t_end": "2020-04-17T07:30:00",
      "link": ""
    },
    {
      "id": 471837,
      "lat": 32.083765934,
      "lon": 34.8073842680001,
      "label": "MF MOBILE - רמת גן",
      "text": "",
      "stayTimes": "06:00 - 10:00",
      "t_start": "2020-04-16T04:00:00",
      "t_end": "2020-04-16T08:00:00",
      "link": ""
    },
    {
      "id": 471838,
      "lat": 32.0835023160001,
      "lon": 34.8072072420001,
      "label": "MF MOBILE - רמת גן",
      "text": "",
      "stayTimes": "11:00 - 13:00",
      "t_start": "2020-04-16T09:00:00",
      "t_end": "2020-04-16T11:00:00",
      "link": ""
    },
    {
      "id": 471839,
      "lat": 32.621038034,
      "lon": 35.3165950600001,
      "label": "מח' אורולוגית ביח' העמק - עפולה",
      "text": "",
      "stayTimes": "08:00 - 23:30",
      "t_start": "2020-04-16T06:00:00",
      "t_end": "2020-04-16T21:30:00",
      "link": ""
    },
    {
      "id": 471840,
      "lat": 32.621038034,
      "lon": 35.3165950600001,
      "label": "מח' אורולוגית ביח' העמק - עפולה",
      "text": "",
      "stayTimes": "08:00 - 23:30",
      "t_start": "2020-04-17T06:00:00",
      "t_end": "2020-04-17T21:30:00",
      "link": ""
    },
    {
      "id": 471841,
      "lat": 32.621038034,
      "lon": 35.3165950600001,
      "label": "מח' אורולוגית ביח' העמק - עפולה",
      "text": "",
      "stayTimes": "08:00 - 23:30",
      "t_start": "2020-04-18T06:00:00",
      "t_end": "2020-04-18T21:30:00",
      "link": ""
    },
    {
      "id": 471842,
      "lat": 32.621038034,
      "lon": 35.3165950600001,
      "label": "מיון פנימי ביח' העמק - עפולה",
      "text": "",
      "stayTimes": "17:30 - 23:59",
      "t_start": "2020-04-16T15:30:00",
      "t_end": "2020-04-16T21:59:00",
      "link": ""
    },
    {
      "id": 471843,
      "lat": 32.621038034,
      "lon": 35.3165950600001,
      "label": "מיון פנימי ביח' העמק - עפולה",
      "text": "",
      "stayTimes": "00:00 - 23:30",
      "t_start": "2020-04-16T22:00:00",
      "t_end": "2020-04-17T21:30:00",
      "link": ""
    },
    {
      "id": 471844,
      "lat": 31.9374902430001,
      "lon": 35.043191828,
      "label": "מכולת ברכת הרשבי - מודיעין עילית",
      "text": "",
      "stayTimes": "10:00 - 10:45",
      "t_start": "2020-04-13T08:00:00",
      "t_end": "2020-04-13T08:45:00",
      "link": ""
    },
    {
      "id": 471845,
      "lat": 32.0452360780001,
      "lon": 34.842521306,
      "label": "מיון תל השומר - רמת גן",
      "text": "",
      "stayTimes": "08:00 - 10:30",
      "t_start": "2020-04-20T06:00:00",
      "t_end": "2020-04-20T08:30:00",
      "link": ""
    },
    {
      "id": 471846,
      "lat": 32.9243927000001,
      "lon": 35.2769814000001,
      "label": "קניון דבאח - דייר אל-אסד",
      "text": "",
      "stayTimes": "11:00 - 12:00",
      "t_start": "2020-04-11T09:00:00",
      "t_end": "2020-04-11T10:00:00",
      "link": ""
    },
    {
      "id": 471847,
      "lat": 32.7130058700001,
      "lon": 35.3357284310001,
      "label": "מרכאזה - נוף הגליל",
      "text": "",
      "stayTimes": "14:00 - 16:00",
      "t_start": "2020-04-14T12:00:00",
      "t_end": "2020-04-14T14:00:00",
      "link": ""
    },
    {
      "id": 471848,
      "lat": 32.621038034,
      "lon": 35.3165950600001,
      "label": "מח' אורולוגית ביח' העמק - עפולה",
      "text": "",
      "stayTimes": "08:00 - 23:30",
      "t_start": "2020-04-12T06:00:00",
      "t_end": "2020-04-12T21:30:00",
      "link": ""
    },
    {
      "id": 471849,
      "lat": 32.621038034,
      "lon": 35.3165950600001,
      "label": "מח' אורולוגית ביח' העמק - עפולה",
      "text": "",
      "stayTimes": "08:00 - 23:30",
      "t_start": "2020-04-13T06:00:00",
      "t_end": "2020-04-13T21:30:00",
      "link": ""
    },
    {
      "id": 471850,
      "lat": 32.621038034,
      "lon": 35.3165950600001,
      "label": "מח' אורולוגית ביח' העמק - עפולה",
      "text": "",
      "stayTimes": "08:00 - 23:30",
      "t_start": "2020-04-14T06:00:00",
      "t_end": "2020-04-14T21:30:00",
      "link": ""
    },
    {
      "id": 471851,
      "lat": 32.621038034,
      "lon": 35.3165950600001,
      "label": "מח' אורולוגית ביח' העמק - עפולה",
      "text": "",
      "stayTimes": "08:00 - 23:30",
      "t_start": "2020-04-15T06:00:00",
      "t_end": "2020-04-15T21:30:00",
      "link": ""
    },
    {
      "id": 471852,
      "lat": 31.6928544,
      "lon": 35.1096686000001,
      "label": "חסד לאלפים - ביתר עילית",
      "text": "",
      "stayTimes": "02:00 - 03:00",
      "t_start": "2020-04-16T00:00:00",
      "t_end": "2020-04-16T01:00:00",
      "link": ""
    },
    {
      "id": 471853,
      "lat": 31.6904939,
      "lon": 35.1084599000001,
      "label": "שפע ברכת ה' - ביתר עילית",
      "text": "",
      "stayTimes": "10:00 - 11:30",
      "t_start": "2020-04-14T08:00:00",
      "t_end": "2020-04-14T09:30:00",
      "link": ""
    },
    {
      "id": 471854,
      "lat": 32.9235793720001,
      "lon": 35.314100136,
      "label": "באסם דאבח בע\"מ - כרמיאל",
      "text": "",
      "stayTimes": "07:00 - 17:00",
      "t_start": "2020-04-13T05:00:00",
      "t_end": "2020-04-13T15:00:00",
      "link": ""
    },
    {
      "id": 471855,
      "lat": 32.642628013,
      "lon": 35.0918972360001,
      "label": "שופרסל ביג - יקנעם עילית",
      "text": "",
      "stayTimes": "09:00 - 10:00",
      "t_start": "2020-04-17T07:00:00",
      "t_end": "2020-04-17T08:00:00",
      "link": ""
    },
    {
      "id": 471856,
      "lat": 32.7338385,
      "lon": 35.1403368000001,
      "label": "מוסך רכב, ח'אלד זובידאת - בסמת טבעון",
      "text": "",
      "stayTimes": "14:00 - 14:30",
      "t_start": "2020-04-17T12:00:00",
      "t_end": "2020-04-17T12:30:00",
      "link": ""
    },
    {
      "id": 471857,
      "lat": 32.0484680760001,
      "lon": 34.8434910710001,
      "label": "בית חולים שיבא,פנימית א - רמת גן",
      "text": "",
      "stayTimes": "00:00 - 07:30",
      "t_start": "2020-04-10T22:00:00",
      "t_end": "2020-04-11T05:30:00",
      "link": ""
    },
    {
      "id": 471858,
      "lat": 32.0484680760001,
      "lon": 34.8434910710001,
      "label": "בית חולים שיבא,פנימית א - רמת גן",
      "text": "",
      "stayTimes": "07:00 - 19:00",
      "t_start": "2020-04-13T05:00:00",
      "t_end": "2020-04-13T17:00:00",
      "link": ""
    },
    {
      "id": 471859,
      "lat": 32.0484680760001,
      "lon": 34.8434910710001,
      "label": "בית חולים שיבא,פנימית א - רמת גן",
      "text": "",
      "stayTimes": "19:00 - 23:59",
      "t_start": "2020-04-14T17:00:00",
      "t_end": "2020-04-14T21:59:00",
      "link": ""
    },
    {
      "id": 471860,
      "lat": 31.2135308480001,
      "lon": 34.8110135210001,
      "label": "סופר אושר עד - באר שבע",
      "text": "",
      "stayTimes": "08:00 - 08:30",
      "t_start": "2020-04-17T06:00:00",
      "t_end": "2020-04-17T06:30:00",
      "link": ""
    },
    {
      "id": 471861,
      "lat": 32.0484680760001,
      "lon": 34.8434910710001,
      "label": "בית חולים שיבא,פנימית א - רמת גן",
      "text": "",
      "stayTimes": "07:00 - 19:00",
      "t_start": "2020-04-16T05:00:00",
      "t_end": "2020-04-16T17:00:00",
      "link": ""
    },
    {
      "id": 471862,
      "lat": 32.0484680760001,
      "lon": 34.8434910710001,
      "label": "בית חולים שיבא,פנימית א - רמת גן",
      "text": "",
      "stayTimes": "07:00 - 19:00",
      "t_start": "2020-04-19T05:00:00",
      "t_end": "2020-04-19T17:00:00",
      "link": ""
    },
    {
      "id": 471863,
      "lat": 32.0484680760001,
      "lon": 34.8434910710001,
      "label": "בית חולים שיבא,פנימית א - רמת גן",
      "text": "",
      "stayTimes": "07:00 - 19:00",
      "t_start": "2020-04-13T05:00:00",
      "t_end": "2020-04-13T17:00:00",
      "link": ""
    },
    {
      "id": 471864,
      "lat": 32.0525778960001,
      "lon": 34.9511771420001,
      "label": "יש חסד - אלעד",
      "text": "",
      "stayTimes": "11:30 - 11:50",
      "t_start": "2020-04-19T09:30:00",
      "t_end": "2020-04-19T09:50:00",
      "link": ""
    },
    {
      "id": 471865,
      "lat": 31.7997442980001,
      "lon": 34.6623996050001,
      "label": "יש חסד - אשדוד",
      "text": "",
      "stayTimes": "13:00 - 13:10",
      "t_start": "2020-04-14T11:00:00",
      "t_end": "2020-04-14T11:10:00",
      "link": ""
    },
    {
      "id": 471866,
      "lat": 31.7997442980001,
      "lon": 34.6623996050001,
      "label": "יש חסד - אשדוד",
      "text": "",
      "stayTimes": "14:00 - 14:10",
      "t_start": "2020-04-14T12:00:00",
      "t_end": "2020-04-14T12:10:00",
      "link": ""
    },
    {
      "id": 471867,
      "lat": 32.0556761820001,
      "lon": 34.9606221220001,
      "label": "דואר - אלעד",
      "text": "",
      "stayTimes": "10:50 - 11:15",
      "t_start": "2020-04-19T08:50:00",
      "t_end": "2020-04-19T09:15:00",
      "link": ""
    },
    {
      "id": 471868,
      "lat": 32.0946102820001,
      "lon": 34.8857519630001,
      "label": "HOT MOBILE - פתח תקווה",
      "text": "",
      "stayTimes": "12:00 - 12:45",
      "t_start": "2020-04-17T10:00:00",
      "t_end": "2020-04-17T10:45:00",
      "link": ""
    },
    {
      "id": 471869,
      "lat": 31.7915405540001,
      "lon": 35.1995432150001,
      "label": "תחנת מד\"א שנלר - ירושלים",
      "text": "",
      "stayTimes": "15:30 - 17:00",
      "t_start": "2020-04-16T13:30:00",
      "t_end": "2020-04-16T15:00:00",
      "link": ""
    },
    {
      "id": 471870,
      "lat": 31.7915405540001,
      "lon": 35.1995432150001,
      "label": "תחנת מד\"א שנלר - ירושלים",
      "text": "",
      "stayTimes": "15:30 - 17:00",
      "t_start": "2020-04-16T13:30:00",
      "t_end": "2020-04-16T15:00:00",
      "link": ""
    },
    {
      "id": 471871,
      "lat": 32.090821981,
      "lon": 34.8388174410001,
      "label": "\"יש\" - בני ברק",
      "text": "",
      "stayTimes": "19:30 - 20:00",
      "t_start": "2020-04-16T17:30:00",
      "t_end": "2020-04-16T18:00:00",
      "link": ""
    },
    {
      "id": 471872,
      "lat": 31.7915405540001,
      "lon": 35.1995432150001,
      "label": "תחנת מד\"א שנלר - ירושלים",
      "text": "",
      "stayTimes": "15:30 - 17:00",
      "t_start": "2020-04-16T13:30:00",
      "t_end": "2020-04-16T15:00:00",
      "link": ""
    },
    {
      "id": 471873,
      "lat": 31.7010023,
      "lon": 35.1119254000001,
      "label": "שפע זול - ביתר עילית",
      "text": "",
      "stayTimes": "21:00 - 21:30",
      "t_start": "2020-04-15T19:00:00",
      "t_end": "2020-04-15T19:30:00",
      "link": ""
    },
    {
      "id": 471874,
      "lat": 31.753177212,
      "lon": 35.212837075,
      "label": "אושר עד - ירושלים",
      "text": "",
      "stayTimes": "13:00 - 14:00",
      "t_start": "2020-04-16T11:00:00",
      "t_end": "2020-04-16T12:00:00",
      "link": ""
    },
    {
      "id": 471875,
      "lat": 32.8047780000001,
      "lon": 35.0033715000001,
      "label": "שוק מהדרין - חיפה",
      "text": "",
      "stayTimes": "09:30 - 10:30",
      "t_start": "2020-04-13T07:30:00",
      "t_end": "2020-04-13T08:30:00",
      "link": ""
    },
    {
      "id": 471876,
      "lat": 32.80547125,
      "lon": 35.001583135,
      "label": "נתיב החסד - חיפה",
      "text": "",
      "stayTimes": "09:00 - 10:00",
      "t_start": "2020-04-17T07:00:00",
      "t_end": "2020-04-17T08:00:00",
      "link": ""
    },
    {
      "id": 471877,
      "lat": 32.80547125,
      "lon": 35.001583135,
      "label": "נתיב החסד - חיפה",
      "text": "",
      "stayTimes": "09:00 - 10:00",
      "t_start": "2020-04-12T07:00:00",
      "t_end": "2020-04-12T08:00:00",
      "link": ""
    },
    {
      "id": 471878,
      "lat": 32.263651538,
      "lon": 35.017031773,
      "label": "סופר \"ביג סטור\" - טייבה",
      "text": "",
      "stayTimes": "21:55 - 22:35",
      "t_start": "2020-04-15T19:55:00",
      "t_end": "2020-04-15T20:35:00",
      "link": ""
    },
    {
      "id": 471879,
      "lat": 31.72654185,
      "lon": 34.7450478210001,
      "label": "ויקטורי - קרית מלאכי",
      "text": "",
      "stayTimes": "11:00 - 16:00",
      "t_start": "2020-04-16T09:00:00",
      "t_end": "2020-04-16T14:00:00",
      "link": ""
    },
    {
      "id": 471880,
      "lat": 32.9166121530001,
      "lon": 35.250258011,
      "label": "תחנת  דלק YELLO - מג'ד אל-כרום",
      "text": "",
      "stayTimes": "14:00 - 15:00",
      "t_start": "2020-04-19T12:00:00",
      "t_end": "2020-04-19T13:00:00",
      "link": ""
    },
    {
      "id": 471881,
      "lat": 32.9240333440001,
      "lon": 35.2762804970001,
      "label": "מקאטו - דייר אל-אסד",
      "text": "",
      "stayTimes": "15:00 - 15:30",
      "t_start": "2020-04-17T13:00:00",
      "t_end": "2020-04-17T13:30:00",
      "link": ""
    },
    {
      "id": 471882,
      "lat": 32.138536,
      "lon": 34.8439339,
      "label": "מרפאת מכבי - רמת השרון",
      "text": "",
      "stayTimes": "15:00 - 16:00",
      "t_start": "2020-04-16T13:00:00",
      "t_end": "2020-04-16T14:00:00",
      "link": ""
    },
    {
      "id": 471883,
      "lat": 31.424246152,
      "lon": 34.598053834,
      "label": "קופת חולים מכבי - נתיבות",
      "text": "",
      "stayTimes": "12:00 - 12:30",
      "t_start": "2020-04-17T10:00:00",
      "t_end": "2020-04-17T10:30:00",
      "link": ""
    },
    {
      "id": 471884,
      "lat": 32.4855131,
      "lon": 34.9698419000001,
      "label": "מרכז גריאטרי שוהם - פרדס חנה-כרכור",
      "text": "",
      "stayTimes": "07:00 - 15:00",
      "t_start": "2020-04-19T05:00:00",
      "t_end": "2020-04-19T13:00:00",
      "link": ""
    },
    {
      "id": 471885,
      "lat": 31.794856135,
      "lon": 35.224791254,
      "label": "קופת חולים כללית סניף מעלות דפנה - ירושלים",
      "text": "",
      "stayTimes": "08:00 - 08:30",
      "t_start": "2020-04-14T06:00:00",
      "t_end": "2020-04-14T06:30:00",
      "link": ""
    },
    {
      "id": 471886,
      "lat": 31.7535868320001,
      "lon": 35.214401308,
      "label": "שופרסל - ירושלים",
      "text": "",
      "stayTimes": "05:00 - 14:30",
      "t_start": "2020-04-12T03:00:00",
      "t_end": "2020-04-12T12:30:00",
      "link": ""
    },
    {
      "id": 471887,
      "lat": 31.7535868320001,
      "lon": 35.214401308,
      "label": "שופרסל - ירושלים",
      "text": "",
      "stayTimes": "04:49 - 15:30",
      "t_start": "2020-04-13T02:49:00",
      "t_end": "2020-04-13T13:30:00",
      "link": ""
    },
    {
      "id": 471888,
      "lat": 31.7535868320001,
      "lon": 35.214401308,
      "label": "שופרסל - ירושלים",
      "text": "",
      "stayTimes": "00:01 - 03:59",
      "t_start": "2020-04-13T22:01:00",
      "t_end": "2020-04-14T01:59:00",
      "link": ""
    },
    {
      "id": 471889,
      "lat": 31.7535868320001,
      "lon": 35.214401308,
      "label": "שופרסל - ירושלים",
      "text": "",
      "stayTimes": "04:58 - 15:42",
      "t_start": "2020-04-16T02:58:00",
      "t_end": "2020-04-16T13:42:00",
      "link": ""
    },
    {
      "id": 471890,
      "lat": 31.7535868320001,
      "lon": 35.214401308,
      "label": "שופרסל - ירושלים",
      "text": "",
      "stayTimes": "00:01 - 07:19",
      "t_start": "2020-04-16T22:01:00",
      "t_end": "2020-04-17T05:19:00",
      "link": ""
    },
    {
      "id": 471891,
      "lat": 31.7535868320001,
      "lon": 35.214401308,
      "label": "שופרסל - ירושלים",
      "text": "",
      "stayTimes": "04:49 - 14:11",
      "t_start": "2020-04-19T02:49:00",
      "t_end": "2020-04-19T12:11:00",
      "link": ""
    },
    {
      "id": 471892,
      "lat": 32.4855131,
      "lon": 34.9698419000001,
      "label": "מרכז גריאטרי שוהם - פרדס חנה-כרכור",
      "text": "",
      "stayTimes": "07:00 - 15:00",
      "t_start": "2020-04-17T05:00:00",
      "t_end": "2020-04-17T13:00:00",
      "link": ""
    },
    {
      "id": 471893,
      "lat": 32.4855131,
      "lon": 34.9698419000001,
      "label": "מרכז גריאטרי שוהם - פרדס חנה-כרכור",
      "text": "",
      "stayTimes": "07:00 - 12:00",
      "t_start": "2020-04-14T05:00:00",
      "t_end": "2020-04-14T10:00:00",
      "link": ""
    }
  ],
  "update_time": 1587775058
}