[
    {
        "id": "1",
        "lat": 32.33194,
        "lon": 34.851522,
        "label": "فندق برج داود",
        "text": "9 سائحين من كوريا الجنوبية",
        "pat_num": "קבוצת תיירים מדרום קוריאה",
        "t_start": "2020-02-08T20:00:00+02:00",
        "t_end": "2020-02-08T23:59:00+02:00",
        "pub_date": "23/02",
        "pub_ts": 1582408800,
        "link": "https://t.me/MOHreport/2683"
    },
    {
        "id": "2",
        "lat": 32.33194,
        "lon": 34.851522,
        "label": "فندق برج داود",
        "text": "9 سائحين من كوريا الجنوبية",
        "pat_num": "קבוצת תיירים מדרום קוריאה",
        "t_start": "2020-02-09T00:00:00+02:00",
        "t_end": "2020-02-09T09:00:00+02:00",
        "pub_date": "23/02",
        "pub_ts": 1582408800,
        "link": "https://t.me/MOHreport/2683"
    },
    {
        "id": "3",
        "lat": 32.501199,
        "lon": 34.892315,
        "label": "الحديقة الوطنية قيساريا",
        "text": "9 سائحين من كوريا الجنوبية",
        "pat_num": "קבוצת תיירים מדרום קוריאה",
        "t_start": "2020-02-09T07:00:00+02:00",
        "t_end": "2020-02-09T09:11:00+02:00",
        "pub_date": "23/02",
        "pub_ts": 1582408800,
        "link": "https://t.me/MOHreport/2683"
    },
    {
        "id": "4",
        "lat": 32.708649,
        "lon": 35.297008,
        "label": "فندق جابريل",
        "text": "9 سائحين من كوريا الجنوبية",
        "pat_num": "קבוצת תיירים מדרום קוריאה",
        "t_start": "2020-02-09T11:00:00+02:00",
        "t_end": "2020-02-09T15:00:00+02:00",
        "pub_date": "23/02",
        "pub_ts": 1582408800,
        "link": "https://t.me/MOHreport/2683"
    },
    {
        "id": "5",
        "lat": 32.702367,
        "lon": 35.297376,
        "label": "كنيسة البشارة",
        "text": "9 سائحين من كوريا الجنوبية",
        "pat_num": "קבוצת תיירים מדרום קוריאה",
        "t_start": "2020-02-09T12:00:00+02:00",
        "t_end": "2020-02-09T20:00:00+02:00",
        "pub_date": "23/02",
        "pub_ts": 1582408800,
        "link": "https://t.me/MOHreport/2683"
    },
    {
        "id": "6",
        "lat": 32.705169,
        "lon": 35.310839,
        "label": "كنيسة العائلة المقدسة",
        "text": "9 سائحين من كوريا الجنوبية",
        "pat_num": "קבוצת תיירים מדרום קוריאה",
        "t_start": "2020-02-09T12:00:00+02:00",
        "t_end": "2020-02-09T20:00:00+02:00",
        "pub_date": "23/02",
        "pub_ts": 1582408800,
        "link": "https://t.me/MOHreport/2683"
    },
    {
        "id": "7",
        "lat": 32.771856,
        "lon": 35.638675,
        "label": "منتجع عين جيف",
        "text": "9 سائحين من كوريا الجنوبية",
        "pat_num": "קבוצת תיירים מדרום קוריאה",
        "t_start": "2020-02-09T18:00:00+02:00",
        "t_end": "2020-02-09T23:59:00+02:00",
        "pub_date": "23/02",
        "pub_ts": 1582408800,
        "link": "https://t.me/MOHreport/2683"
    },
    {
        "id": "8",
        "lat": 32.771856,
        "lon": 35.638675,
        "label": "منتجع عين جيف",
        "text": "9 سائحين من كوريا الجنوبية",
        "pat_num": "קבוצת תיירים מדרום קוריאה",
        "t_start": "2020-02-10T00:00:00+02:00",
        "t_end": "2020-02-10T10:00:00+02:00",
        "pub_date": "23/02",
        "pub_ts": 1582408800,
        "link": "https://t.me/MOHreport/2683"
    },
    {
        "id": "9",
        "lat": 32.871999,
        "lon": 35.550409,
        "label": "كنيسة القديس بطرس الأولى التابغة",
        "text": "9 سائحين من كوريا الجنوبية",
        "pat_num": "קבוצת תיירים מדרום קוריאה",
        "t_start": "2020-02-10T07:00:00+02:00",
        "t_end": "2020-02-10T15:00:00+02:00",
        "pub_date": "23/02",
        "pub_ts": 1582408800,
        "link": "https://t.me/MOHreport/2683"
    },
    {
        "id": "10",
        "lat": 32.843234,
        "lon": 35.50956,
        "label": "مطعم تنورين",
        "text": "9 سائحين من كوريا الجنوبية",
        "pat_num": "קבוצת תיירים מדרום קוריאה",
        "t_start": "2020-02-10T12:00:00+02:00",
        "t_end": "2020-02-10T16:00:00+02:00",
        "pub_date": "23/02",
        "pub_ts": 1582408800,
        "link": "https://t.me/MOHreport/2683"
    },
    {
        "id": "11",
        "lat": 32.882419,
        "lon": 35.573693,
        "label": "كفرناحوم",
        "text": "9 سائحين من كوريا الجنوبية",
        "pat_num": "קבוצת תיירים מדרום קוריאה",
        "t_start": "2020-02-10T13:00:00+02:00",
        "t_end": "2020-02-10T20:00:00+02:00",
        "pub_date": "23/02",
        "pub_ts": 1582408800,
        "link": "https://t.me/MOHreport/2683"
    },
    {
        "id": "12",
        "lat": 32.867782,
        "lon": 35.525478,
        "label": "بحر الجليل - سفينة سياحية",
        "text": "9 سائحين من كوريا الجنوبية",
        "pat_num": "קבוצת תיירים מדרום קוריאה",
        "t_start": "2020-02-10T13:00:00+02:00",
        "t_end": "2020-02-10T20:00:00+02:00",
        "pub_date": "23/02",
        "pub_ts": 1582408800,
        "link": "https://t.me/MOHreport/2683"
    },
    {
        "id": "13",
        "lat": 32.767652,
        "lon": 35.63934,
        "label": "منتجع عين جيف",
        "text": "9 سائحين من كوريا الجنوبية",
        "pat_num": "קבוצת תיירים מדרום קוריאה",
        "t_start": "2020-02-10T20:00:00+02:00",
        "t_end": "2020-02-10T23:59:00+02:00",
        "pub_date": "23/02",
        "pub_ts": 1582408800,
        "link": "https://t.me/MOHreport/2683"
    },
    {
        "id": "14",
        "lat": 32.767652,
        "lon": 35.63934,
        "label": "منتجع عين جيف",
        "text": "9 سائحين من كوريا الجنوبية",
        "pat_num": "קבוצת תיירים מדרום קוריאה",
        "t_start": "2020-02-11T00:00:00+02:00",
        "t_end": "2020-02-11T10:00:00+02:00",
        "pub_date": "23/02",
        "pub_ts": 1582408800,
        "link": "https://t.me/MOHreport/2683"
    },
    {
        "id": "15",
        "lat": 32.226773,
        "lon": 35.26227,
        "label": "نابلس",
        "text": "9 سائحين من كوريا الجنوبية",
        "pat_num": "קבוצת תיירים מדרום קוריאה",
        "t_start": "2020-02-11T10:00:00+02:00",
        "t_end": "2020-02-11T20:00:00+02:00",
        "pub_date": "23/02",
        "pub_ts": 1582408800,
        "link": "https://t.me/MOHreport/2683"
    },
    {
        "id": "16",
        "lat": 31.865153,
        "lon": 35.462018,
        "label": "أريحا",
        "text": "9 سائحين من كوريا الجنوبية",
        "pat_num": "קבוצת תיירים מדרום קוריאה",
        "t_start": "2020-02-11T10:00:00+02:00",
        "t_end": "2020-02-11T20:00:00+02:00",
        "pub_date": "23/02",
        "pub_ts": 1582408800,
        "link": "https://t.me/MOHreport/2683"
    },
    {
        "id": "17",
        "lat": 31.202813,
        "lon": 35.361363,
        "label": "منتجع داود البحر الميت",
        "text": "9 سائحين من كوريا الجنوبية",
        "pat_num": "קבוצת תיירים מדרום קוריאה",
        "t_start": "2020-02-11T00:00:00+02:00",
        "t_end": "2020-02-11T23:59:00+02:00",
        "pub_date": "23/02",
        "pub_ts": 1582408800,
        "link": "https://t.me/MOHreport/2683"
    },
    {
        "id": "18",
        "lat": 31.202813,
        "lon": 35.361363,
        "label": "منتجع داود البحر الميت",
        "text": "9 سائحين من كوريا الجنوبية",
        "pat_num": "קבוצת תיירים מדרום קוריאה",
        "t_start": "2020-02-12T00:00:00+02:00",
        "t_end": "2020-02-12T10:00:00+02:00",
        "pub_date": "23/02",
        "pub_ts": 1582408800,
        "link": "https://t.me/MOHreport/2683"
    },
    {
        "id": "19",
        "lat": 31.312016,
        "lon": 35.363052,
        "label": "مسعدة",
        "text": "9 سائحين من كوريا الجنوبية",
        "pat_num": "קבוצת תיירים מדרום קוריאה",
        "t_start": "2020-02-12T06:00:00+02:00",
        "t_end": "2020-02-12T14:00:00+02:00",
        "pub_date": "23/02",
        "pub_ts": 1582408800,
        "link": "https://t.me/MOHreport/2683"
    },
    {
        "id": "20",
        "lat": 29.78832,
        "lon": 35.003072,
        "label": "بارك تمناع",
        "text": "9 سائحين من كوريا الجنوبية",
        "pat_num": "קבוצת תיירים מדרום קוריאה",
        "t_start": "2020-02-12T08:00:00+02:00",
        "t_end": "2020-02-12T14:00:00+02:00",
        "pub_date": "23/02",
        "pub_ts": 1582408800,
        "link": "https://t.me/MOHreport/2683"
    },
    {
        "id": "21",
        "lat": 31.247751,
        "lon": 34.801126,
        "label": "فندق ليوناردو نجيف",
        "text": "9 سائحين من كوريا الجنوبية",
        "pat_num": "קבוצת תיירים מדרום קוריאה",
        "t_start": "2020-02-12T00:00:00+02:00",
        "t_end": "2020-02-12T23:59:00+02:00",
        "pub_date": "23/02",
        "pub_ts": 1582408800,
        "link": "https://t.me/MOHreport/2683"
    },
    {
        "id": "22",
        "lat": 31.247751,
        "lon": 34.801126,
        "label": "فندق ليوناردو نجيف",
        "text": "9 سائحين من كوريا الجنوبية",
        "pat_num": "קבוצת תיירים מדרום קוריאה",
        "t_start": "2020-02-13T00:00:00+02:00",
        "t_end": "2020-02-13T10:00:00+02:00",
        "pub_date": "23/02",
        "pub_ts": 1582408800,
        "link": "https://t.me/MOHreport/2683"
    },
    {
        "id": "23",
        "lat": 31.246155,
        "lon": 34.841115,
        "label": "منتزه بئر السبع الوطني",
        "text": "9 سائحين من كوريا الجنوبية",
        "pat_num": "קבוצת תיירים מדרום קוריאה",
        "t_start": "2020-02-13T08:00:00+02:00",
        "t_end": "2020-02-13T09:30:00+02:00",
        "pub_date": "23/02",
        "pub_ts": 1582408800,
        "link": "https://t.me/MOHreport/2683"
    },
    {
        "id": "24",
        "lat": 31.704532,
        "lon": 35.207497,
        "label": "كنيسة المهد",
        "text": "9 سائحين من كوريا الجنوبية",
        "pat_num": "קבוצת תיירים מדרום קוריאה",
        "t_start": "2020-02-13T10:30:00+02:00",
        "t_end": "2020-02-13T20:00:00+02:00",
        "pub_date": "23/02",
        "pub_ts": 1582408800,
        "link": "https://t.me/MOHreport/2683"
    },
    {
        "id": "25",
        "lat": 31.707613,
        "lon": 35.230017,
        "label": "كنيسة حقل الرعاة",
        "text": "9 سائحين من كوريا الجنوبية",
        "pat_num": "קבוצת תיירים מדרום קוריאה",
        "t_start": "2020-02-13T10:30:00+02:00",
        "t_end": "2020-02-13T20:00:00+02:00",
        "pub_date": "23/02",
        "pub_ts": 1582408800,
        "link": "https://t.me/MOHreport/2683"
    },
    {
        "id": "26",
        "lat": 31.7046176,
        "lon": 35.2077341,
        "label": "كنيسة القديسة كتارينا",
        "text": "9 سائحين من كوريا الجنوبية",
        "pat_num": "קבוצת תיירים מדרום קוריאה",
        "t_start": "2020-02-13T10:30:00+02:00",
        "t_end": "2020-02-13T20:00:00+02:00",
        "pub_date": "23/02",
        "pub_ts": 1582408800,
        "link": "https://t.me/MOHreport/2683"
    },
    {
        "id": "27",
        "lat": 31.704532,
        "lon": 35.207497,
        "label": "كهف القديس چيروم (تحت كنيسة المهد)",
        "text": "9 سائحين من كوريا الجنوبية",
        "pat_num": "קבוצת תיירים מדרום קוריאה",
        "t_start": "2020-02-13T10:30:00+02:00",
        "t_end": "2020-02-13T20:00:00+02:00",
        "pub_date": "23/02",
        "pub_ts": 1582408800,
        "link": "https://t.me/MOHreport/2683"
    },
    {
        "id": "28",
        "lat": 31.789627,
        "lon": 35.227216,
        "label": "فندق الجراند كورت",
        "text": "9 سائحين من كوريا الجنوبية",
        "pat_num": "קבוצת תיירים מדרום קוריאה",
        "t_start": "2020-02-13T20:00:00+02:00",
        "t_end": "2020-02-13T23:59:00+02:00",
        "pub_date": "23/02",
        "pub_ts": 1582408800,
        "link": "https://t.me/MOHreport/2683"
    },
    {
        "id": "29",
        "lat": 31.789627,
        "lon": 35.227216,
        "label": "فندق الجراند كورت",
        "text": "9 سائحين من كوريا الجنوبية",
        "pat_num": "קבוצת תיירים מדרום קוריאה",
        "t_start": "2020-02-14T00:00:00+02:00",
        "t_end": "2020-02-14T10:00:00+02:00",
        "pub_date": "23/02",
        "pub_ts": 1582408800,
        "link": "https://t.me/MOHreport/2683"
    },
    {
        "id": "30",
        "lat": 31.778733,
        "lon": 35.245956,
        "label": "زيارة اِلى جبل الزيتون",
        "text": "9 سائحين من كوريا الجنوبية",
        "pat_num": "קבוצת תיירים מדרום קוריאה",
        "t_start": "2020-02-14T10:00:00+02:00",
        "t_end": "2020-02-14T14:00:00+02:00",
        "pub_date": "23/02",
        "pub_ts": 1582408800,
        "link": "https://t.me/MOHreport/2683"
    },
    {
        "id": "31",
        "lat": 31.779216,
        "lon": 35.245031,
        "label": "كنيسة الصعود",
        "text": "9 سائحين من كوريا الجنوبية",
        "pat_num": "קבוצת תיירים מדרום קוריאה",
        "t_start": "2020-02-14T10:00:00+02:00",
        "t_end": "2020-02-14T14:00:00+02:00",
        "pub_date": "23/02",
        "pub_ts": 1582408800,
        "link": "https://t.me/MOHreport/2683"
    },
    {
        "id": "32",
        "lat": 31.777475,
        "lon": 35.250745,
        "label": "كنيسة بيت فاجي",
        "text": "9 سائحين من كوريا الجنوبية",
        "pat_num": "קבוצת תיירים מדרום קוריאה",
        "t_start": "2020-02-14T10:00:00+02:00",
        "t_end": "2020-02-14T14:00:00+02:00",
        "pub_date": "23/02",
        "pub_ts": 1582408800,
        "link": "https://t.me/MOHreport/2683"
    },
    {
        "id": "33",
        "lat": 31.732126,
        "lon": 35.203915,
        "label": "مطعم شانجهاي",
        "text": "9 سائحين من كوريا الجنوبية",
        "pat_num": "קבוצת תיירים מדרום קוריאה",
        "t_start": "2020-02-14T12:00:00+02:00",
        "t_end": "2020-02-14T15:00:00+02:00",
        "pub_date": "23/02",
        "pub_ts": 1582408800,
        "link": "https://t.me/MOHreport/2683"
    },
    {
        "id": "34",
        "lat": 31.778342,
        "lon": 35.245179,
        "label": "كنيسة أبانا الذي",
        "text": "9 سائحين من كوريا الجنوبية",
        "pat_num": "קבוצת תיירים מדרום קוריאה",
        "t_start": "2020-02-14T13:00:00+02:00",
        "t_end": "2020-02-14T20:00:00+02:00",
        "pub_date": "23/02",
        "pub_ts": 1582408800,
        "link": "https://t.me/MOHreport/2683"
    },
    {
        "id": "35",
        "lat": 31.779465,
        "lon": 35.239791,
        "label": "كنيسة الجسمانية",
        "text": "9 سائحين من كوريا الجنوبية",
        "pat_num": "קבוצת תיירים מדרום קוריאה",
        "t_start": "2020-02-14T13:00:00+02:00",
        "t_end": "2020-02-14T20:00:00+02:00",
        "pub_date": "23/02",
        "pub_ts": 1582408800,
        "link": "https://t.me/MOHreport/2683"
    },
    {
        "id": "36",
        "lat": 31.771154,
        "lon": 35.228458,
        "label": "جبل صهيون",
        "text": "9 سائحين من كوريا الجنوبية",
        "pat_num": "קבוצת תיירים מדרום קוריאה",
        "t_start": "2020-02-14T13:00:00+02:00",
        "t_end": "2020-02-14T20:00:00+02:00",
        "pub_date": "23/02",
        "pub_ts": 1582408800,
        "link": "https://t.me/MOHreport/2683"
    },
    {
        "id": "37",
        "lat": 31.772035,
        "lon": 35.229292,
        "label": "غرفة العشاء الأخير",
        "text": "9 سائحين من كوريا الجنوبية",
        "pat_num": "קבוצת תיירים מדרום קוריאה",
        "t_start": "2020-02-14T13:00:00+02:00",
        "t_end": "2020-02-14T20:00:00+02:00",
        "pub_date": "23/02",
        "pub_ts": 1582408800,
        "link": "https://t.me/MOHreport/2683"
    },
    {
        "id": "38",
        "lat": 31.780349,
        "lon": 35.239406,
        "label": "قبر العذراء مريم",
        "text": "9 سائحين من كوريا الجنوبية",
        "pat_num": "קבוצת תיירים מדרום קוריאה",
        "t_start": "2020-02-14T13:00:00+02:00",
        "t_end": "2020-02-14T20:00:00+02:00",
        "pub_date": "23/02",
        "pub_ts": 1582408800,
        "link": "https://t.me/MOHreport/2683"
    },
    {
        "id": "39",
        "lat": 31.771525,
        "lon": 35.232122,
        "label": "كنيسة صياح الديك",
        "text": "9 سائحين من كوريا الجنوبية",
        "pat_num": "קבוצת תיירים מדרום קוריאה",
        "t_start": "2020-02-14T13:00:00+02:00",
        "t_end": "2020-02-14T20:00:00+02:00",
        "pub_date": "23/02",
        "pub_ts": 1582408800,
        "link": "https://t.me/MOHreport/2683"
    },
    {
        "id": "40",
        "lat": 31.789627,
        "lon": 35.227205,
        "label": "فندق الجراند كورت",
        "text": "9 سائحين من كوريا الجنوبية",
        "pat_num": "קבוצת תיירים מדרום קוריאה",
        "t_start": "2020-02-14T18:00:00+02:00",
        "t_end": "2020-02-14T23:59:00+02:00",
        "pub_date": "23/02",
        "pub_ts": 1582408800,
        "link": "https://t.me/MOHreport/2683"
    },
    {
        "id": "41",
        "lat": 31.789627,
        "lon": 35.227205,
        "label": "فندق الجراند كورت",
        "text": "9 سائحين من كوريا الجنوبية",
        "pat_num": "קבוצת תיירים מדרום קוריאה",
        "t_start": "2020-02-15T00:00:00+02:00",
        "t_end": "2020-02-15T10:00:00+02:00",
        "pub_date": "23/02",
        "pub_ts": 1582408800,
        "link": "https://t.me/MOHreport/2683"
    },
    {
        "id": "42",
        "lat": 31.767587,
        "lon": 35.162287,
        "label": "عين كارم",
        "text": "9 سائحين من كوريا الجنوبية",
        "pat_num": "קבוצת תיירים מדרום קוריאה",
        "t_start": "2020-02-15T10:00:00+02:00",
        "t_end": "2020-02-15T20:00:00+02:00",
        "pub_date": "23/02",
        "pub_ts": 1582408800,
        "link": "https://t.me/MOHreport/2683"
    },
    {
        "id": "43",
        "lat": 31.777309,
        "lon": 35.229695,
        "label": "كنيسة القديس يوحنا المعمدان",
        "text": "9 سائحين من كوريا الجنوبية",
        "pat_num": "קבוצת תיירים מדרום קוריאה",
        "t_start": "2020-02-15T10:00:00+02:00",
        "t_end": "2020-02-15T20:00:00+02:00",
        "pub_date": "23/02",
        "pub_ts": 1582408800,
        "link": "https://t.me/MOHreport/2683"
    },
    {
        "id": "44",
        "lat": 31.764796,
        "lon": 35.15794,
        "label": "كنيسة الزيارة",
        "text": "9 سائحين من كوريا الجنوبية",
        "pat_num": "קבוצת תיירים מדרום קוריאה",
        "t_start": "2020-02-15T10:00:00+02:00",
        "t_end": "2020-02-15T20:00:00+02:00",
        "pub_date": "23/02",
        "pub_ts": 1582408800,
        "link": "https://t.me/MOHreport/2683"
    },
    {
        "id": "45",
        "lat": 31.781189,
        "lon": 35.236084,
        "label": "كنيسة القديسة آنا",
        "text": "9 سائحين من كوريا الجنوبية",
        "pat_num": "קבוצת תיירים מדרום קוריאה",
        "t_start": "2020-02-15T10:00:00+02:00",
        "t_end": "2020-02-15T20:00:00+02:00",
        "pub_date": "23/02",
        "pub_ts": 1582408800,
        "link": "https://t.me/MOHreport/2683"
    },
    {
        "id": "46",
        "lat": 31.789989,
        "lon": 35.202244,
        "label": "مطعم جولد ليد - فندق الأمبسادور القدس",
        "text": "9 سائحين من كوريا الجنوبية",
        "pat_num": "קבוצת תיירים מדרום קוריאה",
        "t_start": "2020-02-15T10:00:00+02:00",
        "t_end": "2020-02-15T20:00:00+02:00",
        "pub_date": "23/02",
        "pub_ts": 1582408800,
        "link": "https://t.me/MOHreport/2683"
    },
    {
        "id": "47",
        "lat": 31.768593,
        "lon": 35.213742,
        "label": "برك بيت حسدا (المتحف الأركيولوجي في القدس)",
        "text": "9 سائحين من كوريا الجنوبية",
        "pat_num": "קבוצת תיירים מדרום קוריאה",
        "t_start": "2020-02-15T10:00:00+02:00",
        "t_end": "2020-02-15T20:00:00+02:00",
        "pub_date": "23/02",
        "pub_ts": 1582408800,
        "link": "https://t.me/MOHreport/2683"
    },
    {
        "id": "48",
        "lat": 31.778682,
        "lon": 35.229665,
        "label": "كنيسة القبر المقدس",
        "text": "9 سائحين من كوريا الجنوبية",
        "pat_num": "קבוצת תיירים מדרום קוריאה",
        "t_start": "2020-02-15T10:00:00+02:00",
        "t_end": "2020-02-15T20:00:00+02:00",
        "pub_date": "23/02",
        "pub_ts": 1582408800,
        "link": "https://t.me/MOHreport/2683"
    },
    {
        "id": "49",
        "lat": 31.789627,
        "lon": 35.227205,
        "label": "فندق الجراند كورت",
        "text": "9 سائحين من كوريا الجنوبية",
        "pat_num": "קבוצת תיירים מדרום קוריאה",
        "t_start": "2020-02-15T10:00:00+02:00",
        "t_end": "2020-02-15T20:00:00+02:00",
        "pub_date": "23/02",
        "pub_ts": 1582408800,
        "link": "https://t.me/MOHreport/2683"
    },
    {
        "id": "50",
        "lat": 32.0228009,
        "lon": 34.861666,
        "label": "محل القرصان الأحمر (بيرات هادوم)",
        "text": "الأماكن التي زارها الاسرائيليون بعد عودتهم من اِيطاليا",
        "pat_num": "חולה קורונה מאיטליה",
        "t_start": "2020-02-23T18:00:00+02:00",
        "t_end": "2020-02-23T22:00:00+02:00",
        "pub_date": "28/02",
        "pub_ts": 1582840800,
        "link": "https://t.me/MOHreport/2726"
    },
    {
        "id": "51",
        "lat": 32.0228009,
        "lon": 34.861666,
        "label": "محل القرصان الأحمر (بيرات هادوم)",
        "text": "الأماكن التي زارها الاسرائيليون بعد عودتهم من اِيطاليا",
        "pat_num": "חולה קורונה מאיטליה",
        "t_start": "2020-02-24T08:30:00+02:00",
        "t_end": "2020-02-24T23:59:00+02:00",
        "pub_date": "28/02",
        "pub_ts": 1582840800,
        "link": "https://t.me/MOHreport/2726"
    },
    {
        "id": "52",
        "lat": 32.0228009,
        "lon": 34.861666,
        "label": "محل القرصان الأحمر (بيرات هادوم)",
        "text": "الأماكن التي زارها الاسرائيليون بعد عودتهم من اِيطاليا",
        "pat_num": "חולה קורונה מאיטליה",
        "t_start": "2020-02-25T08:30:00+02:00",
        "t_end": "2020-02-25T23:59:00+02:00",
        "pub_date": "28/02",
        "pub_ts": 1582840800,
        "link": "https://t.me/MOHreport/2726"
    },
    {
        "id": "53",
        "lat": 31.9306892,
        "lon": 34.7765856,
        "label": "كنيس أيروس",
        "text": "الأماكن التي زارها الاسرائيليون بعد عودتهم من اِيطاليا",
        "pat_num": "חולה קורונה מאיטליה",
        "t_start": "2020-02-24T06:00:00+02:00",
        "t_end": "2020-02-24T07:00:00+02:00",
        "pub_date": "28/02",
        "pub_ts": 1582840800,
        "link": "https://t.me/MOHreport/2726"
    },
    {
        "id": "54",
        "lat": 32.383731,
        "lon": 34.866688,
        "label": "أروما في محطة وقود باز",
        "text": "",
        "pat_num": "6",
        "t_start": "2020-02-22T06:30:00+02:00",
        "t_end": "2020-02-22T07:00:00+02:00",
        "pub_date": "28/02",
        "pub_ts": 1582840800,
        "link": "https://t.me/MOHreport/2734"
    },
    {
        "id": "55",
        "lat": 32.38385,
        "lon": 34.866874,
        "label": "بيت البانكيك",
        "text": "",
        "pat_num": "6",
        "t_start": "2020-02-22T06:30:00+02:00",
        "t_end": "2020-02-22T07:00:00+02:00",
        "pub_date": "28/02",
        "pub_ts": 1582840800,
        "link": "https://t.me/MOHreport/2734"
    },
    {
        "id": "56",
        "lat": 32.962288,
        "lon": 35.176676,
        "label": "سعيد ملحم لأدوات الكهرباء أبو سنان",
        "text": "",
        "pat_num": "6",
        "t_start": "2020-02-22T11:00:00+02:00",
        "t_end": "2020-02-22T13:00:00+02:00",
        "pub_date": "28/02",
        "pub_ts": 1582840800,
        "link": "https://t.me/MOHreport/2734"
    },
    {
        "id": "57",
        "lat": 32.818203,
        "lon": 35.050937,
        "label": "محسني زول سبورت في كريات آتا",
        "text": "",
        "pat_num": "6",
        "t_start": "2020-02-22T11:00:00+02:00",
        "t_end": "2020-02-22T13:00:00+02:00",
        "pub_date": "28/02",
        "pub_ts": 1582840800,
        "link": "https://t.me/MOHreport/2734"
    },
    {
        "id": "58",
        "lat": 32.990316,
        "lon": 35.096735,
        "label": "حمص بارليمنت و محطة وقود باز في نهارية",
        "text": "",
        "pat_num": "6",
        "t_start": "2020-02-23T11:30:00+02:00",
        "t_end": "2020-02-23T12:00:00+02:00",
        "pub_date": "28/02",
        "pub_ts": 1582840800,
        "link": "https://t.me/MOHreport/2734"
    },
    {
        "id": "59",
        "lat": 32.603578,
        "lon": 35.296038,
        "label": "مكلوت فانيل في العفولة",
        "text": "",
        "pat_num": "7",
        "t_start": "2020-02-25T11:22:00+02:00",
        "t_end": "2020-02-25T11:59:00+02:00",
        "pub_date": "29/02",
        "pub_ts": 1582927200,
        "link": "https://t.me/MOHreport/2738"
    },
    {
        "id": "60",
        "lat": 32.687929,
        "lon": 35.246797,
        "label": "صالة أثينا الرياضية في مجدال هعيمق",
        "text": "",
        "pat_num": "7",
        "t_start": "2020-02-25T18:00:00+02:00",
        "t_end": "2020-02-25T20:00:00+02:00",
        "pub_date": "29/02",
        "pub_ts": 1582927200,
        "link": "https://t.me/MOHreport/2738"
    },
    {
        "id": "61",
        "lat": 32.676933,
        "lon": 35.239217,
        "label": "بنك ديسكاونت في مقدال هعيمك",
        "text": "",
        "pat_num": "7",
        "t_start": "2020-02-27T08:30:00+02:00",
        "t_end": "2020-02-27T09:30:00+02:00",
        "pub_date": "29/02",
        "pub_ts": 1582927200,
        "link": "https://t.me/MOHreport/2738"
    },
    {
        "id": "62",
        "lat": 32.599948,
        "lon": 35.29515,
        "label": "مطعم أحوزا في العفولة",
        "text": "",
        "pat_num": "7",
        "t_start": "2020-02-27T14:00:00+02:00",
        "t_end": "2020-02-27T15:30:00+02:00",
        "pub_date": "29/02",
        "pub_ts": 1582927200,
        "link": "https://t.me/MOHreport/2738"
    },
    {
        "id": "63",
        "lat": 32.666738,
        "lon": 35.239837,
        "label": "سوفرسال المنطقة الصناعية مجدل هعيمق",
        "text": "",
        "pat_num": "7",
        "t_start": "2020-02-27T17:00:00+02:00",
        "t_end": "2020-02-27T18:00:00+02:00",
        "pub_date": "29/02",
        "pub_ts": 1582927200,
        "link": "https://t.me/MOHreport/2738"
    },
    {
        "id": "64",
        "lat": 32.025683,
        "lon": 34.858086,
        "label": "محل خياطة في الطابق السفلي من المجمع التجاري يهودا",
        "text": "",
        "pat_num": "10",
        "t_start": "2020-02-25T12:00:00+02:00",
        "t_end": "2020-02-25T12:30:00+02:00",
        "pub_date": "02/03",
        "pub_ts": 1583100000,
        "link": "https://t.me/MOHreport/2750"
    },
    {
        "id": "65",
        "lat": 32.0228009,
        "lon": 34.861666,
        "label": "محل القرصان الأحمر (بيرات هادوم)",
        "text": "",
        "pat_num": "10",
        "t_start": "2020-02-24T13:00:00+02:00",
        "t_end": "2020-02-24T22:00:00+02:00",
        "pub_date": "02/03",
        "pub_ts": 1583100000,
        "link": "https://t.me/MOHreport/2750"
    },
    {
        "id": "66",
        "lat": 32.0228009,
        "lon": 34.861666,
        "label": "محل القرصان الأحمر (بيرات هادوم)",
        "text": "",
        "pat_num": "10",
        "t_start": "2020-02-25T12:30:00+02:00",
        "t_end": "2020-02-25T23:59:00+02:00",
        "pub_date": "02/03",
        "pub_ts": 1583100000,
        "link": "https://t.me/MOHreport/2750"
    },
    {
        "id": "67",
        "lat": 32.0228009,
        "lon": 34.861666,
        "label": "محل القرصان الأحمر (بيرات هادوم)",
        "text": "",
        "pat_num": "10",
        "t_start": "2020-02-26T00:00:00+02:00",
        "t_end": "2020-02-26T00:30:00+02:00",
        "pub_date": "02/03",
        "pub_ts": 1583100000,
        "link": "https://t.me/MOHreport/2750"
    },
    {
        "id": "68",
        "lat": 32.0228009,
        "lon": 34.861666,
        "label": "محل القرصان الأحمر (بيرات هادوم)",
        "text": "",
        "pat_num": "10",
        "t_start": "2020-02-26T15:00:00+02:00",
        "t_end": "2020-02-26T21:30:00+02:00",
        "pub_date": "02/03",
        "pub_ts": 1583100000,
        "link": "https://t.me/MOHreport/2750"
    },
    {
        "id": "69",
        "lat": 31.796529,
        "lon": 34.629749,
        "label": "سوق اليوم أشدود",
        "text": "",
        "pat_num": "12",
        "t_start": "2020-02-26T11:00:00+02:00",
        "t_end": "2020-02-26T13:00:00+02:00",
        "pub_date": "02/03",
        "pub_ts": 1583100000,
        "link": "https://t.me/MOHreport/2754"
    },
    {
        "id": "70",
        "lat": 32.0714043,
        "lon": 34.8281033,
        "label": "صالة جو أكتيف الرياضية في مروم نافيه - رمات جان",
        "text": "حضرت حصة فلندكراز التي اِبندأت من الساعة 10:20و حصة رياضة من الساعة 12:00-12:45",
        "pat_num": "11",
        "t_start": "2020-02-27T10:20:00+02:00",
        "t_end": "2020-02-27T13:00:00+02:00",
        "pub_date": "02/03",
        "pub_ts": 1583100000,
        "link": "https://t.me/MOHreport/2755"
    },
    {
        "id": "71",
        "lat": 32.0714604,
        "lon": 34.8279486,
        "label": "سوبر ماركت في مجمع مروم نافيه",
        "text": "",
        "pat_num": "11",
        "t_start": "2020-02-27T13:10:00+02:00",
        "t_end": "2020-02-27T13:45:00+02:00",
        "pub_date": "02/03",
        "pub_ts": 1583100000,
        "link": "https://t.me/MOHreport/2756"
    },
    {
        "id": "72",
        "lat": 32.0228009,
        "lon": 34.861666,
        "label": "محل القرصان الأحمر (بيرات هادوم)",
        "text": "",
        "pat_num": "13",
        "t_start": "2020-02-23T16:30:00+02:00",
        "t_end": "2020-02-23T21:00:00+02:00",
        "pub_date": "04/03",
        "pub_ts": 1583272800,
        "link": "https://t.me/MOHreport/2762"
    },
    {
        "id": "73",
        "lat": 32.0228009,
        "lon": 34.861666,
        "label": "محل القرصان الأحمر (بيرات هادوم)",
        "text": "",
        "pat_num": "13",
        "t_start": "2020-02-24T16:30:00+02:00",
        "t_end": "2020-02-24T21:00:00+02:00",
        "pub_date": "04/03",
        "pub_ts": 1583272800,
        "link": "https://t.me/MOHreport/2762"
    },
    {
        "id": "74",
        "lat": 32.0228009,
        "lon": 34.861666,
        "label": "محل القرصان الأحمر (بيرات هادوم)",
        "text": "",
        "pat_num": "13",
        "t_start": "2020-02-25T16:30:00+02:00",
        "t_end": "2020-02-25T21:00:00+02:00",
        "pub_date": "04/03",
        "pub_ts": 1583272800,
        "link": "https://t.me/MOHreport/2762"
    },
    {
        "id": "75",
        "lat": 32.0228009,
        "lon": 34.861666,
        "label": "محل القرصان الأحمر (بيرات هادوم)",
        "text": "",
        "pat_num": "13",
        "t_start": "2020-02-26T16:30:00+02:00",
        "t_end": "2020-02-26T21:00:00+02:00",
        "pub_date": "04/03",
        "pub_ts": 1583272800,
        "link": "https://t.me/MOHreport/2762"
    },
    {
        "id": "76",
        "lat": 31.869072,
        "lon": 34.806136,
        "label": "مدرسة برينر الإقليمية",
        "text": "",
        "pat_num": "13",
        "t_start": "2020-02-24T00:00:00+02:00",
        "t_end": "2020-02-24T23:59:00+02:00",
        "pub_date": "04/03",
        "pub_ts": 1583272800,
        "link": "https://t.me/MOHreport/2763"
    },
    {
        "id": "77",
        "lat": 31.869072,
        "lon": 34.806136,
        "label": "مدرسة برينر الإقليمية",
        "text": "",
        "pat_num": "13",
        "t_start": "2020-02-25T00:00:00+02:00",
        "t_end": "2020-02-25T23:59:00+02:00",
        "pub_date": "04/03",
        "pub_ts": 1583272800,
        "link": "https://t.me/MOHreport/2763"
    },
    {
        "id": "78",
        "lat": 31.869072,
        "lon": 34.806136,
        "label": "مدرسة برينر الإقليمية",
        "text": "",
        "pat_num": "13",
        "t_start": "2020-02-26T00:00:00+02:00",
        "t_end": "2020-02-26T23:59:00+02:00",
        "pub_date": "04/03",
        "pub_ts": 1583272800,
        "link": "https://t.me/MOHreport/2763"
    },
    {
        "id": "79",
        "lat": 32.051678,
        "lon": 34.761865,
        "label": "استاد بلومفيلد - بوابة 8",
        "text": "",
        "pat_num": "13",
        "t_start": "2020-02-24T20:00:00+02:00",
        "t_end": "2020-02-24T22:00:00+02:00",
        "pub_date": "04/03",
        "pub_ts": 1583272800,
        "link": "https://t.me/MOHreport/2763"
    },
    {
        "id": "80",
        "lat": 32.052998,
        "lon": 34.855811,
        "label": "مدرسة افيغدور فارسا",
        "text": "",
        "pat_num": "14",
        "t_start": "2020-02-26T07:00:00+02:00",
        "t_end": "2020-02-26T13:00:00+02:00",
        "pub_date": "04/03",
        "pub_ts": 1583272800,
        "link": "https://t.me/MOHreport/2764"
    },
    {
        "id": "81",
        "lat": 32.063762,
        "lon": 34.872818,
        "label": "القاعة الرياضية بجانب مكتبة البلدية جاني تكفا",
        "text": "",
        "pat_num": "14",
        "t_start": "2020-02-26T17:15:00+02:00",
        "t_end": "2020-02-26T18:00:00+02:00",
        "pub_date": "04/03",
        "pub_ts": 1583272800,
        "link": "https://t.me/MOHreport/2764"
    },
    {
        "id": "82",
        "lat": 31.804431,
        "lon": 34.761447,
        "label": "حفل زفاف في \"هرمونا بجان\" (القاعة بيمين المدخل) في تقاطع الصدق",
        "text": "",
        "pat_num": "14",
        "t_start": "2020-02-26T19:30:00+02:00",
        "t_end": "2020-02-26T22:30:00+02:00",
        "pub_date": "04/03",
        "pub_ts": 1583272800,
        "link": "https://t.me/MOHreport/2764"
    },
    {
        "id": "83",
        "lat": 32.055449,
        "lon": 34.863602,
        "label": "المجمع التجاري في كريات اونو",
        "text": "",
        "pat_num": "14",
        "t_start": "2020-02-27T18:00:00+02:00",
        "t_end": "2020-02-27T20:30:00+02:00",
        "pub_date": "04/03",
        "pub_ts": 1583272800,
        "link": "https://t.me/MOHreport/2764"
    },
    {
        "id": "84",
        "lat": 32.052998,
        "lon": 34.855811,
        "label": "مدرسة افيغدور فارسا",
        "text": "",
        "pat_num": "14",
        "t_start": "2020-02-28T07:30:00+02:00",
        "t_end": "2020-02-28T12:00:00+02:00",
        "pub_date": "04/03",
        "pub_ts": 1583272800,
        "link": "https://t.me/MOHreport/2764"
    },
    {
        "id": "85",
        "lat": 31.777409,
        "lon": 35.224419,
        "label": "مقهى ريمون ماميلا",
        "text": "مكان زيارة المريض من نيويورك",
        "pat_num": "חולה מארה\"ב-ניו יורק",
        "t_start": "2020-02-23T21:30:00+02:00",
        "t_end": "2020-02-23T23:30:00+02:00",
        "pub_date": "05/03",
        "pub_ts": 1583359200,
        "link": "https://t.me/MOHreport/2769"
    },
    {
        "id": "86",
        "lat": 31.777634,
        "lon": 35.22371,
        "label": "زارا",
        "text": "مكان زيارة المريض من نيويورك",
        "pat_num": "חולה מארה\"ב-ניו יורק",
        "t_start": "2020-02-23T21:30:00+02:00",
        "t_end": "2020-02-23T23:30:00+02:00",
        "pub_date": "05/03",
        "pub_ts": 1583359200,
        "link": "https://t.me/MOHreport/2769"
    },
    {
        "id": "87",
        "lat": 31.782049,
        "lon": 35.218575,
        "label": "مقهى ريمون بن يهودى",
        "text": "مكان زيارة المريض من نيويورك",
        "pat_num": "חולה מארה\"ב-ניו יורק",
        "t_start": "2020-02-24T13:00:00+02:00",
        "t_end": "2020-02-24T15:00:00+02:00",
        "pub_date": "05/03",
        "pub_ts": 1583359200,
        "link": "https://t.me/MOHreport/2769"
    },
    {
        "id": "88",
        "lat": 31.753473,
        "lon": 35.212979,
        "label": "أوشر عاد في المجمع التجاري هدر",
        "text": "مكان زيارة المريض من نيويورك",
        "pat_num": "חולה מארה\"ב-ניו יורק",
        "t_start": "2020-02-24T17:00:00+02:00",
        "t_end": "2020-02-24T19:00:00+02:00",
        "pub_date": "05/03",
        "pub_ts": 1583359200,
        "link": "https://t.me/MOHreport/2769"
    },
    {
        "id": "89",
        "lat": 31.768215,
        "lon": 35.224438,
        "label": "كتشن ستيشون المحطة القديمة",
        "text": "مكان زيارة المريض من نيويورك",
        "pat_num": "חולה מארה\"ב-ניו יורק",
        "t_start": "2020-02-25T14:00:00+02:00",
        "t_end": "2020-02-25T15:00:00+02:00",
        "pub_date": "05/03",
        "pub_ts": 1583359200,
        "link": "https://t.me/MOHreport/2769"
    },
    {
        "id": "90",
        "lat": 31.782627,
        "lon": 35.222703,
        "label": "بنك مزراحي تفاحوت 9 شارع الملكة هليني",
        "text": "مكان زيارة المريض من نيويورك",
        "pat_num": "חולה מארה\"ב-ניו יורק",
        "t_start": "2020-02-26T09:00:00+02:00",
        "t_end": "2020-02-26T10:00:00+02:00",
        "pub_date": "05/03",
        "pub_ts": 1583359200,
        "link": "https://t.me/MOHreport/2769"
    },
    {
        "id": "91",
        "lat": 31.753794,
        "lon": 35.213153,
        "label": "فوكس هوم",
        "text": "مكان زيارة المريض من نيويورك",
        "pat_num": "חולה מארה\"ב-ניו יורק",
        "t_start": "2020-02-26T11:30:00+02:00",
        "t_end": "2020-02-26T14:00:00+02:00",
        "pub_date": "05/03",
        "pub_ts": 1583359200,
        "link": "https://t.me/MOHreport/2769"
    },
    {
        "id": "92",
        "lat": 31.753473,
        "lon": 35.212979,
        "label": "عوشر عاد",
        "text": "مكان زيارة المريض من نيويورك",
        "pat_num": "חולה מארה\"ב-ניו יורק",
        "t_start": "2020-02-26T11:30:00+02:00",
        "t_end": "2020-02-26T14:00:00+02:00",
        "pub_date": "05/03",
        "pub_ts": 1583359200,
        "link": "https://t.me/MOHreport/2769"
    },
    {
        "id": "93",
        "lat": 31.753468,
        "lon": 35.21372,
        "label": "تسومت سفريم",
        "text": "مكان زيارة المريض من نيويورك",
        "pat_num": "חולה מארה\"ב-ניו יורק",
        "t_start": "2020-02-26T11:30:00+02:00",
        "t_end": "2020-02-26T14:00:00+02:00",
        "pub_date": "05/03",
        "pub_ts": 1583359200,
        "link": "https://t.me/MOHreport/2769"
    },
    {
        "id": "94",
        "lat": 31.763622,
        "lon": 35.219289,
        "label": "مقهى كبيت",
        "text": "مكان زيارة المريض من نيويورك",
        "pat_num": "חולה מארה\"ב-ניו יורק",
        "t_start": "2020-02-27T11:00:00+02:00",
        "t_end": "2020-02-27T13:00:00+02:00",
        "pub_date": "05/03",
        "pub_ts": 1583359200,
        "link": "https://t.me/MOHreport/2769"
    },
    {
        "id": "95",
        "lat": 32.686474,
        "lon": 35.392521,
        "label": "دير جبل طابور التجلي",
        "text": "سائحون من اليونان",
        "pat_num": "קבוצת תיירים מיון",
        "t_start": "2020-02-20T09:30:00+02:00",
        "t_end": "2020-02-20T10:30:00+02:00",
        "pub_date": "05/03",
        "pub_ts": 1583359200,
        "link": "https://t.me/MOHreport/2785"
    },
    {
        "id": "96",
        "lat": 32.702412,
        "lon": 35.297397,
        "label": "كنيسة البشارة الناصرة",
        "text": "سائحون من اليونان",
        "pat_num": "קבוצת תיירים מיון",
        "t_start": "2020-02-20T11:00:00+02:00",
        "t_end": "2020-02-20T12:00:00+02:00",
        "pub_date": "05/03",
        "pub_ts": 1583359200,
        "link": "https://t.me/MOHreport/2785"
    },
    {
        "id": "97",
        "lat": 32.747189,
        "lon": 35.337806,
        "label": "الكنيسة اليونانية الأورثوذكسية قي كفر كنا",
        "text": "سائحون من اليونان",
        "pat_num": "קבוצת תיירים מיון",
        "t_start": "2020-02-20T12:00:00+02:00",
        "t_end": "2020-02-20T14:00:00+02:00",
        "pub_date": "05/03",
        "pub_ts": 1583359200,
        "link": "https://t.me/MOHreport/2785"
    },
    {
        "id": "98",
        "lat": 32.874022,
        "lon": 35.549828,
        "label": "التابغة",
        "text": "سائحون من اليونان",
        "pat_num": "קבוצת תיירים מיון",
        "t_start": "2020-02-20T15:00:00+02:00",
        "t_end": "2020-02-20T15:30:00+02:00",
        "pub_date": "05/03",
        "pub_ts": 1583359200,
        "link": "https://t.me/MOHreport/2785"
    },
    {
        "id": "99",
        "lat": 32.717531,
        "lon": 35.569652,
        "label": "المغطس",
        "text": "سائحون من اليونان",
        "pat_num": "קבוצת תיירים מיון",
        "t_start": "2020-02-20T16:30:00+02:00",
        "t_end": "2020-02-20T17:30:00+02:00",
        "pub_date": "05/03",
        "pub_ts": 1583359200,
        "link": "https://t.me/MOHreport/2785"
    },
    {
        "id": "100",
        "lat": 31.20199,
        "lon": 35.362779,
        "label": "عين بوكيك - البحر الميت",
        "text": "سائحون من اليونان",
        "pat_num": "קבוצת תיירים מיון",
        "t_start": "2020-02-21T07:30:00+02:00",
        "t_end": "2020-02-21T08:00:00+02:00",
        "pub_date": "05/03",
        "pub_ts": 1583359200,
        "link": "https://t.me/MOHreport/2785"
    },
    {
        "id": "101",
        "lat": 29.894359,
        "lon": 35.064305,
        "label": "مطعم يوتبطا",
        "text": "سائحون من اليونان",
        "pat_num": "קבוצת תיירים מיון",
        "t_start": "2020-02-21T10:30:00+02:00",
        "t_end": "2020-02-21T11:00:00+02:00",
        "pub_date": "05/03",
        "pub_ts": 1583359200,
        "link": "https://t.me/MOHreport/2785"
    },
    {
        "id": "102",
        "lat": 29.504141,
        "lon": 34.919178,
        "label": "مرصد إيلات",
        "text": "سائحون من اليونان",
        "pat_num": "קבוצת תיירים מיון",
        "t_start": "2020-02-23T15:30:00+02:00",
        "t_end": "2020-02-23T17:30:00+02:00",
        "pub_date": "05/03",
        "pub_ts": 1583359200,
        "link": "https://t.me/MOHreport/2785"
    },
    {
        "id": "103",
        "lat": 29.893532,
        "lon": 35.063005,
        "label": "مطعم يوتبطا",
        "text": "سائحون من اليونان",
        "pat_num": "קבוצת תיירים מיון",
        "t_start": "2020-02-23T18:00:00+02:00",
        "t_end": "2020-02-23T18:30:00+02:00",
        "pub_date": "05/03",
        "pub_ts": 1583359200,
        "link": "https://t.me/MOHreport/2785"
    },
    {
        "id": "104",
        "lat": 31.704859,
        "lon": 35.3311,
        "label": "دير مار سابا",
        "text": "سائحون من اليونان",
        "pat_num": "קבוצת תיירים מיון",
        "t_start": "2020-02-24T08:00:00+02:00",
        "t_end": "2020-02-24T10:30:00+02:00",
        "pub_date": "05/03",
        "pub_ts": 1583359200,
        "link": "https://t.me/MOHreport/2785"
    },
    {
        "id": "105",
        "lat": 31.780098,
        "lon": 35.23935,
        "label": "قبر العذراء مريم وكنيسة جميع الأمم",
        "text": "سائحون من اليونان",
        "pat_num": "קבוצת תיירים מיון",
        "t_start": "2020-02-24T13:30:00+02:00",
        "t_end": "2020-02-24T17:00:00+02:00",
        "pub_date": "05/03",
        "pub_ts": 1583359200,
        "link": "https://t.me/MOHreport/2785"
    },
    {
        "id": "106",
        "lat": 31.777244,
        "lon": 35.228114,
        "label": "دير القديس جورج (دير مار جريس)",
        "text": "سائحون من اليونان",
        "pat_num": "קבוצת תיירים מיון",
        "t_start": "2020-02-25T08:00:00+02:00",
        "t_end": "2020-02-25T10:00:00+02:00",
        "pub_date": "05/03",
        "pub_ts": 1583359200,
        "link": "https://t.me/MOHreport/2785"
    },
    {
        "id": "107",
        "lat": 31.780241,
        "lon": 35.232787,
        "label": "كنيسة مرتا الأورثوذكسية",
        "text": "سائحون من اليونان",
        "pat_num": "קבוצת תיירים מיון",
        "t_start": "2020-02-25T10:30:00+02:00",
        "t_end": "2020-02-25T11:45:00+02:00",
        "pub_date": "05/03",
        "pub_ts": 1583359200,
        "link": "https://t.me/MOHreport/2785"
    },
    {
        "id": "108",
        "lat": 31.716049,
        "lon": 35.330446,
        "label": "دير مار سابا",
        "text": "سائحون من اليونان",
        "pat_num": "קבוצת תיירים מיון",
        "t_start": "2020-02-25T12:30:00+02:00",
        "t_end": "2020-02-25T14:30:00+02:00",
        "pub_date": "05/03",
        "pub_ts": 1583359200,
        "link": "https://t.me/MOHreport/2785"
    },
    {
        "id": "109",
        "lat": 31.87439,
        "lon": 35.429958,
        "label": "دير القرنطل",
        "text": "سائحون من اليونان",
        "pat_num": "קבוצת תיירים מיון",
        "t_start": "2020-02-26T11:00:00+02:00",
        "t_end": "2020-02-26T12:30:00+02:00",
        "pub_date": "05/03",
        "pub_ts": 1583359200,
        "link": "https://t.me/MOHreport/2785"
    },
    {
        "id": "110",
        "lat": 31.820261,
        "lon": 35.501139,
        "label": "كنيسة زكا",
        "text": "سائحون من اليونان",
        "pat_num": "קבוצת תיירים מיון",
        "t_start": "2020-02-26T12:30:00+02:00",
        "t_end": "2020-02-26T13:00:00+02:00",
        "pub_date": "05/03",
        "pub_ts": 1583359200,
        "link": "https://t.me/MOHreport/2785"
    },
    {
        "id": "111",
        "lat": 31.820261,
        "lon": 35.501139,
        "label": "دير حجلة - بجانب جسر النبي",
        "text": "سائحون من اليونان",
        "pat_num": "קבוצת תיירים מיון",
        "t_start": "2020-02-26T13:10:00+02:00",
        "t_end": "2020-02-26T14:20:00+02:00",
        "pub_date": "05/03",
        "pub_ts": 1583359200,
        "link": "https://t.me/MOHreport/2785"
    },
    {
        "id": "112",
        "lat": 31.778434,
        "lon": 35.229492,
        "label": "صلاة في كنيسة القيامة القدس",
        "text": "سائحون من اليونان",
        "pat_num": "קבוצת תיירים מיון",
        "t_start": "2020-02-26T18:40:00+02:00",
        "t_end": "2020-02-26T20:10:00+02:00",
        "pub_date": "05/03",
        "pub_ts": 1583359200,
        "link": "https://t.me/MOHreport/2785"
    },
    {
        "id": "113",
        "lat": 31.953169,
        "lon": 34.899326,
        "label": "كنيسة القديس جورج اللد",
        "text": "سائحون من اليونان",
        "pat_num": "קבוצת תיירים מיון",
        "t_start": "2020-02-26T16:00:00+02:00",
        "t_end": "2020-02-26T16:40:00+02:00",
        "pub_date": "05/03",
        "pub_ts": 1583359200,
        "link": "https://t.me/MOHreport/2785"
    },
    {
        "id": "114",
        "lat": 32.7055015,
        "lon": 35.3014112,
        "label": "فندق جولدن كراون البلدة القديمة في الناصرة",
        "text": "",
        "pat_num": "16",
        "t_start": "2020-02-26T18:00:00+02:00",
        "t_end": "2020-02-26T23:59:00+02:00",
        "pub_date": "06/03",
        "pub_ts": 1583445600,
        "link": "https://t.me/MOHreport/2786"
    },
    {
        "id": "115",
        "lat": 32.7055015,
        "lon": 35.3014112,
        "label": "فندق جولدن كراون البلدة القديمة في الناصرة",
        "text": "",
        "pat_num": "16",
        "t_start": "2020-02-27T00:00:00+02:00",
        "t_end": "2020-02-27T08:00:00+02:00",
        "pub_date": "06/03",
        "pub_ts": 1583445600,
        "link": "https://t.me/MOHreport/2786"
    },
    {
        "id": "116",
        "lat": 32.836825,
        "lon": 35.509919,
        "label": "مطعم دالية بمجدال",
        "text": "",
        "pat_num": "16",
        "t_start": "2020-02-27T12:30:00+02:00",
        "t_end": "2020-02-27T15:00:00+02:00",
        "pub_date": "06/03",
        "pub_ts": 1583445600,
        "link": "https://t.me/MOHreport/2786"
    },
    {
        "id": "117",
        "lat": 32.7055015,
        "lon": 35.3014112,
        "label": "فندق جولدن كراون البلدة القديمة في الناصرة",
        "text": "",
        "pat_num": "16",
        "t_start": "2020-02-27T18:00:00+02:00",
        "t_end": "2020-02-27T23:59:00+02:00",
        "pub_date": "06/03",
        "pub_ts": 1583445600,
        "link": "https://t.me/MOHreport/2786"
    },
    {
        "id": "118",
        "lat": 32.7055015,
        "lon": 35.3014112,
        "label": "فندق جولدن كراون البلدة القديمة في الناصرة",
        "text": "",
        "pat_num": "16",
        "t_start": "2020-02-28T00:00:00+02:00",
        "t_end": "2020-02-28T08:00:00+02:00",
        "pub_date": "06/03",
        "pub_ts": 1583445600,
        "link": "https://t.me/MOHreport/2786"
    },
    {
        "id": "119",
        "lat": 32.7055015,
        "lon": 35.3014112,
        "label": "فندق جولدن كراون البلدة القديمة في الناصرة",
        "text": "",
        "pat_num": "16",
        "t_start": "2020-02-28T18:00:00+02:00",
        "t_end": "2020-02-28T23:59:00+02:00",
        "pub_date": "06/03",
        "pub_ts": 1583445600,
        "link": "https://t.me/MOHreport/2786"
    },
    {
        "id": "120",
        "lat": 32.7055015,
        "lon": 35.3014112,
        "label": "فندق جولدن كراون البلدة القديمة في الناصرة",
        "text": "",
        "pat_num": "16",
        "t_start": "2020-02-29T00:00:00+02:00",
        "t_end": "2020-02-29T08:00:00+02:00",
        "pub_date": "06/03",
        "pub_ts": 1583445600,
        "link": "https://t.me/MOHreport/2786"
    },
    {
        "id": "121",
        "lat": 31.7412525,
        "lon": 35.4569593,
        "label": "مطعم كمران بأتار كمران",
        "text": "",
        "pat_num": "16",
        "t_start": "2020-02-29T12:00:00+02:00",
        "t_end": "2020-02-29T13:00:00+02:00",
        "pub_date": "06/03",
        "pub_ts": 1583445600,
        "link": "https://t.me/MOHreport/2786"
    },
    {
        "id": "122",
        "lat": 32.7867555,
        "lon": 35.5331003,
        "label": "فندق رستال في طباريا",
        "text": "",
        "pat_num": "16",
        "t_start": "2020-03-04T18:30:00+02:00",
        "t_end": "2020-03-04T20:00:00+02:00",
        "pub_date": "06/03",
        "pub_ts": 1583445600,
        "link": "https://t.me/MOHreport/2786"
    },
    {
        "id": "123",
        "lat": 32.078774,
        "lon": 34.767687,
        "label": "مطعم ANIMAR (أنيمار)",
        "text": "سائحون من اِيطاليا",
        "pat_num": "תייר לאחר חזרתו לאיטליה",
        "t_start": "2020-02-23T18:30:00+02:00",
        "t_end": "2020-02-23T21:30:00+02:00",
        "pub_date": "06/03",
        "pub_ts": 1583445600,
        "link": "https://t.me/MOHreport/2788"
    },
    {
        "id": "124",
        "lat": 32.07956,
        "lon": 34.767947,
        "label": "وجبة الفطور في فندق دان",
        "text": "سائحون من اِيطاليا",
        "pat_num": "תייר לאחר חזרתו לאיטליה",
        "t_start": "2020-02-24T07:00:00+02:00",
        "t_end": "2020-02-24T08:00:00+02:00",
        "pub_date": "06/03",
        "pub_ts": 1583445600,
        "link": "https://t.me/MOHreport/2788"
    },
    {
        "id": "125",
        "lat": 32.070427,
        "lon": 34.786908,
        "label": "هاربعا 21 طابق 16",
        "text": "سائحون من اِيطاليا",
        "pat_num": "תייר לאחר חזרתו לאיטליה",
        "t_start": "2020-02-24T08:15:00+02:00",
        "t_end": "2020-02-24T14:00:00+02:00",
        "pub_date": "06/03",
        "pub_ts": 1583445600,
        "link": "https://t.me/MOHreport/2788"
    },
    {
        "id": "126",
        "lat": 32.078774,
        "lon": 34.767687,
        "label": "مطعم ANIMAR (أنيمار)",
        "text": "سائحون من اِيطاليا",
        "pat_num": "תייר לאחר חזרתו לאיטליה",
        "t_start": "2020-02-24T22:00:00+02:00",
        "t_end": "2020-02-24T23:59:00+02:00",
        "pub_date": "06/03",
        "pub_ts": 1583445600,
        "link": "https://t.me/MOHreport/2788"
    },
    {
        "id": "127",
        "lat": 32.078774,
        "lon": 34.767687,
        "label": "مطعم ANIMAR (أنيمار)",
        "text": "سائحون من اِيطاليا",
        "pat_num": "תייר לאחר חזרתו לאיטליה",
        "t_start": "2020-02-25T00:00:00+02:00",
        "t_end": "2020-02-25T02:45:00+02:00",
        "pub_date": "06/03",
        "pub_ts": 1583445600,
        "link": "https://t.me/MOHreport/2788"
    },
    {
        "id": "128",
        "lat": 31.78814,
        "lon": 35.20257,
        "label": "القطار من المحطة المركزية بالقدس",
        "text": "سائحون من فرنسا",
        "pat_num": "תייר מצרפת",
        "t_start": "2020-03-01T13:30:00+02:00",
        "t_end": "2020-03-01T14:00:00+02:00",
        "pub_date": "06/03",
        "pub_ts": 1583445600,
        "link": "https://t.me/MOHreport/2796"
    },
    {
        "id": "129",
        "lat": 31.7621122,
        "lon": 35.2132363,
        "label": "كنيس رمبان في شارع امتسيا - القدس",
        "text": "سائحون من فرنسا",
        "pat_num": "תייר מצרפת",
        "t_start": "2020-03-01T23:00:00+02:00",
        "t_end": "2020-03-01T20:00:00+02:00",
        "pub_date": "06/03",
        "pub_ts": 1583445600,
        "link": "https://t.me/MOHreport/2796"
    },
    {
        "id": "130",
        "lat": 31.7659831,
        "lon": 35.1824382,
        "label": "مقهى \"هيلل\" في رمات بيت هكيرم",
        "text": "سائحون من فرنسا",
        "pat_num": "תייר מצרפת",
        "t_start": "2020-03-02T10:30:00+02:00",
        "t_end": "2020-03-02T12:00:00+02:00",
        "pub_date": "06/03",
        "pub_ts": 1583445600,
        "link": "https://t.me/MOHreport/2796"
    },
    {
        "id": "131",
        "lat": 31.78814,
        "lon": 35.20257,
        "label": "القطار من المحطة المركزية بالقدس",
        "text": "سائحون من فرنسا",
        "pat_num": "תייר מצרפת",
        "t_start": "2020-03-02T12:00:00+02:00",
        "t_end": "2020-03-02T12:30:00+02:00",
        "pub_date": "06/03",
        "pub_ts": 1583445600,
        "link": "https://t.me/MOHreport/2796"
    },
    {
        "id": "132",
        "lat": 32.1440607,
        "lon": 34.8354079,
        "label": "مقهى لورن في  53 شارع سوكولوف رمات هشرون",
        "text": "سائحون من اِسبانيا",
        "pat_num": "18",
        "t_start": "2020-02-28T09:00:00+02:00",
        "t_end": "2020-02-28T10:00:00+02:00",
        "pub_date": "07/03",
        "pub_ts": 1583532000,
        "link": "https://t.me/MOHreport/2797"
    },
    {
        "id": "133",
        "lat": 31.9922422,
        "lon": 34.7474626,
        "label": "مطعم فش:7 شارع أ.د.بيني خبوت ريشون لتسيون",
        "text": "سائحون من اِسبانيا",
        "pat_num": "18",
        "t_start": "2020-02-28T15:00:00+02:00",
        "t_end": "2020-02-28T17:00:00+02:00",
        "pub_date": "07/03",
        "pub_ts": 1583532000,
        "link": "https://t.me/MOHreport/2797"
    },
    {
        "id": "134",
        "lat": 31.9922422,
        "lon": 34.7474626,
        "label": "مطعم فش:7 شارع أ.د.بيني خبوت ريشون لتسيون",
        "text": "سائحون من اِسبانيا",
        "pat_num": "18",
        "t_start": "2020-02-29T13:00:00+02:00",
        "t_end": "2020-02-29T15:00:00+02:00",
        "pub_date": "07/03",
        "pub_ts": 1583532000,
        "link": "https://t.me/MOHreport/2797"
    },
    {
        "id": "135",
        "lat": 32.1440607,
        "lon": 34.8354079,
        "label": "مقهى لورن في  53 شارع سوكولوف رمات هشرون",
        "text": "سائحون من اِسبانيا",
        "pat_num": "18",
        "t_start": "2020-03-02T09:00:00+02:00",
        "t_end": "2020-03-02T10:00:00+02:00",
        "pub_date": "07/03",
        "pub_ts": 1583532000,
        "link": "https://t.me/MOHreport/2797"
    },
    {
        "id": "136",
        "lat": 32.1385405,
        "lon": 34.8417452,
        "label": "مركز الطبي الطارئ مكابي 3 شارع نتسح رمات هشرون",
        "text": "سائحون من اِسبانيا",
        "pat_num": "18",
        "t_start": "2020-03-02T14:30:00+02:00",
        "t_end": "2020-03-02T15:30:00+02:00",
        "pub_date": "07/03",
        "pub_ts": 1583532000,
        "link": "https://t.me/MOHreport/2797"
    },
    {
        "id": "137",
        "lat": 32.38,
        "lon": 35.018,
        "label": "محطة سوبر ألونيت للوقود دور ألون على شارع رقم 6 باِتجاه الشمال بالقرب من تقاطع بيكا",
        "text": "",
        "pat_num": "22",
        "t_start": "2020-03-02T10:30:00+02:00",
        "t_end": "2020-03-02T11:00:00+02:00",
        "pub_date": "07/03",
        "pub_ts": 1583532000,
        "link": "https://t.me/MOHreport/2806"
    },
    {
        "id": "138",
        "lat": 32.9004598,
        "lon": 35.2927348,
        "label": "كرميئيل بيت عزاء 82 شارع أنكور",
        "text": "",
        "pat_num": "22",
        "t_start": "2020-03-02T11:30:00+02:00",
        "t_end": "2020-03-02T12:30:00+02:00",
        "pub_date": "07/03",
        "pub_ts": 1583532000,
        "link": "https://t.me/MOHreport/2806"
    },
    {
        "id": "139",
        "lat": 32.9463904,
        "lon": 35.175988,
        "label": "قرية يركا سوبر ماركت يركا مركازا",
        "text": "",
        "pat_num": "22",
        "t_start": "2020-03-02T12:30:00+02:00",
        "t_end": "2020-03-02T13:30:00+02:00",
        "pub_date": "07/03",
        "pub_ts": 1583532000,
        "link": "https://t.me/MOHreport/2806"
    },
    {
        "id": "140",
        "lat": 32.955728,
        "lon": 35.1829777,
        "label": "قرية يركا سوبر ماركت يركا مركازا",
        "text": "",
        "pat_num": "22",
        "t_start": "2020-03-02T13:30:00+02:00",
        "t_end": "2020-03-02T14:30:00+02:00",
        "pub_date": "07/03",
        "pub_ts": 1583532000,
        "link": "https://t.me/MOHreport/2806"
    },
    {
        "id": "141",
        "lat": 32.0818804,
        "lon": 34.8651936,
        "label": "صندوق اِقتراع رقم 97, 42 شارع كابلان بتاح تكفا.",
        "text": "",
        "pat_num": "22",
        "t_start": "2020-03-02T19:30:00+02:00",
        "t_end": "2020-03-02T19:35:00+02:00",
        "pub_date": "07/03",
        "pub_ts": 1583532000,
        "link": "https://t.me/MOHreport/2806"
    },
    {
        "id": "142",
        "lat": 32.0854778,
        "lon": 34.8683473,
        "label": "تشيب-ماركت 38 ارلوزوروف بتاح تكفا.",
        "text": "",
        "pat_num": "22",
        "t_start": "2020-03-02T20:00:00+02:00",
        "t_end": "2020-03-02T20:10:00+02:00",
        "pub_date": "07/03",
        "pub_ts": 1583532000,
        "link": "https://t.me/MOHreport/2806"
    },
    {
        "id": "143",
        "lat": 32.071679,
        "lon": 34.8906156,
        "label": "بيت رفكا الصف C غرفة رقم 4235",
        "text": "",
        "pat_num": "22",
        "t_start": "2020-03-03T18:00:00+02:00",
        "t_end": "2020-03-03T19:00:00+02:00",
        "pub_date": "07/03",
        "pub_ts": 1583532000,
        "link": "https://t.me/MOHreport/2806"
    },
    {
        "id": "144",
        "lat": 32.0020526,
        "lon": 34.9410456,
        "label": "صندوق اِقتراع 21 في مدرسة ابن حن في شوهام",
        "text": "",
        "pat_num": "24",
        "t_start": "2020-03-02T20:00:00+02:00",
        "t_end": "2020-03-02T20:10:00+02:00",
        "pub_date": "07/03",
        "pub_ts": 1583532000,
        "link": "https://t.me/MOHreport/2807"
    },
    {
        "id": "145",
        "lat": 31.9997234,
        "lon": 34.9453264,
        "label": "عيادة كوبات حوليم مئوحيدت في شوهام",
        "text": "",
        "pat_num": "24",
        "t_start": "2020-03-03T09:45:00+02:00",
        "t_end": "2020-03-03T10:00:00+02:00",
        "pub_date": "07/03",
        "pub_ts": 1583532000,
        "link": "https://t.me/MOHreport/2807"
    },
    {
        "id": "146",
        "lat": 31.971546,
        "lon": 34.802067,
        "label": "سوبر ماركت حتسوت فحتسي 18 شارع تراختنبرغ رشون لتسيون",
        "text": "",
        "pat_num": "25",
        "t_start": "2020-03-03T17:40:00+02:00",
        "t_end": "2020-03-03T18:15:00+02:00",
        "pub_date": "07/03",
        "pub_ts": 1583532000,
        "link": "https://t.me/MOHreport/2808"
    },
    {
        "id": "147",
        "lat": 31.788888,
        "lon": 35.216582,
        "label": "بصريات يونا كورن 16 شارع الملوك القدس",
        "text": "",
        "pat_num": "28",
        "t_start": "2020-03-03T09:30:00+02:00",
        "t_end": "2020-03-03T14:00:00+02:00",
        "pub_date": "08/03",
        "pub_ts": 1583618400,
        "link": "https://t.me/MOHreport/2828"
    },
    {
        "id": "148",
        "lat": 31.788888,
        "lon": 35.216582,
        "label": "بصريات يونا كورن 16 شارع الملوك القدس",
        "text": "",
        "pat_num": "28",
        "t_start": "2020-03-03T17:00:00+02:00",
        "t_end": "2020-03-03T19:30:00+02:00",
        "pub_date": "08/03",
        "pub_ts": 1583618400,
        "link": "https://t.me/MOHreport/2828"
    },
    {
        "id": "149",
        "lat": 31.788888,
        "lon": 35.216582,
        "label": "بصريات يونا كورن 16 شارع الملوك القدس",
        "text": "",
        "pat_num": "28",
        "t_start": "2020-03-04T09:30:00+02:00",
        "t_end": "2020-03-04T14:00:00+02:00",
        "pub_date": "08/03",
        "pub_ts": 1583618400,
        "link": "https://t.me/MOHreport/2828"
    },
    {
        "id": "150",
        "lat": 31.788888,
        "lon": 35.216582,
        "label": "بصريات يونا كورن 16 شارع الملوك القدس",
        "text": "",
        "pat_num": "28",
        "t_start": "2020-03-04T17:00:00+02:00",
        "t_end": "2020-03-04T19:30:00+02:00",
        "pub_date": "08/03",
        "pub_ts": 1583618400,
        "link": "https://t.me/MOHreport/2828"
    },
    {
        "id": "151",
        "lat": 31.788888,
        "lon": 35.216582,
        "label": "بصريات يونا كورن 16 شارع الملوك القدس",
        "text": "",
        "pat_num": "28",
        "t_start": "2020-03-05T09:30:00+02:00",
        "t_end": "2020-03-05T14:00:00+02:00",
        "pub_date": "08/03",
        "pub_ts": 1583618400,
        "link": "https://t.me/MOHreport/2828"
    },
    {
        "id": "152",
        "lat": 32.1022985,
        "lon": 35.2070832,
        "label": "مطعم BIGA في المركز التجاري في ارييل",
        "text": "",
        "pat_num": "28",
        "t_start": "2020-03-05T20:00:00+02:00",
        "t_end": "2020-03-05T21:30:00+02:00",
        "pub_date": "08/03",
        "pub_ts": 1583618400,
        "link": "https://t.me/MOHreport/2828"
    },
    {
        "id": "153",
        "lat": 31.9922422,
        "lon": 34.7474626,
        "label": "مطعم فش:7 شارع أ.د.بيني خبوت ريشون لتسيون",
        "text": "",
        "pat_num": "30",
        "t_start": "2020-02-29T13:00:00+02:00",
        "t_end": "2020-02-29T15:00:00+02:00",
        "pub_date": "09/03",
        "pub_ts": 1583704800,
        "link": "https://t.me/MOHreport/2836"
    },
    {
        "id": "154",
        "lat": 31.9744662,
        "lon": 34.784506,
        "label": "صندوق اِقتراع 193 مدرسة رنانيم كريات رشون",
        "text": "",
        "pat_num": "30",
        "t_start": "2020-03-02T14:00:00+02:00",
        "t_end": "2020-03-02T15:00:00+02:00",
        "pub_date": "09/03",
        "pub_ts": 1583704800,
        "link": "https://t.me/MOHreport/2836"
    },
    {
        "id": "155",
        "lat": 31.2644237,
        "lon": 34.7909894,
        "label": "متجر فورتونا في وسط جيلات ، الحي د ، بئر السبع",
        "text": "",
        "pat_num": "31",
        "t_start": "2020-02-27T09:00:00+02:00",
        "t_end": "2020-02-27T12:00:00+02:00",
        "pub_date": "09/03",
        "pub_ts": 1583704800,
        "link": "https://t.me/MOHreport/2837"
    },
    {
        "id": "156",
        "lat": 31.2644237,
        "lon": 34.7909894,
        "label": "متجر فورتونا في وسط جيلات ، الحي د ، بئر السبع",
        "text": "",
        "pat_num": "31",
        "t_start": "2020-02-27T15:20:00+02:00",
        "t_end": "2020-02-27T20:00:00+02:00",
        "pub_date": "09/03",
        "pub_ts": 1583704800,
        "link": "https://t.me/MOHreport/2837"
    },
    {
        "id": "157",
        "lat": 32.38,
        "lon": 35.018,
        "label": "محطة سوبر ألونيت للوقود دور ألون على شارع رقم 6 باِتجاه الشمال بالقرب من تقاطع بيكا",
        "text": "",
        "pat_num": "32",
        "t_start": "2020-03-02T10:30:00+02:00",
        "t_end": "2020-03-02T11:00:00+02:00",
        "pub_date": "09/03",
        "pub_ts": 1583704800,
        "link": "https://t.me/MOHreport/2838"
    },
    {
        "id": "158",
        "lat": 32.9004598,
        "lon": 35.2927348,
        "label": "كرميئيل بيت عزاء 82 شارع أنكور",
        "text": "",
        "pat_num": "32",
        "t_start": "2020-03-02T11:30:00+02:00",
        "t_end": "2020-03-02T12:30:00+02:00",
        "pub_date": "09/03",
        "pub_ts": 1583704800,
        "link": "https://t.me/MOHreport/2838"
    },
    {
        "id": "159",
        "lat": 32.9463904,
        "lon": 35.175988,
        "label": "قرية يركا سوبر ماركت يركا مركازا",
        "text": "",
        "pat_num": "32",
        "t_start": "2020-03-02T12:30:00+02:00",
        "t_end": "2020-03-02T13:30:00+02:00",
        "pub_date": "09/03",
        "pub_ts": 1583704800,
        "link": "https://t.me/MOHreport/2838"
    },
    {
        "id": "160",
        "lat": 32.955728,
        "lon": 35.1829777,
        "label": "قرية يركا مطعم برجر وستيك في مركز BIG",
        "text": "",
        "pat_num": "32",
        "t_start": "2020-03-02T13:30:00+02:00",
        "t_end": "2020-03-02T14:30:00+02:00",
        "pub_date": "09/03",
        "pub_ts": 1583704800,
        "link": "https://t.me/MOHreport/2838"
    },
    {
        "id": "161",
        "lat": 32.0818804,
        "lon": 34.8651936,
        "label": "صندوق اِقتراع رقم 97, 42 شارع كابلان بتاح تكفا.",
        "text": "",
        "pat_num": "32",
        "t_start": "2020-03-02T19:30:00+02:00",
        "t_end": "2020-03-02T19:35:00+02:00",
        "pub_date": "09/03",
        "pub_ts": 1583704800,
        "link": "https://t.me/MOHreport/2838"
    },
    {
        "id": "162",
        "lat": 32.38,
        "lon": 35.018,
        "label": "محطة سوبر ألونيت للوقود دور ألون على شارع رقم 6 باِتجاه الشمال بالقرب من تقاطع بيكا",
        "text": "",
        "pat_num": "33",
        "t_start": "2020-03-02T10:30:00+02:00",
        "t_end": "2020-03-02T11:00:00+02:00",
        "pub_date": "09/03",
        "pub_ts": 1583704800,
        "link": "https://t.me/MOHreport/2839"
    },
    {
        "id": "163",
        "lat": 32.9004598,
        "lon": 35.2927348,
        "label": "كرميئيل بيت عزاء 82 شارع أنكور",
        "text": "",
        "pat_num": "33",
        "t_start": "2020-03-02T11:30:00+02:00",
        "t_end": "2020-03-02T12:30:00+02:00",
        "pub_date": "09/03",
        "pub_ts": 1583704800,
        "link": "https://t.me/MOHreport/2839"
    },
    {
        "id": "164",
        "lat": 32.9463904,
        "lon": 35.175988,
        "label": "قرية يركا سوبر ماركت يركا مركازا",
        "text": "",
        "pat_num": "33",
        "t_start": "2020-03-02T12:30:00+02:00",
        "t_end": "2020-03-02T13:30:00+02:00",
        "pub_date": "09/03",
        "pub_ts": 1583704800,
        "link": "https://t.me/MOHreport/2839"
    },
    {
        "id": "165",
        "lat": 32.955728,
        "lon": 35.1829777,
        "label": "قرية يركا مطعم برجر وستيك في مركز BIG",
        "text": "",
        "pat_num": "33",
        "t_start": "2020-03-02T13:30:00+02:00",
        "t_end": "2020-03-02T14:30:00+02:00",
        "pub_date": "09/03",
        "pub_ts": 1583704800,
        "link": "https://t.me/MOHreport/2839"
    },
    {
        "id": "166",
        "lat": 32.0719564,
        "lon": 34.7910422,
        "label": "مرآب أوبال المرخص ، 9 شارع شفا تل أبيب",
        "text": "",
        "pat_num": "33",
        "t_start": "2020-03-03T14:30:00+02:00",
        "t_end": "2020-03-03T15:30:00+02:00",
        "pub_date": "09/03",
        "pub_ts": 1583704800,
        "link": "https://t.me/MOHreport/2839"
    },
    {
        "id": "167",
        "lat": 31.9879987,
        "lon": 34.9128609,
        "label": "شركة \"بكهوف اِسرائيل \" 1 شارع هنجف بيت جولان , كريات شده هتعوفاه",
        "text": "",
        "pat_num": "33",
        "t_start": "2020-03-04T14:00:00+02:00",
        "t_end": "2020-03-04T14:30:00+02:00",
        "pub_date": "09/03",
        "pub_ts": 1583704800,
        "link": "https://t.me/MOHreport/2839"
    },
    {
        "id": "168",
        "lat": 32.0897602,
        "lon": 34.8643227,
        "label": "عيادة لجراحة القلب في العيادات الخارجية لمستشفى بيلينسون",
        "text": "",
        "pat_num": "33",
        "t_start": "2020-03-05T10:50:00+02:00",
        "t_end": "2020-03-05T11:00:00+02:00",
        "pub_date": "09/03",
        "pub_ts": 1583704800,
        "link": "https://t.me/MOHreport/2839"
    },
    {
        "id": "169",
        "lat": 32.38,
        "lon": 35.018,
        "label": "محطة سوبر ألونيت للوقود دور ألون على شارع رقم 6 باِتجاه الشمال بالقرب من تقاطع بيكا",
        "text": "",
        "pat_num": "34",
        "t_start": "2020-03-02T10:30:00+02:00",
        "t_end": "2020-03-02T11:00:00+02:00",
        "pub_date": "09/03",
        "pub_ts": 1583704800,
        "link": "https://t.me/MOHreport/2840"
    },
    {
        "id": "170",
        "lat": 32.9004598,
        "lon": 35.2927348,
        "label": "كرميئيل بيت عزاء 82 شارع أنكور",
        "text": "",
        "pat_num": "34",
        "t_start": "2020-03-02T11:30:00+02:00",
        "t_end": "2020-03-02T12:30:00+02:00",
        "pub_date": "09/03",
        "pub_ts": 1583704800,
        "link": "https://t.me/MOHreport/2840"
    },
    {
        "id": "171",
        "lat": 32.9463904,
        "lon": 35.175988,
        "label": "قرية يركا سوبر ماركت يركا مركازا",
        "text": "",
        "pat_num": "34",
        "t_start": "2020-03-02T12:30:00+02:00",
        "t_end": "2020-03-02T13:30:00+02:00",
        "pub_date": "09/03",
        "pub_ts": 1583704800,
        "link": "https://t.me/MOHreport/2840"
    },
    {
        "id": "172",
        "lat": 32.955728,
        "lon": 35.1829777,
        "label": "قرية يركا مطعم برجر وستيك في مركز BIG",
        "text": "",
        "pat_num": "34",
        "t_start": "2020-03-02T13:30:00+02:00",
        "t_end": "2020-03-02T14:30:00+02:00",
        "pub_date": "09/03",
        "pub_ts": 1583704800,
        "link": "https://t.me/MOHreport/2840"
    },
    {
        "id": "173",
        "lat": 32.0719564,
        "lon": 34.7910422,
        "label": "مرآب أوبال المرخص ، 9 شارع شفا تل أبيب",
        "text": "",
        "pat_num": "34",
        "t_start": "2020-03-03T14:50:00+02:00",
        "t_end": "2020-03-03T15:30:00+02:00",
        "pub_date": "09/03",
        "pub_ts": 1583704800,
        "link": "https://t.me/MOHreport/2840"
    },
    {
        "id": "174",
        "lat": 32.0897602,
        "lon": 34.8643227,
        "label": "عيادة لجراحة القلب في العيادات الخارجية لمستشفى بيلينسون",
        "text": "",
        "pat_num": "34",
        "t_start": "2020-03-05T10:50:00+02:00",
        "t_end": "2020-03-05T11:00:00+02:00",
        "pub_date": "09/03",
        "pub_ts": 1583704800,
        "link": "https://t.me/MOHreport/2840"
    },
    {
        "id": "175",
        "lat": 32.0137975,
        "lon": 34.7750173,
        "label": "مطعم جابانيكا 12 شارع تسفي تدمور حلون",
        "text": "",
        "pat_num": "36",
        "t_start": "2020-03-07T13:00:00+02:00",
        "t_end": "2020-03-07T14:00:00+02:00",
        "pub_date": "09/03",
        "pub_ts": 1583704800,
        "link": "https://t.me/MOHreport/2842"
    },
    {
        "id": "176",
        "lat": 31.707352,
        "lon": 35.202314,
        "label": "بيت لحم",
        "text": "تكلف وزارة الصحة أي شخص قضى آخر 14 يومًا في مدن بيت لحم وبيت جالا وبيت ساحور - بالحجر الصحي.",
        "pat_num": "תיירים מגרמניה",
        "t_start": "2020-03-08T00:00:00+02:00",
        "t_end": "2020-03-08T23:59:00+02:00",
        "pub_date": "10/03",
        "pub_ts": 1583791200,
        "link": "https://t.me/MOHreport/2882"
    },
    {
        "id": "177",
        "lat": 31.717896,
        "lon": 35.187406,
        "label": "بيت جالا",
        "text": "تكلف وزارة الصحة أي شخص قضى آخر 14 يومًا في مدن بيت لحم وبيت جالا وبيت ساحور - بالحجر الصحي.",
        "pat_num": "תיירים מגרמניה",
        "t_start": "2020-03-08T00:00:00+02:00",
        "t_end": "2020-03-08T23:59:00+02:00",
        "pub_date": "10/03",
        "pub_ts": 1583791200,
        "link": "https://t.me/MOHreport/2882"
    },
    {
        "id": "178",
        "lat": 31.699806,
        "lon": 35.228015,
        "label": "بيت سحور",
        "text": "تكلف وزارة الصحة أي شخص قضى آخر 14 يومًا في مدن بيت لحم وبيت جالا وبيت ساحور - بالحجر الصحي.",
        "pat_num": "אחר",
        "t_start": "2020-03-08T00:00:00+02:00",
        "t_end": "2020-03-08T23:59:00+02:00",
        "pub_date": "08/03",
        "pub_ts": 1583618400,
        "link": "https://t.me/MOHreport/2832"
    },
    {
        "id": "179",
        "lat": 32.2841992,
        "lon": 35.1242567,
        "label": "كنيس حباد في مستوطنة عناف",
        "text": "",
        "pat_num": "29",
        "t_start": "2020-02-28T17:00:00+02:00",
        "t_end": "2020-02-28T18:30:00+02:00",
        "pub_date": "09/03",
        "pub_ts": 1583704800,
        "link": "https://t.me/MOHreport/2857"
    },
    {
        "id": "180",
        "lat": 32.2841992,
        "lon": 35.1242567,
        "label": "كنيس حباد في مستوطنة عناف",
        "text": "",
        "pat_num": "29",
        "t_start": "2020-02-29T10:30:00+02:00",
        "t_end": "2020-02-29T12:30:00+02:00",
        "pub_date": "09/03",
        "pub_ts": 1583704800,
        "link": "https://t.me/MOHreport/2857"
    },
    {
        "id": "181",
        "lat": 32.0960948,
        "lon": 34.8760841,
        "label": "سوبر ماركت أوشر عاد بيتح تكفا",
        "text": "",
        "pat_num": "29",
        "t_start": "2020-03-01T17:00:00+02:00",
        "t_end": "2020-03-01T18:30:00+02:00",
        "pub_date": "09/03",
        "pub_ts": 1583704800,
        "link": "https://t.me/MOHreport/2857"
    },
    {
        "id": "182",
        "lat": 32.0933026,
        "lon": 34.8631594,
        "label": "المجمع التجاري الكبير بيتح تكفا",
        "text": "",
        "pat_num": "29",
        "t_start": "2020-03-01T19:30:00+02:00",
        "t_end": "2020-03-01T21:00:00+02:00",
        "pub_date": "09/03",
        "pub_ts": 1583704800,
        "link": "https://t.me/MOHreport/2857"
    },
    {
        "id": "183",
        "lat": 32.2841992,
        "lon": 35.1242567,
        "label": "صندوق اِقتراع النادي في مستوطنة عناف",
        "text": "",
        "pat_num": "29",
        "t_start": "2020-03-02T17:00:00+02:00",
        "t_end": "2020-03-02T17:30:00+02:00",
        "pub_date": "09/03",
        "pub_ts": 1583704800,
        "link": "https://t.me/MOHreport/2857"
    },
    {
        "id": "184",
        "lat": 31.7929547,
        "lon": 35.2049517,
        "label": "بيت عجزة نفيى أورة شارع أرجمان القدس قسم الصحة النفسية",
        "text": "",
        "pat_num": "29",
        "t_start": "2020-03-03T11:00:00+02:00",
        "t_end": "2020-03-03T12:30:00+02:00",
        "pub_date": "09/03",
        "pub_ts": 1583704800,
        "link": "https://t.me/MOHreport/2857"
    },
    {
        "id": "185",
        "lat": 31.7947395,
        "lon": 35.2063201,
        "label": "مجمع تجاري رف شفع شارع شمجار في القدس",
        "text": "",
        "pat_num": "29",
        "t_start": "2020-03-03T12:30:00+02:00",
        "t_end": "2020-03-03T13:30:00+02:00",
        "pub_date": "09/03",
        "pub_ts": 1583704800,
        "link": "https://t.me/MOHreport/2857"
    },
    {
        "id": "186",
        "lat": 31.80399,
        "lon": 35.10448,
        "label": "قسم الرجال-  كنيس حسيدي في تليز ستون",
        "text": "",
        "pat_num": "29",
        "t_start": "2020-03-07T09:30:00+02:00",
        "t_end": "2020-03-07T10:00:00+02:00",
        "pub_date": "09/03",
        "pub_ts": 1583704800,
        "link": "https://t.me/MOHreport/2857"
    },
    {
        "id": "187",
        "lat": 32.0479885,
        "lon": 34.9554965,
        "label": "مركز العاد الطبي في شارع الحاخام عكيفا",
        "text": "",
        "pat_num": "29",
        "t_start": "2020-03-07T19:30:00+02:00",
        "t_end": "2020-03-07T20:00:00+02:00",
        "pub_date": "09/03",
        "pub_ts": 1583704800,
        "link": "https://t.me/MOHreport/2857"
    },
    {
        "id": "188",
        "lat": 31.9660531,
        "lon": 34.837229,
        "label": "معهد عساف هروفيه للMRI",
        "text": "",
        "pat_num": "30",
        "t_start": "2020-03-01T20:00:00+02:00",
        "t_end": "2020-03-01T21:45:00+02:00",
        "pub_date": "09/03",
        "pub_ts": 1583704800,
        "link": "https://t.me/MOHreport/2860"
    },
    {
        "id": "189",
        "lat": 31.967552,
        "lon": 34.783082,
        "label": "مصففة بن عمي يورم رشون لتسيون",
        "text": "",
        "pat_num": "30",
        "t_start": "2020-03-03T09:30:00+02:00",
        "t_end": "2020-03-03T13:00:00+02:00",
        "pub_date": "09/03",
        "pub_ts": 1583704800,
        "link": "https://t.me/MOHreport/2860"
    },
    {
        "id": "190",
        "lat": 31.9924642,
        "lon": 34.7718725,
        "label": "قاعات \"مفليم\" في رشون لتسون",
        "text": "",
        "pat_num": "42",
        "t_start": "2020-03-03T21:00:00+02:00",
        "t_end": "2020-03-03T23:00:00+02:00",
        "pub_date": "09/03",
        "pub_ts": 1583704800,
        "link": "https://t.me/MOHreport/2862"
    },
    {
        "id": "191",
        "lat": 32.0654141,
        "lon": 34.7616304,
        "label": "فندق ديفيد إنتركونتيننتال",
        "text": "",
        "pat_num": "42",
        "t_start": "2020-03-04T06:00:00+02:00",
        "t_end": "2020-03-04T16:00:00+02:00",
        "pub_date": "09/03",
        "pub_ts": 1583704800,
        "link": "https://t.me/MOHreport/2862"
    },
    {
        "id": "192",
        "lat": 32.026,
        "lon": 34.79522,
        "label": "سوبر ماكت \"شيمور اِخوت\"  6 شارع همختاش حلون",
        "text": "",
        "pat_num": "42",
        "t_start": "2020-03-04T16:30:00+02:00",
        "t_end": "2020-03-04T17:30:00+02:00",
        "pub_date": "09/03",
        "pub_ts": 1583704800,
        "link": "https://t.me/MOHreport/2862"
    },
    {
        "id": "193",
        "lat": 32.82189,
        "lon": 35.07405,
        "label": "المسرح الشمالي في كريات حاييم",
        "text": "",
        "pat_num": "50",
        "t_start": "2020-03-04T17:30:00+02:00",
        "t_end": "2020-03-04T18:00:00+02:00",
        "pub_date": "09/03",
        "pub_ts": 1583704800,
        "link": "https://t.me/MOHreport/2869"
    },
    {
        "id": "194",
        "lat": 31.7554096,
        "lon": 35.2140339,
        "label": "صندوق الاِقتراع في مدرسة ميكور كايم ، شارع بيير كونيغ",
        "text": "",
        "pat_num": "45",
        "t_start": "2020-03-02T08:00:00+02:00",
        "t_end": "2020-03-02T08:10:00+02:00",
        "pub_date": "10/03",
        "pub_ts": 1583791200,
        "link": "https://t.me/MOHreport/2873"
    },
    {
        "id": "195",
        "lat": 31.753473,
        "lon": 35.212979,
        "label": "سوبر ماركت أوشر عاد في المجمع التجاري هدار ، شارع 26 بيير كونيج ، القدس",
        "text": "",
        "pat_num": "45",
        "t_start": "2020-03-02T10:00:00+02:00",
        "t_end": "2020-03-02T11:00:00+02:00",
        "pub_date": "10/03",
        "pub_ts": 1583791200,
        "link": "https://t.me/MOHreport/2873"
    },
    {
        "id": "196",
        "lat": 31.7528328,
        "lon": 35.2152969,
        "label": "مطعم عزرا للحوم مشوية ، شارع 14 ياد هاروتسيم ، القدس",
        "text": "",
        "pat_num": "45",
        "t_start": "2020-03-02T18:30:00+02:00",
        "t_end": "2020-03-02T19:45:00+02:00",
        "pub_date": "10/03",
        "pub_ts": 1583791200,
        "link": "https://t.me/MOHreport/2873"
    },
    {
        "id": "197",
        "lat": 31.7517516,
        "lon": 35.2098816,
        "label": "سوبر ماركت رامي ليفي ، راف حن مول ، تلبيوت ، القدس",
        "text": "",
        "pat_num": "45",
        "t_start": "2020-03-04T15:00:00+02:00",
        "t_end": "2020-03-04T16:00:00+02:00",
        "pub_date": "10/03",
        "pub_ts": 1583791200,
        "link": "https://t.me/MOHreport/2873"
    },
    {
        "id": "198",
        "lat": 31.756894,
        "lon": 35.2133994,
        "label": "בית כנסת \"אוהבי ציון\" רחוב מקור חיים בירושלים",
        "text": "",
        "pat_num": "45",
        "t_start": "2020-03-07T10:00:00+02:00",
        "t_end": "2020-03-07T10:45:00+02:00",
        "pub_date": "10/03",
        "pub_ts": 1583791200,
        "link": "https://t.me/MOHreport/2873"
    },
    {
        "id": "199",
        "lat": 32.2645605,
        "lon": 34.8765136,
        "label": "كشك قهوة في المدرسة الأمريكية ، # 65 شارع هشومرون ، بابن يهودا",
        "text": "",
        "pat_num": "42",
        "t_start": "2020-03-03T11:00:00+02:00",
        "t_end": "2020-03-03T17:30:00+02:00",
        "pub_date": "10/03",
        "pub_ts": 1583791200,
        "link": "https://t.me/MOHreport/2873"
    },
    {
        "id": "200",
        "lat": 32.8218955,
        "lon": 35.0740516,
        "label": "المسرح الشمالي في كريات حاييم",
        "text": "",
        "pat_num": "50",
        "t_start": "2020-03-04T17:30:00+02:00",
        "t_end": "2020-03-04T18:00:00+02:00",
        "pub_date": "10/03",
        "pub_ts": 1583791200,
        "link": "https://t.me/MOHreport/2873"
    },
    {
        "id": "201",
        "lat": 32.1974472,
        "lon": 34.8780966,
        "label": "المجمع التجاري رنانيم,رعننة. لقد زارت جميع المتاجر وتناولت السوشي",
        "text": "",
        "pat_num": "47",
        "t_start": "2020-03-02T12:00:00+02:00",
        "t_end": "2020-03-02T15:00:00+02:00",
        "pub_date": "10/03",
        "pub_ts": 1583791200,
        "link": "https://t.me/MOHreport/2880"
    },
    {
        "id": "202",
        "lat": 32.16728,
        "lon": 34.92854,
        "label": "\"ماكس-ستوك\" في كفار سابا ,2 شارع عتير ياد",
        "text": "",
        "pat_num": "47",
        "t_start": "2020-03-02T16:00:00+02:00",
        "t_end": "2020-03-02T17:00:00+02:00",
        "pub_date": "10/03",
        "pub_ts": 1583791200,
        "link": "https://t.me/MOHreport/2880"
    },
    {
        "id": "203",
        "lat": 31.7929547,
        "lon": 35.2049517,
        "label": "بيت عجزة نفيى أورة شارع أرجمان القدس قسم الصحة النفسية",
        "text": "",
        "pat_num": "47",
        "t_start": "2020-03-03T11:00:00+02:00",
        "t_end": "2020-03-03T12:30:00+02:00",
        "pub_date": "10/03",
        "pub_ts": 1583791200,
        "link": "https://t.me/MOHreport/2880"
    },
    {
        "id": "204",
        "lat": 31.7947395,
        "lon": 35.2063201,
        "label": "المجمع التجاري رف شفع, شارع شمغار في القدس ،  الطابق الأخير ، في متجر إكسسوارات بوريم ومتجر لبيع \"البيجل\"",
        "text": "",
        "pat_num": "47",
        "t_start": "2020-03-03T12:20:00+02:00",
        "t_end": "2020-03-03T13:30:00+02:00",
        "pub_date": "10/03",
        "pub_ts": 1583791200,
        "link": "https://t.me/MOHreport/2880"
    },
    {
        "id": "205",
        "lat": 32.1089879,
        "lon": 34.8878513,
        "label": "قاعة بار ميتزفه للفعاليات \"أب تاون\" سكة الحديد 4 ، بتاح تكفا.",
        "text": "",
        "pat_num": "47",
        "t_start": "2020-03-05T20:30:00+02:00",
        "t_end": "2020-03-05T21:00:00+02:00",
        "pub_date": "10/03",
        "pub_ts": 1583791200,
        "link": "https://t.me/MOHreport/2880"
    },
    {
        "id": "206",
        "lat": 32.2841992,
        "lon": 35.1242567,
        "label": "نادي البالغين في مستوطنة عناف, في حفلة البوريم",
        "text": "",
        "pat_num": "47",
        "t_start": "2020-03-05T22:00:00+02:00",
        "t_end": "2020-03-05T22:15:00+02:00",
        "pub_date": "10/03",
        "pub_ts": 1583791200,
        "link": "https://t.me/MOHreport/2880"
    },
    {
        "id": "207",
        "lat": 32.3125987,
        "lon": 34.9596066,
        "label": "سوبر ماركت\"حينام-بلس\", مفرق تنوفوت.",
        "text": "",
        "pat_num": "47",
        "t_start": "2020-03-08T14:30:00+02:00",
        "t_end": "2020-03-08T15:30:00+02:00",
        "pub_date": "10/03",
        "pub_ts": 1583791200,
        "link": "https://t.me/MOHreport/2880"
    },
    {
        "id": "208",
        "lat": 32.0897602,
        "lon": 34.8643227,
        "label": "مستشفى بيلينسون ، الممر من غرفة الطوارئ إلى غرفة العزل لزيارة المريض رقم 29",
        "text": "",
        "pat_num": "47",
        "t_start": "2020-03-08T19:00:00+02:00",
        "t_end": "2020-03-08T20:00:00+02:00",
        "pub_date": "10/03",
        "pub_ts": 1583791200,
        "link": "https://t.me/MOHreport/2880"
    },
    {
        "id": "209",
        "lat": 32.2841992,
        "lon": 35.1242567,
        "label": "كنيس حباد في مستوطنة عناف",
        "text": "",
        "pat_num": "48",
        "t_start": "2020-02-28T17:00:00+02:00",
        "t_end": "2020-02-28T18:30:00+02:00",
        "pub_date": "10/03",
        "pub_ts": 1583791200,
        "link": "https://t.me/MOHreport/2881"
    },
    {
        "id": "210",
        "lat": 32.2841992,
        "lon": 35.1242567,
        "label": "صندوق اِقتراع في مستوطنة عناف",
        "text": "",
        "pat_num": "48",
        "t_start": "2020-02-29T12:00:00+02:00",
        "t_end": "2020-02-29T12:30:00+02:00",
        "pub_date": "10/03",
        "pub_ts": 1583791200,
        "link": "https://t.me/MOHreport/2881"
    },
    {
        "id": "211",
        "lat": 32.2841992,
        "lon": 35.1242567,
        "label": "صندوق اِقتراع في مستوطنة عناف",
        "text": "",
        "pat_num": "48",
        "t_start": "2020-03-02T17:00:00+02:00",
        "t_end": "2020-03-02T17:30:00+02:00",
        "pub_date": "10/03",
        "pub_ts": 1583791200,
        "link": "https://t.me/MOHreport/2881"
    },
    {
        "id": "212",
        "lat": 32.0930115,
        "lon": 34.8210871,
        "label": "كلية بني براك \"حاردي مفحار\",صف 101",
        "text": "",
        "pat_num": "48",
        "t_start": "2020-03-03T17:30:00+02:00",
        "t_end": "2020-03-03T21:30:00+02:00",
        "pub_date": "10/03",
        "pub_ts": 1583791200,
        "link": "https://t.me/MOHreport/2881"
    },
    {
        "id": "213",
        "lat": 32.0555787,
        "lon": 34.8619976,
        "label": "صالة \"بروفيت\" الرياضية في المجمع التجاري كريات أونو , الطابق الأول",
        "text": "",
        "pat_num": "48",
        "t_start": "2020-03-05T15:15:00+02:00",
        "t_end": "2020-03-05T16:30:00+02:00",
        "pub_date": "10/03",
        "pub_ts": 1583791200,
        "link": "https://t.me/MOHreport/2881"
    },
    {
        "id": "214",
        "lat": 32.0930115,
        "lon": 34.8210871,
        "label": "كلية بني براك \"حاردي مفحار\",صف 101",
        "text": "",
        "pat_num": "48",
        "t_start": "2020-03-05T17:30:00+02:00",
        "t_end": "2020-03-05T21:30:00+02:00",
        "pub_date": "10/03",
        "pub_ts": 1583791200,
        "link": "https://t.me/MOHreport/2881"
    },
    {
        "id": "215",
        "lat": 31.80399,
        "lon": 35.10448,
        "label": "كنيس الحسيدية في تيلستون.",
        "text": "",
        "pat_num": "48",
        "t_start": "2020-03-06T18:00:00+02:00",
        "t_end": "2020-03-06T18:30:00+02:00",
        "pub_date": "10/03",
        "pub_ts": 1583791200,
        "link": "https://t.me/MOHreport/2881"
    },
    {
        "id": "216",
        "lat": 31.80289,
        "lon": 35.10304,
        "label": "كنيس بيت حلمة في تيلستون",
        "text": "",
        "pat_num": "48",
        "t_start": "2020-03-07T10:00:00+02:00",
        "t_end": "2020-03-07T11:30:00+02:00",
        "pub_date": "10/03",
        "pub_ts": 1583791200,
        "link": "https://t.me/MOHreport/2881"
    },
    {
        "id": "217",
        "lat": 31.665718,
        "lon": 35.2395283,
        "label": "جبل هيرودوس",
        "text": "",
        "pat_num": "קבוצה מגרמניה",
        "t_start": "2020-03-03T11:00:00+02:00",
        "t_end": "2020-03-03T13:30:00+02:00",
        "pub_date": "10/03",
        "pub_ts": 1583791200,
        "link": "https://t.me/MOHreport/2882"
    },
    {
        "id": "218",
        "lat": 31.7043034,
        "lon": 35.2053401,
        "label": "كنيسة المهد, بيت لحم",
        "text": "",
        "pat_num": "קבוצה מגרמניה",
        "t_start": "2020-03-03T15:00:00+02:00",
        "t_end": "2020-03-03T16:30:00+02:00",
        "pub_date": "10/03",
        "pub_ts": 1583791200,
        "link": "https://t.me/MOHreport/2882"
    },
    {
        "id": "219",
        "lat": 31.7767189,
        "lon": 35.2323198,
        "label": "حائط المبكى , أورشليم",
        "text": "",
        "pat_num": "קבוצה מגרמניה",
        "t_start": "2020-03-04T09:45:00+02:00",
        "t_end": "2020-03-04T11:45:00+02:00",
        "pub_date": "10/03",
        "pub_ts": 1583791200,
        "link": "https://t.me/MOHreport/2882"
    },
    {
        "id": "220",
        "lat": 31.7774769,
        "lon": 35.2281299,
        "label": "مطعم \"جان مورتسان\",البلدة القديمة - القدس",
        "text": "",
        "pat_num": "קבוצה מגרמניה",
        "t_start": "2020-03-04T12:30:00+02:00",
        "t_end": "2020-03-04T13:15:00+02:00",
        "pub_date": "10/03",
        "pub_ts": 1583791200,
        "link": "https://t.me/MOHreport/2882"
    },
    {
        "id": "221",
        "lat": 31.7717797,
        "lon": 35.2271781,
        "label": "علية صهيون",
        "text": "",
        "pat_num": "קבוצה מגרמניה",
        "t_start": "2020-03-04T17:00:00+02:00",
        "t_end": "2020-03-04T17:30:00+02:00",
        "pub_date": "10/03",
        "pub_ts": 1583791200,
        "link": "https://t.me/MOHreport/2882"
    },
    {
        "id": "222",
        "lat": 31.8304502,
        "lon": 35.4549941,
        "label": "مكان للصلاة في قصر اليهود",
        "text": "",
        "pat_num": "קבוצה מגרמניה",
        "t_start": "2020-03-05T11:30:00+02:00",
        "t_end": "2020-03-05T13:30:00+02:00",
        "pub_date": "10/03",
        "pub_ts": 1583791200,
        "link": "https://t.me/MOHreport/2882"
    },
    {
        "id": "223",
        "lat": 31.3138062,
        "lon": 35.3655923,
        "label": "مسعدة، بما في ذلك التلفريك",
        "text": "",
        "pat_num": "קבוצה מגרמניה",
        "t_start": "2020-03-06T09:00:00+02:00",
        "t_end": "2020-03-06T13:00:00+02:00",
        "pub_date": "10/03",
        "pub_ts": 1583791200,
        "link": "https://t.me/MOHreport/2882"
    },
    {
        "id": "224",
        "lat": 31.1712698,
        "lon": 35.3656505,
        "label": "سوبر ماركت\"هوردوس\", البحر الميت",
        "text": "",
        "pat_num": "קבוצה מגרמניה",
        "t_start": "2020-03-06T17:30:00+02:00",
        "t_end": "2020-03-06T18:00:00+02:00",
        "pub_date": "10/03",
        "pub_ts": 1583791200,
        "link": "https://t.me/MOHreport/2882"
    },
    {
        "id": "225",
        "lat": 32.0720017,
        "lon": 34.7675983,
        "label": "صندوق الاِقتراع التي تم وضعه في مدرسة \"بيت هيلد\" في شارع آفات زيون ، تل أبيب",
        "text": "",
        "pat_num": "40",
        "t_start": "2020-03-02T14:00:00+02:00",
        "t_end": "2020-03-02T15:00:00+02:00",
        "pub_date": "10/03",
        "pub_ts": 1583791200,
        "link": "https://t.me/MOHreport/2884"
    },
    {
        "id": "226",
        "lat": 32.1094996,
        "lon": 34.8373739,
        "label": "مطعم \"جوتا\",  3  شارع هنحوشوت في رمات هاشال , تل أبيب",
        "text": "",
        "pat_num": "40",
        "t_start": "2020-03-03T14:00:00+02:00",
        "t_end": "2020-03-03T15:00:00+02:00",
        "pub_date": "10/03",
        "pub_ts": 1583791200,
        "link": "https://t.me/MOHreport/2884"
    },
    {
        "id": "227",
        "lat": 32.1099275,
        "lon": 34.837181,
        "label": "مقهى \"لاندفر\", 3 شارع هنحوشت رمات هاحيال في تل أبيب",
        "text": "",
        "pat_num": "40",
        "t_start": "2020-03-04T14:30:00+02:00",
        "t_end": "2020-03-04T16:00:00+02:00",
        "pub_date": "10/03",
        "pub_ts": 1583791200,
        "link": "https://t.me/MOHreport/2884"
    },
    {
        "id": "228",
        "lat": 32.0938351,
        "lon": 34.7911753,
        "label": "مقهى \"بوكه\",40 شارع يهودا همكابي,تل أبيب",
        "text": "",
        "pat_num": "40",
        "t_start": "2020-03-05T10:00:00+02:00",
        "t_end": "2020-03-05T11:00:00+02:00",
        "pub_date": "10/03",
        "pub_ts": 1583791200,
        "link": "https://t.me/MOHreport/2884"
    },
    {
        "id": "229",
        "lat": 31.88222776,
        "lon": 34.87859545,
        "label": "\"ألونيت\",شارع رقم 6 جنوبا",
        "text": "",
        "pat_num": "51",
        "t_start": "2020-02-27T12:30:00+02:00",
        "t_end": "2020-02-27T13:00:00+02:00",
        "pub_date": "10/03",
        "pub_ts": 1583791200,
        "link": "https://t.me/MOHreport/2885"
    },
    {
        "id": "230",
        "lat": 31.2244302,
        "lon": 34.8202529,
        "label": "متجر \"أكيا\" في بئر السبع",
        "text": "",
        "pat_num": "51",
        "t_start": "2020-02-29T18:00:00+02:00",
        "t_end": "2020-02-29T21:00:00+02:00",
        "pub_date": "10/03",
        "pub_ts": 1583791200,
        "link": "https://t.me/MOHreport/2885"
    },
    {
        "id": "231",
        "lat": 31.2426376,
        "lon": 34.8086633,
        "label": "المركز الصحي \"بريئوتا\" , مركز \"بيج\", بئر السبع",
        "text": "",
        "pat_num": "51",
        "t_start": "2020-03-05T22:00:00+02:00",
        "t_end": "2020-03-05T23:30:00+02:00",
        "pub_date": "10/03",
        "pub_ts": 1583791200,
        "link": "https://t.me/MOHreport/2885"
    },
    {
        "id": "232",
        "lat": 31.793745,
        "lon": 35.215224,
        "label": "קו 176 מרחוב בר אילן פינת רחוב ירמיהו ירושלים עד לתחנת דרך צמח השדה – השקמה, מעלה אדומים",
        "text": "",
        "pat_num": "52",
        "t_start": "2020-03-05T19:30:00+02:00",
        "t_end": "2020-03-05T20:30:00+02:00",
        "pub_date": "10/03",
        "pub_ts": 1583791200,
        "link": "https://t.me/MOHreport/2886?embed=1"
    },
    {
        "id": "233",
        "lat": 31.768272,
        "lon": 35.300901,
        "label": "كنيس \"شيخ هسدة\" , شارع الصفصافة, معالي أدوميم",
        "text": "",
        "pat_num": "52",
        "t_start": "2020-03-06T06:15:00+02:00",
        "t_end": "2020-03-06T07:00:00+02:00",
        "pub_date": "10/03",
        "pub_ts": 1583791200,
        "link": "https://t.me/MOHreport/2886?embed=1"
    },
    {
        "id": "234",
        "lat": 31.767439,
        "lon": 35.301492,
        "label": "سوبرماركت \"ينوت بيتن\"  29 شارع \"صمح هشديه\" معالي أدوميم",
        "text": "",
        "pat_num": "52",
        "t_start": "2020-03-06T07:15:00+02:00",
        "t_end": "2020-03-06T08:00:00+02:00",
        "pub_date": "10/03",
        "pub_ts": 1583791200,
        "link": "https://t.me/MOHreport/2886?embed=1"
    },
    {
        "id": "235",
        "lat": 31.768272,
        "lon": 35.300901,
        "label": "كنيس \"شيخ هسدة\" , شارع الصفصافة, معالي أدوميم",
        "text": "",
        "pat_num": "52",
        "t_start": "2020-03-07T08:00:00+02:00",
        "t_end": "2020-03-07T10:00:00+02:00",
        "pub_date": "10/03",
        "pub_ts": 1583791200,
        "link": "https://t.me/MOHreport/2886?embed=1"
    },
    {
        "id": "236",
        "lat": 31.777074,
        "lon": 35.304477,
        "label": "كنيس \"أهافات اسرائيل\" , 1 شارع دكل, معالي أدوميم",
        "text": "",
        "pat_num": "52",
        "t_start": "2020-03-07T16:30:00+02:00",
        "t_end": "2020-03-07T17:00:00+02:00",
        "pub_date": "10/03",
        "pub_ts": 1583791200,
        "link": "https://t.me/MOHreport/2886?embed=1"
    },
    {
        "id": "237",
        "lat": 32.2841992,
        "lon": 35.1242567,
        "label": "كنيس حباد في مستوطنة عناف",
        "text": "",
        "pat_num": "57",
        "t_start": "2020-02-29T00:00:00+02:00",
        "t_end": "2020-02-29T23:59:00+02:00",
        "pub_date": "10/03",
        "pub_ts": 1583791200,
        "link": "https://t.me/MOHreport/2891?embed=1"
    },
    {
        "id": "238",
        "lat": 31.893331,
        "lon": 34.821537,
        "label": "سوبرماركت \"يش بشخوناة\" ,1 شارع حيم سرني, رحوفوت",
        "text": "",
        "pat_num": "57",
        "t_start": "2020-03-01T18:00:00+02:00",
        "t_end": "2020-03-01T18:20:00+02:00",
        "pub_date": "10/03",
        "pub_ts": 1583791200,
        "link": "https://t.me/MOHreport/2891?embed=1"
    },
    {
        "id": "239",
        "lat": 31.888133,
        "lon": 34.819082,
        "label": "سوبرماركت \"بركول\" زكريا مدار زاوية شارع كوفشي حارمون رحوفوت",
        "text": "",
        "pat_num": "57",
        "t_start": "2020-03-01T18:20:00+02:00",
        "t_end": "2020-03-01T19:10:00+02:00",
        "pub_date": "10/03",
        "pub_ts": 1583791200,
        "link": "https://t.me/MOHreport/2891?embed=1"
    },
    {
        "id": "240",
        "lat": 31.864974,
        "lon": 34.814176,
        "label": "متجر KSP في مجمع بيلو المركزي التجاري",
        "text": "",
        "pat_num": "57",
        "t_start": "2020-03-02T11:55:00+02:00",
        "t_end": "2020-03-02T12:15:00+02:00",
        "pub_date": "10/03",
        "pub_ts": 1583791200,
        "link": "https://t.me/MOHreport/2891?embed=1"
    },
    {
        "id": "241",
        "lat": 31.889146,
        "lon": 34.808668,
        "label": "صندوق اقنراع ذوي الاحتياجات الخاصة, مدرسة بن تسيفي,رحوفوت",
        "text": "",
        "pat_num": "57",
        "t_start": "2020-03-02T19:25:00+02:00",
        "t_end": "2020-03-02T19:40:00+02:00",
        "pub_date": "10/03",
        "pub_ts": 1583791200,
        "link": "https://t.me/MOHreport/2891?embed=1"
    },
    {
        "id": "242",
        "lat": 31.893816,
        "lon": 34.816782,
        "label": "اِجتماع طلاب يشيفا  في شارع منوحا ونحلا ، رحوفوت",
        "text": "",
        "pat_num": "57",
        "t_start": "2020-03-04T08:00:00+02:00",
        "t_end": "2020-03-04T08:35:00+02:00",
        "pub_date": "10/03",
        "pub_ts": 1583791200,
        "link": "https://t.me/MOHreport/2891?embed=1"
    },
    {
        "id": "243",
        "lat": 31.888889,
        "lon": 34.786687,
        "label": "كوبات حوليم لئوميت، توخمان يعقوب 17 ، كريات موشيه ، رحوفوت",
        "text": "",
        "pat_num": "57",
        "t_start": "2020-03-04T09:00:00+02:00",
        "t_end": "2020-03-04T09:20:00+02:00",
        "pub_date": "10/03",
        "pub_ts": 1583791200,
        "link": "https://t.me/MOHreport/2891?embed=1"
    },
    {
        "id": "244",
        "lat": 31.893931,
        "lon": 34.807127,
        "label": "كوبات حوليم لئوميت ، توخمان يعقوب 17 ، كريات موشيه ، رحوفوت",
        "text": "",
        "pat_num": "57",
        "t_start": "2020-03-04T09:40:00+02:00",
        "t_end": "2020-03-04T10:50:00+02:00",
        "pub_date": "10/03",
        "pub_ts": 1583791200,
        "link": "https://t.me/MOHreport/2891?embed=1"
    },
    {
        "id": "245",
        "lat": 31.891251,
        "lon": 34.813638,
        "label": "متجر داف رام ,10 شارع عزرا , رحوفوت",
        "text": "",
        "pat_num": "57",
        "t_start": "2020-03-04T15:55:00+02:00",
        "t_end": "2020-03-04T16:10:00+02:00",
        "pub_date": "10/03",
        "pub_ts": 1583791200,
        "link": "https://t.me/MOHreport/2891?embed=1"
    },
    {
        "id": "246",
        "lat": 31.893331,
        "lon": 34.821537,
        "label": "سوبرماركت \"يش بشخوناة\" ,1 شارع حيم سرني, رحوفوت",
        "text": "",
        "pat_num": "57",
        "t_start": "2020-03-06T10:00:00+02:00",
        "t_end": "2020-03-06T10:15:00+02:00",
        "pub_date": "10/03",
        "pub_ts": 1583791200,
        "link": "https://t.me/MOHreport/2891?embed=1"
    },
    {
        "id": "247",
        "lat": 31.892086,
        "lon": 34.820554,
        "label": "سوبرماركت \"سوبر توف فميتوف\"  2 شارع يوسف فينر, رحوفوت",
        "text": "",
        "pat_num": "57",
        "t_start": "2020-03-06T14:00:00+02:00",
        "t_end": "2020-03-06T14:05:00+02:00",
        "pub_date": "10/03",
        "pub_ts": 1583791200,
        "link": "https://t.me/MOHreport/2891?embed=1"
    },
    {
        "id": "248",
        "lat": 31.892086,
        "lon": 34.820554,
        "label": "سوبرماركت \"سوبر توف فميتوف\"  2 شارع يوسف فينر, رحوفوت",
        "text": "",
        "pat_num": "57",
        "t_start": "2020-03-06T15:45:00+02:00",
        "t_end": "2020-03-06T16:00:00+02:00",
        "pub_date": "10/03",
        "pub_ts": 1583791200,
        "link": "https://t.me/MOHreport/2891?embed=1"
    },