{
  "points": [
    {
      "id": 57595,
      "lat": 32.8040049050001,
      "lon": 35.0002236830001,
      "label": "בית כנסת מורשה - רח' השילוח 6 חיפה",
      "text": "",
      "stayTimes": "05:45-06:30",
      "t_start": "2020-03-19T03:45:00",
      "t_end": "2020-03-19T04:30:00",
      "link": ""
    },
    {
      "id": 57596,
      "lat": 31.763070988,
      "lon": 35.2075006810001,
      "label": "בית כנסת \"שטיבלח\" - ירושלים",
      "text": "",
      "stayTimes": "07:00 - 10:00",
      "t_start": "2020-03-19T05:00:00",
      "t_end": "2020-03-19T08:00:00",
      "link": ""
    },
    {
      "id": 57597,
      "lat": 31.7834327,
      "lon": 35.173596,
      "label": "קופת חולים מאוחדת- מוקד חירום - ירושלים",
      "text": "",
      "stayTimes": "08:00 - 08:00",
      "t_start": "2020-03-19T06:00:00",
      "t_end": "2020-03-19T06:00:00",
      "link": ""
    },
    {
      "id": 57598,
      "lat": 32.0126802,
      "lon": 34.8054303000001,
      "label": "בנק מזרחי טפחות קומת כניסה - חולון",
      "text": "",
      "stayTimes": "10:30 - 11:30",
      "t_start": "2020-03-19T08:30:00",
      "t_end": "2020-03-19T09:30:00",
      "link": ""
    },
    {
      "id": 57599,
      "lat": 31.9430537260001,
      "lon": 34.889790406,
      "label": "קיוסק - לוד",
      "text": "",
      "stayTimes": "12:00 - 16:00",
      "t_start": "2020-03-19T10:00:00",
      "t_end": "2020-03-19T14:00:00",
      "link": ""
    },
    {
      "id": 57600,
      "lat": 32.8040049050001,
      "lon": 35.0002236830001,
      "label": "בית כנסת מורשה -רח' השילוח 6 חיפה",
      "text": "",
      "stayTimes": "12:30-13:00",
      "t_start": "2020-03-19T10:30:00",
      "t_end": "2020-03-19T11:00:00",
      "link": ""
    },
    {
      "id": 57601,
      "lat": 32.0873548000001,
      "lon": 34.8289585000001,
      "label": "בית הכנסת הגדול - בני ברק",
      "text": "",
      "stayTimes": "14:30 - 15:00",
      "t_start": "2020-03-19T12:30:00",
      "t_end": "2020-03-19T13:00:00",
      "link": ""
    },
    {
      "id": 57602,
      "lat": 31.9093954000001,
      "lon": 34.805436,
      "label": "חנות אופיס דיפו צומת בילו - רחובות",
      "text": "",
      "stayTimes": "16:30 - 17:00",
      "t_start": "2020-03-19T14:30:00",
      "t_end": "2020-03-19T15:00:00",
      "link": ""
    },
    {
      "id": 57603,
      "lat": 32.8040049050001,
      "lon": 35.0002236830001,
      "label": "בית כנסת מורשה -רח' השילוח 6 חיפה",
      "text": "",
      "stayTimes": "17:00-19:00",
      "t_start": "2020-03-19T15:00:00",
      "t_end": "2020-03-19T17:00:00",
      "link": ""
    },
    {
      "id": 57604,
      "lat": 31.310954,
      "lon": 34.6126154,
      "label": "מרפאת כללית בסניף מישור הגפן, אופקים",
      "text": "",
      "stayTimes": "18:00-18:30",
      "t_start": "2020-03-19T16:00:00",
      "t_end": "2020-03-19T16:30:00",
      "link": ""
    },
    {
      "id": 57605,
      "lat": 31.243507102,
      "lon": 34.810619413,
      "label": "B7 שופרסל בי (סופרפארם של שופרסל) - באר שבע",
      "text": "",
      "stayTimes": "19:00 - 19:30",
      "t_start": "2020-03-19T17:00:00",
      "t_end": "2020-03-19T17:30:00",
      "link": ""
    },
    {
      "id": 57606,
      "lat": 32.8040049050001,
      "lon": 35.0002236830001,
      "label": "בית כנסת מורשה - רח' השילוח 6 חיפה",
      "text": "",
      "stayTimes": "05:45-06:30",
      "t_start": "2020-03-20T03:45:00",
      "t_end": "2020-03-20T04:30:00",
      "link": ""
    },
    {
      "id": 57607,
      "lat": 32.8040049050001,
      "lon": 35.0002236830001,
      "label": "בית כנסת מורשה -רח' השילוח 6 חיפה",
      "text": "",
      "stayTimes": "12:30-13:00",
      "t_start": "2020-03-20T10:30:00",
      "t_end": "2020-03-20T11:00:00",
      "link": ""
    },
    {
      "id": 57608,
      "lat": 32.7694308550001,
      "lon": 35.4759519740001,
      "label": "מאפית אליס - טבריה",
      "text": "",
      "stayTimes": "12:30 - 13:00",
      "t_start": "2020-03-20T10:30:00",
      "t_end": "2020-03-20T11:00:00",
      "link": ""
    },
    {
      "id": 57609,
      "lat": 29.5542451860001,
      "lon": 34.940702039,
      "label": "מלר\"ד קורונה/מחלות זיהומיות יוספטל",
      "text": "",
      "stayTimes": "16:00-18:30",
      "t_start": "2020-03-20T14:00:00",
      "t_end": "2020-03-20T16:30:00",
      "link": ""
    },
    {
      "id": 57610,
      "lat": 32.8040049050001,
      "lon": 35.0002236830001,
      "label": "בית כנסת מורשה -רח' השילוח 6 חיפה",
      "text": "",
      "stayTimes": "17:00-19:00",
      "t_start": "2020-03-20T15:00:00",
      "t_end": "2020-03-20T17:00:00",
      "link": ""
    },
    {
      "id": 57611,
      "lat": 32.8040049050001,
      "lon": 35.0002236830001,
      "label": "בית כנסת מורשה - רח' השילוח 6 חיפה",
      "text": "",
      "stayTimes": "05:45-06:30",
      "t_start": "2020-03-21T03:45:00",
      "t_end": "2020-03-21T04:30:00",
      "link": ""
    },
    {
      "id": 57612,
      "lat": 32.086465339,
      "lon": 34.832410714,
      "label": "מקוה צאנז - בני ברק",
      "text": "",
      "stayTimes": "06:00 - 06:10",
      "t_start": "2020-03-21T04:00:00",
      "t_end": "2020-03-21T04:10:00",
      "link": ""
    },
    {
      "id": 57613,
      "lat": 32.8040049050001,
      "lon": 35.0002236830001,
      "label": "בית כנסת מורשה -רח' השילוח 6 חיפה",
      "text": "",
      "stayTimes": "12:30-13:00",
      "t_start": "2020-03-21T10:30:00",
      "t_end": "2020-03-21T11:00:00",
      "link": ""
    },
    {
      "id": 57614,
      "lat": 32.8040049050001,
      "lon": 35.0002236830001,
      "label": "בית כנסת מורשה -רח' השילוח 6 חיפה",
      "text": "",
      "stayTimes": "17:00-19:00",
      "t_start": "2020-03-21T15:00:00",
      "t_end": "2020-03-21T17:00:00",
      "link": ""
    },
    {
      "id": 57615,
      "lat": 32.0998254680001,
      "lon": 34.820579175,
      "label": "אושר עד - בני ברק",
      "text": "",
      "stayTimes": "19:50 - 20:30",
      "t_start": "2020-03-21T17:50:00",
      "t_end": "2020-03-21T18:30:00",
      "link": ""
    },
    {
      "id": 57616,
      "lat": 32.0998254680001,
      "lon": 34.820579175,
      "label": "עזר מציון - בני ברק",
      "text": "",
      "stayTimes": "23:00 - 00:00",
      "t_start": "2020-03-21T21:00:00",
      "t_end": "2020-03-21T22:00:00",
      "link": ""
    },
    {
      "id": 57617,
      "lat": 32.8040049050001,
      "lon": 35.0002236830001,
      "label": "בית כנסת מורשה - רח' השילוח 6 חיפה",
      "text": "",
      "stayTimes": "05:45-06:30",
      "t_start": "2020-03-22T03:45:00",
      "t_end": "2020-03-22T04:30:00",
      "link": ""
    },
    {
      "id": 57618,
      "lat": 32.4747429,
      "lon": 34.9978065,
      "label": "סופר סל שלי כרכור - פרדס חנה-כרכור",
      "text": "",
      "stayTimes": "08:30 - 12:30",
      "t_start": "2020-03-22T06:30:00",
      "t_end": "2020-03-22T10:30:00",
      "link": ""
    },
    {
      "id": 57619,
      "lat": 32.8040049050001,
      "lon": 35.0002236830001,
      "label": "בית כנסת מורשה -רח' השילוח 6 חיפה",
      "text": "",
      "stayTimes": "12:30-13:00",
      "t_start": "2020-03-22T10:30:00",
      "t_end": "2020-03-22T11:00:00",
      "link": ""
    },
    {
      "id": 57620,
      "lat": 32.8040049050001,
      "lon": 35.0002236830001,
      "label": "בית כנסת מורשה -רח' השילוח 6 חיפה",
      "text": "",
      "stayTimes": "17:00-19:00",
      "t_start": "2020-03-22T15:00:00",
      "t_end": "2020-03-22T17:00:00",
      "link": ""
    },
    {
      "id": 57621,
      "lat": 31.6732514890001,
      "lon": 34.568105486,
      "label": "סופר פארם - אשקלון",
      "text": "",
      "stayTimes": "15:30 - 16:30",
      "t_start": "2020-03-20T13:30:00",
      "t_end": "2020-03-20T14:30:00",
      "link": ""
    },
    {
      "id": 57622,
      "lat": 31.862712,
      "lon": 35.1749548000001,
      "label": "סופר \"שוק העיר\" - גבעת זאב",
      "text": "",
      "stayTimes": "08:30 - 10:30",
      "t_start": "2020-03-24T06:30:00",
      "t_end": "2020-03-24T08:30:00",
      "link": ""
    },
    {
      "id": 57623,
      "lat": 31.862562788,
      "lon": 35.1748595820001,
      "label": "סופר \"שוק העיר\" - גבעת זאב",
      "text": "",
      "stayTimes": "08:00 - 09:15",
      "t_start": "2020-03-20T06:00:00",
      "t_end": "2020-03-20T07:15:00",
      "link": ""
    },
    {
      "id": 57624,
      "lat": 31.7656617000001,
      "lon": 35.1491024000001,
      "label": "מיון ביוליוגי בי\"ח הדסה ע\"כ - ירושלים",
      "text": "",
      "stayTimes": "16:00 - 20:00",
      "t_start": "2020-03-22T14:00:00",
      "t_end": "2020-03-22T18:00:00",
      "link": ""
    },
    {
      "id": 57625,
      "lat": 32.6213325640001,
      "lon": 35.3160931080001,
      "label": "ביח' העמק - עפולה",
      "text": "",
      "stayTimes": "19:00 - 20:00",
      "t_start": "2020-03-23T17:00:00",
      "t_end": "2020-03-23T18:00:00",
      "link": ""
    },
    {
      "id": 57626,
      "lat": 32.0836468000001,
      "lon": 34.8544321000001,
      "label": "מרפאה של דר' ברקוביץ - גבעת שמואל",
      "text": "",
      "stayTimes": "09:00 - 10:00",
      "t_start": "2020-03-22T07:00:00",
      "t_end": "2020-03-22T08:00:00",
      "link": ""
    },
    {
      "id": 57627,
      "lat": 32.0862991000001,
      "lon": 34.8348894000001,
      "label": "סופר מרקט נתיב החסד - בני ברק",
      "text": "",
      "stayTimes": "11:00 - 11:15",
      "t_start": "2020-03-20T09:00:00",
      "t_end": "2020-03-20T09:15:00",
      "link": ""
    },
    {
      "id": 57628,
      "lat": 32.0798340000001,
      "lon": 34.841219,
      "label": "בית כנסת מנין אברכים - בני ברק",
      "text": "",
      "stayTimes": "10:10 - 11:00",
      "t_start": "2020-03-19T08:10:00",
      "t_end": "2020-03-19T09:00:00",
      "link": ""
    },
    {
      "id": 57629,
      "lat": 32.084876937,
      "lon": 34.835267199,
      "label": "כולל הרן - בני ברק",
      "text": "",
      "stayTimes": "11:00 - 15:10",
      "t_start": "2020-03-19T09:00:00",
      "t_end": "2020-03-19T13:10:00",
      "link": ""
    },
    {
      "id": 57630,
      "lat": 32.6424195000001,
      "lon": 35.0924242,
      "label": "שופרסל דיל בביג - יקנעם (מושבה)",
      "text": "",
      "stayTimes": "14:00 - 15:00",
      "t_start": "2020-03-20T12:00:00",
      "t_end": "2020-03-20T13:00:00",
      "link": ""
    },
    {
      "id": 57631,
      "lat": 32.2886786490001,
      "lon": 34.8636800840001,
      "label": "חברת סונול - נתניה",
      "text": "",
      "stayTimes": "11:00 - 19:00",
      "t_start": "2020-03-19T09:00:00",
      "t_end": "2020-03-19T17:00:00",
      "link": ""
    },
    {
      "id": 57632,
      "lat": 32.2926403000001,
      "lon": 34.8624596000001,
      "label": "רמי לוי שיווק השקמה - נתניה",
      "text": "",
      "stayTimes": "20:00 - 21:00",
      "t_start": "2020-03-19T18:00:00",
      "t_end": "2020-03-19T19:00:00",
      "link": ""
    },
    {
      "id": 57633,
      "lat": 31.6619693000001,
      "lon": 34.55967,
      "label": "מיון ברזילי - אשקלון",
      "text": "",
      "stayTimes": "20:30 - 23:30",
      "t_start": "2020-03-23T18:30:00",
      "t_end": "2020-03-23T21:30:00",
      "link": ""
    },
    {
      "id": 57634,
      "lat": 32.801459703,
      "lon": 35.6886500730001,
      "label": "בית מרקחת קניון נוף גולן - בני יהודה",
      "text": "",
      "stayTimes": "13:30 - 14:00",
      "t_start": "2020-03-22T11:30:00",
      "t_end": "2020-03-22T12:00:00",
      "link": ""
    },
    {
      "id": 57635,
      "lat": 32.7994380000001,
      "lon": 35.6832441,
      "label": "חנות ביג מוצרי בנין - גבעת יואב",
      "text": "",
      "stayTimes": "14:00 - 14:30",
      "t_start": "2020-03-22T12:00:00",
      "t_end": "2020-03-22T12:30:00",
      "link": ""
    },
    {
      "id": 57636,
      "lat": 31.7974363000001,
      "lon": 35.2422844000001,
      "label": "מחלקה פנימית א' הדסה הר הצופים - ירושלים",
      "text": "",
      "stayTimes": "09:00 - 18:00",
      "t_start": "2020-03-19T07:00:00",
      "t_end": "2020-03-19T16:00:00",
      "link": ""
    },
    {
      "id": 57637,
      "lat": 32.5685534670001,
      "lon": 34.9548873620001,
      "label": "שופרסל בקניון פסגת זכרון - זכרון יעקב",
      "text": "",
      "stayTimes": "21:30 - 23:00",
      "t_start": "2020-03-21T19:30:00",
      "t_end": "2020-03-21T21:00:00",
      "link": ""
    },
    {
      "id": 57638,
      "lat": 31.8686612000001,
      "lon": 34.7460415,
      "label": "סופרפארם - יבנה",
      "text": "",
      "stayTimes": "20:30 - 21:00",
      "t_start": "2020-03-23T18:30:00",
      "t_end": "2020-03-23T19:00:00",
      "link": ""
    },
    {
      "id": 57639,
      "lat": 32.4520147000001,
      "lon": 34.8963615000001,
      "label": "מיון הלל יפה - חדרה",
      "text": "",
      "stayTimes": "22:00 - 00:45",
      "t_start": "2020-03-22T20:00:00",
      "t_end": "2020-03-22T22:45:00",
      "link": ""
    },
    {
      "id": 57640,
      "lat": 32.4382128230001,
      "lon": 34.927502492,
      "label": "בטרם - חדרה - חדרה",
      "text": "",
      "stayTimes": "21:30 - 22:00",
      "t_start": "2020-03-22T19:30:00",
      "t_end": "2020-03-22T20:00:00",
      "link": ""
    },
    {
      "id": 57641,
      "lat": 32.091213065,
      "lon": 34.8346251850001,
      "label": "לוקווא - בני ברק",
      "text": "",
      "stayTimes": "07:15 - 08:30",
      "t_start": "2020-03-19T05:15:00",
      "t_end": "2020-03-19T06:30:00",
      "link": ""
    },
    {
      "id": 57642,
      "lat": 32.0476757000001,
      "lon": 34.9633600000001,
      "label": "בית כנסת רעות - אלעד",
      "text": "",
      "stayTimes": "10:00 - 11:00",
      "t_start": "2020-03-19T08:00:00",
      "t_end": "2020-03-19T09:00:00",
      "link": ""
    },
    {
      "id": 57643,
      "lat": 32.0468535000001,
      "lon": 34.9490425000001,
      "label": "בית כנסת קול אליהו - אלעד",
      "text": "",
      "stayTimes": "11:00 - 15:30",
      "t_start": "2020-03-19T09:00:00",
      "t_end": "2020-03-19T13:30:00",
      "link": ""
    },
    {
      "id": 57644,
      "lat": 32.0476757000001,
      "lon": 34.9633600000001,
      "label": "בית הכנסת רעות - אלעד",
      "text": "",
      "stayTimes": "20:10 - 20:30",
      "t_start": "2020-03-19T18:10:00",
      "t_end": "2020-03-19T18:30:00",
      "link": ""
    },
    {
      "id": 57645,
      "lat": 32.0465211810001,
      "lon": 35.3012538770001,
      "label": "סופר מנחם באזור תעשיה - שילה",
      "text": "",
      "stayTimes": "16:43 - 16:55",
      "t_start": "2020-03-19T14:43:00",
      "t_end": "2020-03-19T14:55:00",
      "link": ""
    },
    {
      "id": 57646,
      "lat": 31.790460352,
      "lon": 35.2087794890001,
      "label": "קופ\"ח כללית - ירושלים",
      "text": "",
      "stayTimes": "11:30 - 12:05",
      "t_start": "2020-03-19T09:30:00",
      "t_end": "2020-03-19T10:05:00",
      "link": ""
    },
    {
      "id": 57647,
      "lat": 32.0937292,
      "lon": 34.8895771000001,
      "label": "מגא בעיר - פתח תקווה",
      "text": "",
      "stayTimes": "16:00 - 16:30",
      "t_start": "2020-03-20T14:00:00",
      "t_end": "2020-03-20T14:30:00",
      "link": ""
    },
    {
      "id": 57648,
      "lat": 32.087752874,
      "lon": 34.8323685350001,
      "label": "ביה\"כ צורטקוב - בני ברק",
      "text": "",
      "stayTimes": "18:30 - 19:00",
      "t_start": "2020-03-21T16:30:00",
      "t_end": "2020-03-21T17:00:00",
      "link": ""
    },
    {
      "id": 57649,
      "lat": 32.0908013000001,
      "lon": 34.8389312,
      "label": "סופרמרקט יש חסד - בני ברק",
      "text": "",
      "stayTimes": "20:00 - 21:30",
      "t_start": "2020-03-21T18:00:00",
      "t_end": "2020-03-21T19:30:00",
      "link": ""
    },
    {
      "id": 57650,
      "lat": 32.9328932820001,
      "lon": 35.0913713530001,
      "label": "קופת חולים כללית, עמידר עכו - עכו",
      "text": "",
      "stayTimes": "11:30 - 12:30",
      "t_start": "2020-03-20T09:30:00",
      "t_end": "2020-03-20T10:30:00",
      "link": ""
    },
    {
      "id": 57651,
      "lat": 32.935867466,
      "lon": 35.0890832640001,
      "label": "בית כנסת- אורייתא, סמוך לרחוב נפתלי - עכו",
      "text": "",
      "stayTimes": "10:30 - 11:30",
      "t_start": "2020-03-20T08:30:00",
      "t_end": "2020-03-20T09:30:00",
      "link": ""
    },
    {
      "id": 57652,
      "lat": 32.9250475000001,
      "lon": 35.0828051,
      "label": "שופרסל דיל- עכו - עכו",
      "text": "",
      "stayTimes": "19:30 - 20:30",
      "t_start": "2020-03-19T17:30:00",
      "t_end": "2020-03-19T18:30:00",
      "link": ""
    },
    {
      "id": 57653,
      "lat": 31.9476142,
      "lon": 34.8914086,
      "label": "מוקד טרם - לוד",
      "text": "",
      "stayTimes": "13:30 - 15:00",
      "t_start": "2020-03-20T11:30:00",
      "t_end": "2020-03-20T13:00:00",
      "link": ""
    },
    {
      "id": 57654,
      "lat": 32.0812255390001,
      "lon": 34.840566849,
      "label": "בית כנסת קדושי קראקא - בני ברק",
      "text": "",
      "stayTimes": "08:00 - 11:00",
      "t_start": "2020-03-21T06:00:00",
      "t_end": "2020-03-21T09:00:00",
      "link": ""
    },
    {
      "id": 57655,
      "lat": 32.0852217,
      "lon": 34.8304099000001,
      "label": "בית כנסת חסידי בלז - בני ברק",
      "text": "",
      "stayTimes": "09:00 - 22:00",
      "t_start": "2020-03-20T07:00:00",
      "t_end": "2020-03-20T20:00:00",
      "link": ""
    },
    {
      "id": 57656,
      "lat": 31.7649503000001,
      "lon": 35.1494106000001,
      "label": "הדסה עין כרם - ירושלים",
      "text": "",
      "stayTimes": "11:00 - 16:30",
      "t_start": "2020-03-19T09:00:00",
      "t_end": "2020-03-19T14:30:00",
      "link": ""
    },
    {
      "id": 57657,
      "lat": 32.008303074,
      "lon": 34.7912482130001,
      "label": "שופרסל - חולון",
      "text": "",
      "stayTimes": "10:30 - 10:45",
      "t_start": "2020-03-19T08:30:00",
      "t_end": "2020-03-19T08:45:00",
      "link": ""
    },
    {
      "id": 57658,
      "lat": 32.0924884,
      "lon": 34.8379598000001,
      "label": "מרפאת טר\"מ בני ברק - בני ברק",
      "text": "",
      "stayTimes": "13:00 - 16:00",
      "t_start": "2020-03-20T11:00:00",
      "t_end": "2020-03-20T14:00:00",
      "link": ""
    },
    {
      "id": 57659,
      "lat": 32.0128584500001,
      "lon": 34.7523648690001,
      "label": "יוחננוף - בת ים",
      "text": "",
      "stayTimes": "16:30 - 17:10",
      "t_start": "2020-03-19T14:30:00",
      "t_end": "2020-03-19T15:10:00",
      "link": ""
    },
    {
      "id": 57660,
      "lat": 32.0833752,
      "lon": 34.8296135000001,
      "label": "בית כנסת תפארת ציון - בני ברק",
      "text": "",
      "stayTimes": "20:30 - 21:00",
      "t_start": "2020-03-21T18:30:00",
      "t_end": "2020-03-21T19:00:00",
      "link": ""
    },
    {
      "id": 57661,
      "lat": 32.085051891,
      "lon": 34.8778206050001,
      "label": "בית כנסת \"אבי עזרי\" - בני ברק",
      "text": "",
      "stayTimes": "20:20 - 21:00",
      "t_start": "2020-03-20T18:20:00",
      "t_end": "2020-03-20T19:00:00",
      "link": ""
    },
    {
      "id": 57662,
      "lat": 32.0997094000001,
      "lon": 34.8287219000001,
      "label": "מחסני חשמל - בני ברק",
      "text": "",
      "stayTimes": "15:15 - 16:00",
      "t_start": "2020-03-25T13:15:00",
      "t_end": "2020-03-25T14:00:00",
      "link": ""
    },
    {
      "id": 57663,
      "lat": 32.0874743210001,
      "lon": 34.8330099030001,
      "label": "תלמוד תורה באר יהושע - בני ברק",
      "text": "",
      "stayTimes": "12:20 - 15:00",
      "t_start": "2020-03-19T10:20:00",
      "t_end": "2020-03-19T13:00:00",
      "link": ""
    },
    {
      "id": 57664,
      "lat": 32.0773965000001,
      "lon": 34.7966304,
      "label": "סופרמרקט \" פלגמרקט - תל אביב - יפו",
      "text": "",
      "stayTimes": "11:00 - 11:30",
      "t_start": "2020-03-20T09:00:00",
      "t_end": "2020-03-20T09:30:00",
      "link": ""
    },
    {
      "id": 57665,
      "lat": 32.0469846300001,
      "lon": 34.7587096350001,
      "label": "אטליז \"אבוחילווא\" - תל אביב - יפו",
      "text": "",
      "stayTimes": "11:00 - 12:00",
      "t_start": "2020-03-19T09:00:00",
      "t_end": "2020-03-19T10:00:00",
      "link": ""
    },
    {
      "id": 57666,
      "lat": 32.1174727000001,
      "lon": 34.7977255000001,
      "label": "סופר סל \"טאגור\" - תל אביב - יפו",
      "text": "",
      "stayTimes": "12:30 - 13:00",
      "t_start": "2020-03-19T10:30:00",
      "t_end": "2020-03-19T11:00:00",
      "link": ""
    },
    {
      "id": 57667,
      "lat": 32.0141083090001,
      "lon": 34.7449400100001,
      "label": "מרפאת כללית - השקמה בת ים - בת ים",
      "text": "",
      "stayTimes": "08:00 - 10:00",
      "t_start": "2020-03-19T06:00:00",
      "t_end": "2020-03-19T08:00:00",
      "link": ""
    },
    {
      "id": 57668,
      "lat": 32.0141083090001,
      "lon": 34.7449400100001,
      "label": "מרפאת כללית - השקמה בת ים - בת ים",
      "text": "",
      "stayTimes": "08:00 - 10:00",
      "t_start": "2020-03-22T06:00:00",
      "t_end": "2020-03-22T08:00:00",
      "link": ""
    },
    {
      "id": 57669,
      "lat": 32.0141083090001,
      "lon": 34.7449400100001,
      "label": "מרפאת כללית - השקמה בת ים - בת ים",
      "text": "",
      "stayTimes": "08:00 - 10:00",
      "t_start": "2020-03-25T06:00:00",
      "t_end": "2020-03-25T08:00:00",
      "link": ""
    },
    {
      "id": 57670,
      "lat": 32.008471,
      "lon": 34.8001090000001,
      "label": "ליברה חברה לביטוח - חולון",
      "text": "",
      "stayTimes": "10:00 - 15:00",
      "t_start": "2020-03-20T08:00:00",
      "t_end": "2020-03-20T13:00:00",
      "link": ""
    },
    {
      "id": 57671,
      "lat": 32.7891667000001,
      "lon": 35.535,
      "label": "שופרסל דיל - טבריה",
      "text": "",
      "stayTimes": "08:00 - 16:00",
      "t_start": "2020-03-19T06:00:00",
      "t_end": "2020-03-19T14:00:00",
      "link": ""
    },
    {
      "id": 57672,
      "lat": 31.7916038000001,
      "lon": 35.1996482000001,
      "label": "מד\"א - ירושלים",
      "text": "",
      "stayTimes": "09:50 - 11:50",
      "t_start": "2020-03-23T07:50:00",
      "t_end": "2020-03-23T09:50:00",
      "link": ""
    },
    {
      "id": 57673,
      "lat": 32.0152498,
      "lon": 34.7567722000001,
      "label": "סופרדוש בת ים - בת ים",
      "text": "",
      "stayTimes": "16:30 - 17:30",
      "t_start": "2020-03-23T14:30:00",
      "t_end": "2020-03-23T15:30:00",
      "link": ""
    },
    {
      "id": 57674,
      "lat": 31.6570530000001,
      "lon": 34.5581874000001,
      "label": "בי\"ס אולפנת צביה - אשקלון",
      "text": "",
      "stayTimes": "12:30 - 13:30",
      "t_start": "2020-03-19T10:30:00",
      "t_end": "2020-03-19T11:30:00",
      "link": ""
    },
    {
      "id": 57675,
      "lat": 32.0552349000001,
      "lon": 34.9606875000001,
      "label": "שפע שוק מהדרין - אלעד",
      "text": "",
      "stayTimes": "14:00 - 15:00",
      "t_start": "2020-03-19T12:00:00",
      "t_end": "2020-03-19T13:00:00",
      "link": ""
    },
    {
      "id": 57676,
      "lat": 31.7650299690001,
      "lon": 35.1486071190001,
      "label": "משמרת טיפול נמרץ הדסה - ירושלים",
      "text": "",
      "stayTimes": "08:00 - 16:00",
      "t_start": "2020-03-23T06:00:00",
      "t_end": "2020-03-23T14:00:00",
      "link": ""
    },
    {
      "id": 57677,
      "lat": 31.7914709,
      "lon": 34.6604398000001,
      "label": "בית הכנסת קהל חסידים - אשדוד",
      "text": "",
      "stayTimes": "17:00 - 18:00",
      "t_start": "2020-03-21T15:00:00",
      "t_end": "2020-03-21T16:00:00",
      "link": ""
    },
    {
      "id": 57678,
      "lat": 31.7914709,
      "lon": 34.6604398000001,
      "label": "בית כנסת קהל חסידים - אשדוד",
      "text": "",
      "stayTimes": "19:00 - 19:30",
      "t_start": "2020-03-21T17:00:00",
      "t_end": "2020-03-21T17:30:00",
      "link": ""
    },
    {
      "id": 57679,
      "lat": 31.7914709,
      "lon": 34.6604398000001,
      "label": "בית כנסת קהל חסידים - אשדוד",
      "text": "",
      "stayTimes": "17:00 - 18:00",
      "t_start": "2020-03-19T15:00:00",
      "t_end": "2020-03-19T16:00:00",
      "link": ""
    },
    {
      "id": 57680,
      "lat": 31.7914709,
      "lon": 34.6604398000001,
      "label": "בית כנסת קהל חסידים - אשדוד",
      "text": "",
      "stayTimes": "22:00 - 23:00",
      "t_start": "2020-03-19T20:00:00",
      "t_end": "2020-03-19T21:00:00",
      "link": ""
    },
    {
      "id": 57681,
      "lat": 31.7914709,
      "lon": 34.6604398000001,
      "label": "בית כנסת קהל חסידים - אשדוד",
      "text": "",
      "stayTimes": "09:00 - 10:00",
      "t_start": "2020-03-20T07:00:00",
      "t_end": "2020-03-20T08:00:00",
      "link": ""
    },
    {
      "id": 57682,
      "lat": 31.7708458000001,
      "lon": 34.6328370000001,
      "label": "תפילה בחצר הבניין של בית הכנסת - אשדוד",
      "text": "",
      "stayTimes": "17:00 - 19:00",
      "t_start": "2020-03-20T15:00:00",
      "t_end": "2020-03-20T17:00:00",
      "link": ""
    },
    {
      "id": 57683,
      "lat": 31.789693132,
      "lon": 34.6614227310001,
      "label": "בית כנסת אימרי חיים ויז'ניץ - אשדוד",
      "text": "",
      "stayTimes": "08:45 - 11:30",
      "t_start": "2020-03-21T06:45:00",
      "t_end": "2020-03-21T09:30:00",
      "link": ""
    },
    {
      "id": 57684,
      "lat": 32.037273,
      "lon": 34.8655430000001,
      "label": "מסוף קרית אונו - קרית אונו",
      "text": "",
      "stayTimes": "15:30 - 16:30",
      "t_start": "2020-03-22T13:30:00",
      "t_end": "2020-03-22T14:30:00",
      "link": ""
    },
    {
      "id": 57685,
      "lat": 32.087523064,
      "lon": 34.8339075660001,
      "label": "בית הכנסת בית אברהם - בני ברק",
      "text": "",
      "stayTimes": "08:30 - 10:30",
      "t_start": "2020-03-21T06:30:00",
      "t_end": "2020-03-21T08:30:00",
      "link": ""
    },
    {
      "id": 57686,
      "lat": 32.322299,
      "lon": 34.8593550000001,
      "label": "בית כנסת בית אליהו - נתניה",
      "text": "",
      "stayTimes": "17:30 - 18:30",
      "t_start": "2020-03-19T15:30:00",
      "t_end": "2020-03-19T16:30:00",
      "link": ""
    },
    {
      "id": 57687,
      "lat": 32.3364657000001,
      "lon": 34.8648199,
      "label": "בית כנסת יעקב מאיר - נתניה",
      "text": "",
      "stayTimes": "17:30 - 18:30",
      "t_start": "2020-03-20T15:30:00",
      "t_end": "2020-03-20T16:30:00",
      "link": ""
    },
    {
      "id": 57688,
      "lat": 32.3226049620001,
      "lon": 34.8632334260001,
      "label": "בית כנסת יעקב מאיר - נתניה",
      "text": "",
      "stayTimes": "08:00 - 10:00",
      "t_start": "2020-03-21T06:00:00",
      "t_end": "2020-03-21T08:00:00",
      "link": ""
    },
    {
      "id": 57689,
      "lat": 32.3364657000001,
      "lon": 34.8648199,
      "label": "בית כנסת יעקב מאיר - נתניה",
      "text": "",
      "stayTimes": "17:00 - 17:30",
      "t_start": "2020-03-21T15:00:00",
      "t_end": "2020-03-21T15:30:00",
      "link": ""
    },
    {
      "id": 57690,
      "lat": 32.3364657000001,
      "lon": 34.8648199,
      "label": "בית כנסת יעקב מאיר - נתניה",
      "text": "",
      "stayTimes": "18:30 - 19:00",
      "t_start": "2020-03-21T16:30:00",
      "t_end": "2020-03-21T17:00:00",
      "link": ""
    },
    {
      "id": 57691,
      "lat": 32.318382984,
      "lon": 34.885954138,
      "label": "מרפאה כללית - נתניה",
      "text": "",
      "stayTimes": "08:00 - 09:30",
      "t_start": "2020-03-22T06:00:00",
      "t_end": "2020-03-22T07:30:00",
      "link": ""
    },
    {
      "id": 57692,
      "lat": 32.3231348,
      "lon": 34.8713024,
      "label": "שופרסל דיל - נתניה",
      "text": "",
      "stayTimes": "12:30 - 13:00",
      "t_start": "2020-03-22T10:30:00",
      "t_end": "2020-03-22T11:00:00",
      "link": ""
    },
    {
      "id": 57693,
      "lat": 31.697788105,
      "lon": 34.575005391,
      "label": "סופר ויקטורי - אשקלון",
      "text": "",
      "stayTimes": "08:30 - 10:00",
      "t_start": "2020-03-23T06:30:00",
      "t_end": "2020-03-23T08:00:00",
      "link": ""
    },
    {
      "id": 57694,
      "lat": 31.697706963,
      "lon": 34.575005391,
      "label": "ויקטורי - אשקלון",
      "text": "",
      "stayTimes": "09:00 - 10:10",
      "t_start": "2020-03-26T07:00:00",
      "t_end": "2020-03-26T08:10:00",
      "link": ""
    },
    {
      "id": 57695,
      "lat": 32.0952951,
      "lon": 34.7839011,
      "label": "אל וסינו - תל אביב - יפו",
      "text": "",
      "stayTimes": "00:30 - 02:00",
      "t_start": "2020-03-22T22:30:00",
      "t_end": "2020-03-23T00:00:00",
      "link": ""
    },
    {
      "id": 57696,
      "lat": 32.2868611000001,
      "lon": 34.8664061000001,
      "label": "סופר יוחננוף - נתניה",
      "text": "",
      "stayTimes": "13:00 - 14:00",
      "t_start": "2020-03-25T11:00:00",
      "t_end": "2020-03-25T12:00:00",
      "link": ""
    },
    {
      "id": 57697,
      "lat": 32.0230769,
      "lon": 34.8617718,
      "label": "מכולת שוק אבולבן - אור יהודה",
      "text": "",
      "stayTimes": "11:00 - 12:00",
      "t_start": "2020-03-20T09:00:00",
      "t_end": "2020-03-20T10:00:00",
      "link": ""
    },
    {
      "id": 57698,
      "lat": 32.3086936060001,
      "lon": 34.8732704820001,
      "label": "בית כנסת חב\"ד - נתניה",
      "text": "",
      "stayTimes": "07:00 - 11:00",
      "t_start": "2020-03-21T05:00:00",
      "t_end": "2020-03-21T09:00:00",
      "link": ""
    },
    {
      "id": 57699,
      "lat": 32.2956485980001,
      "lon": 34.845039806,
      "label": "קופת חולים כללית - נתניה",
      "text": "",
      "stayTimes": "11:00 - 11:30",
      "t_start": "2020-03-19T09:00:00",
      "t_end": "2020-03-19T09:30:00",
      "link": ""
    },
    {
      "id": 57700,
      "lat": 32.306917807,
      "lon": 34.8690509680001,
      "label": "סופר מרקט מגה - נתניה",
      "text": "",
      "stayTimes": "11:00 - 11:30",
      "t_start": "2020-03-20T09:00:00",
      "t_end": "2020-03-20T09:30:00",
      "link": ""
    },
    {
      "id": 57701,
      "lat": 32.3068328000001,
      "lon": 34.8694745,
      "label": "קופ\"ח כללית - נתניה",
      "text": "",
      "stayTimes": "18:00 - 19:00",
      "t_start": "2020-03-25T16:00:00",
      "t_end": "2020-03-25T17:00:00",
      "link": ""
    },
    {
      "id": 57702,
      "lat": 32.0603861880001,
      "lon": 34.7771782930001,
      "label": "חנות יאנוביץ - תל אביב - יפו",
      "text": "",
      "stayTimes": "10:30 - 12:00",
      "t_start": "2020-03-20T08:30:00",
      "t_end": "2020-03-20T10:00:00",
      "link": ""
    },
    {
      "id": 57703,
      "lat": 32.4357942,
      "lon": 34.9163935,
      "label": "מרפאה אורטופדית, בית חולים הלל יפה - חדרה",
      "text": "",
      "stayTimes": "09:10 - 10:00",
      "t_start": "2020-03-19T07:10:00",
      "t_end": "2020-03-19T08:00:00",
      "link": ""
    },
    {
      "id": 57704,
      "lat": 32.451798479,
      "lon": 34.894246604,
      "label": "מיון פנימי, בית חולים הלל יפה - חדרה",
      "text": "",
      "stayTimes": "10:00 - 12:00",
      "t_start": "2020-03-19T08:00:00",
      "t_end": "2020-03-19T10:00:00",
      "link": ""
    },
    {
      "id": 57705,
      "lat": 32.4888435880001,
      "lon": 34.970554421,
      "label": "\"רמי לוי\" מתחם ביג - פרדס חנה-כרכור",
      "text": "",
      "stayTimes": "19:00 - 19:20",
      "t_start": "2020-03-23T17:00:00",
      "t_end": "2020-03-23T17:20:00",
      "link": ""
    },
    {
      "id": 57706,
      "lat": 32.0348409160001,
      "lon": 34.848170958,
      "label": "יוחננוף הגדול - סופר - אור יהודה",
      "text": "",
      "stayTimes": "16:30 - 17:00",
      "t_start": "2020-03-25T14:30:00",
      "t_end": "2020-03-25T15:00:00",
      "link": ""
    },
    {
      "id": 57707,
      "lat": 31.6035606,
      "lon": 34.7589160000001,
      "label": "קופת חולים כללית סניף ג' - קרית גת",
      "text": "",
      "stayTimes": "18:15 - 19:00",
      "t_start": "2020-03-23T16:15:00",
      "t_end": "2020-03-23T17:00:00",
      "link": ""
    },
    {
      "id": 57708,
      "lat": 31.662374293,
      "lon": 34.5592837890001,
      "label": "ביקור במיון - אשקלון",
      "text": "",
      "stayTimes": "19:30 - 21:00",
      "t_start": "2020-03-22T17:30:00",
      "t_end": "2020-03-22T19:00:00",
      "link": ""
    },
    {
      "id": 57709,
      "lat": 32.022975289,
      "lon": 34.85841365,
      "label": "רשת יוחננוף - אור יהודה",
      "text": "",
      "stayTimes": "15:00 - 23:59",
      "t_start": "2020-03-19T13:00:00",
      "t_end": "2020-03-19T21:59:00",
      "link": ""
    },
    {
      "id": 57710,
      "lat": 32.0347833110001,
      "lon": 34.848167629,
      "label": "סופרמקט יוחננוף - אור יהודה",
      "text": "",
      "stayTimes": "07:00 - 15:00",
      "t_start": "2020-03-20T05:00:00",
      "t_end": "2020-03-20T13:00:00",
      "link": ""
    },
    {
      "id": 57711,
      "lat": 32.034739674,
      "lon": 34.848171919,
      "label": "סופרמרקט יוחננוף - אור יהודה",
      "text": "",
      "stayTimes": "07:00 - 15:00",
      "t_start": "2020-03-22T05:00:00",
      "t_end": "2020-03-22T13:00:00",
      "link": ""
    },
    {
      "id": 57712,
      "lat": 31.6805084000001,
      "lon": 34.5570960000001,
      "label": "ניו פארם אפרידר {BE] - אשקלון",
      "text": "",
      "stayTimes": "11:00 - 11:30",
      "t_start": "2020-03-20T09:00:00",
      "t_end": "2020-03-20T09:30:00",
      "link": ""
    },
    {
      "id": 57713,
      "lat": 31.6641894000001,
      "lon": 34.5632752000001,
      "label": "סופר ויקטורי - אשקלון",
      "text": "",
      "stayTimes": "11:00 - 12:00",
      "t_start": "2020-03-19T09:00:00",
      "t_end": "2020-03-19T10:00:00",
      "link": ""
    },
    {
      "id": 57714,
      "lat": 31.6641894000001,
      "lon": 34.5632752000001,
      "label": "סופר ויקטורי - אשקלון",
      "text": "",
      "stayTimes": "13:30 - 14:30",
      "t_start": "2020-03-19T11:30:00",
      "t_end": "2020-03-19T12:30:00",
      "link": ""
    },
    {
      "id": 57715,
      "lat": 31.6696972,
      "lon": 34.5779276000001,
      "label": "חנות פרבורגר - אשקלון",
      "text": "",
      "stayTimes": "12:00 - 13:00",
      "t_start": "2020-03-19T10:00:00",
      "t_end": "2020-03-19T11:00:00",
      "link": ""
    },
    {
      "id": 57716,
      "lat": 31.6693527,
      "lon": 34.576629,
      "label": "חנות ממתקי אלי - אשקלון",
      "text": "",
      "stayTimes": "13:00 - 13:30",
      "t_start": "2020-03-19T11:00:00",
      "t_end": "2020-03-19T11:30:00",
      "link": ""
    },
    {
      "id": 57717,
      "lat": 31.773365368,
      "lon": 35.185650546,
      "label": "בית חולים שערי צדק - ירושלים",
      "text": "",
      "stayTimes": "08:00 - 21:30",
      "t_start": "2020-03-23T06:00:00",
      "t_end": "2020-03-23T19:30:00",
      "link": ""
    },
    {
      "id": 57718,
      "lat": 32.0142516000001,
      "lon": 34.7670197,
      "label": "מוקד מכבי הופיין - חולון",
      "text": "",
      "stayTimes": "22:45 - 00:20",
      "t_start": "2020-03-23T20:45:00",
      "t_end": "2020-03-23T22:20:00",
      "link": ""
    },
    {
      "id": 57719,
      "lat": 32.0142516000001,
      "lon": 34.7670197,
      "label": "מוקד מכבי הופיין - חולון",
      "text": "",
      "stayTimes": "21:40 - 00:30",
      "t_start": "2020-03-24T19:40:00",
      "t_end": "2020-03-24T22:30:00",
      "link": ""
    },
    {
      "id": 57720,
      "lat": 32.0142516000001,
      "lon": 34.7670197,
      "label": "מוקד מכבי הופיים - חולון",
      "text": "",
      "stayTimes": "21:05 - 22:05",
      "t_start": "2020-03-25T19:05:00",
      "t_end": "2020-03-25T20:05:00",
      "link": ""
    },
    {
      "id": 57721,
      "lat": 31.6622786990001,
      "lon": 34.5592685010001,
      "label": "ביח ברזילי - אשקלון",
      "text": "",
      "stayTimes": "09:00 - 10:00",
      "t_start": "2020-03-25T07:00:00",
      "t_end": "2020-03-25T08:00:00",
      "link": ""
    },
    {
      "id": 57722,
      "lat": 31.6664161,
      "lon": 34.5844755000001,
      "label": "תבליני מצליח - אשקלון",
      "text": "",
      "stayTimes": "08:00 - 09:00",
      "t_start": "2020-03-19T06:00:00",
      "t_end": "2020-03-19T07:00:00",
      "link": ""
    },
    {
      "id": 57723,
      "lat": 31.6561888000001,
      "lon": 34.5878943000001,
      "label": "סיטונאות רחמים - אשקלון",
      "text": "",
      "stayTimes": "07:00 - 08:00",
      "t_start": "2020-03-20T05:00:00",
      "t_end": "2020-03-20T06:00:00",
      "link": ""
    },
    {
      "id": 57724,
      "lat": 31.6744616290001,
      "lon": 34.5583050380001,
      "label": "מכולת שכונתית-רח הטייסים - אשקלון",
      "text": "",
      "stayTimes": "07:30 - 08:00",
      "t_start": "2020-03-25T05:30:00",
      "t_end": "2020-03-25T06:00:00",
      "link": ""
    },
    {
      "id": 57725,
      "lat": 32.083756651,
      "lon": 34.8337066030001,
      "label": "כולל חניכי ישיבת חברון - בני ברק",
      "text": "",
      "stayTimes": "09:00 - 19:00",
      "t_start": "2020-03-19T07:00:00",
      "t_end": "2020-03-19T17:00:00",
      "link": ""
    },
    {
      "id": 57726,
      "lat": 31.6687937,
      "lon": 34.5847829000001,
      "label": "שוק עירוני - אשקלון",
      "text": "",
      "stayTimes": "15:00 - 15:30",
      "t_start": "2020-03-19T13:00:00",
      "t_end": "2020-03-19T13:30:00",
      "link": ""
    },
    {
      "id": 57727,
      "lat": 31.6682664000001,
      "lon": 34.6023671,
      "label": "סופרמרקט יינות ביתן - אזור תעשייה צפוני - אשקלון",
      "text": "",
      "stayTimes": "16:00 - 17:00",
      "t_start": "2020-03-19T14:00:00",
      "t_end": "2020-03-19T15:00:00",
      "link": ""
    },
    {
      "id": 57728,
      "lat": 31.6633589680001,
      "lon": 34.5858703590001,
      "label": "מוקד \"טרם\" - אשקלון",
      "text": "",
      "stayTimes": "11:30 - 12:30",
      "t_start": "2020-03-20T09:30:00",
      "t_end": "2020-03-20T10:30:00",
      "link": ""
    },
    {
      "id": 57729,
      "lat": 31.6687478000001,
      "lon": 34.5847833,
      "label": "שוק אשקלון - אשקלון",
      "text": "",
      "stayTimes": "19:00 - 20:00",
      "t_start": "2020-03-19T17:00:00",
      "t_end": "2020-03-19T18:00:00",
      "link": ""
    },
    {
      "id": 57730,
      "lat": 31.6761345130001,
      "lon": 34.575818349,
      "label": "סופר \"ויקטורי\" - אשקלון",
      "text": "",
      "stayTimes": "18:00 - 19:00",
      "t_start": "2020-03-19T16:00:00",
      "t_end": "2020-03-19T17:00:00",
      "link": ""
    },
    {
      "id": 57731,
      "lat": 31.6668652000001,
      "lon": 34.584778,
      "label": "חנות \"סעדה דגים\" השוק הישן - אשקלון",
      "text": "",
      "stayTimes": "20:30 - 20:45",
      "t_start": "2020-03-19T18:30:00",
      "t_end": "2020-03-19T18:45:00",
      "link": ""
    },
    {
      "id": 57732,
      "lat": 31.665187309,
      "lon": 34.566901828,
      "label": "חברת החשמל - אשקלון",
      "text": "",
      "stayTimes": "06:00 - 17:00",
      "t_start": "2020-03-19T04:00:00",
      "t_end": "2020-03-19T15:00:00",
      "link": ""
    },
    {
      "id": 57733,
      "lat": 32.086082301,
      "lon": 34.8304487670001,
      "label": "בית מרקחת - בני ברק",
      "text": "",
      "stayTimes": "12:00 - 13:00",
      "t_start": "2020-03-23T10:00:00",
      "t_end": "2020-03-23T11:00:00",
      "link": ""
    },
    {
      "id": 57734,
      "lat": 31.747611239,
      "lon": 34.9933915010001,
      "label": "סופר-פארם, קניון נעמי - בית שמש",
      "text": "",
      "stayTimes": "17:00 - 17:30",
      "t_start": "2020-03-23T15:00:00",
      "t_end": "2020-03-23T15:30:00",
      "link": ""
    },
    {
      "id": 57735,
      "lat": 32.0905584000001,
      "lon": 34.8328416000001,
      "label": "בית כנסת תפארת נחמן - בני ברק",
      "text": "",
      "stayTimes": "17:00 - 12:00",
      "t_start": "2020-03-20T15:00:00",
      "t_end": "2020-03-21T10:00:00",
      "link": ""
    },
    {
      "id": 57736,
      "lat": 32.082238449,
      "lon": 34.8403200290001,
      "label": "בית כנסת נחלת משה - בני ברק",
      "text": "",
      "stayTimes": "11:00 - 13:00",
      "t_start": "2020-03-20T09:00:00",
      "t_end": "2020-03-20T11:00:00",
      "link": ""
    },
    {
      "id": 57737,
      "lat": 32.057107,
      "lon": 34.8691424,
      "label": "סופר פארם - גני תקווה",
      "text": "",
      "stayTimes": "12:30 - 12:45",
      "t_start": "2020-03-27T10:30:00",
      "t_end": "2020-03-27T10:45:00",
      "link": ""
    },
    {
      "id": 57738,
      "lat": 32.0900940000001,
      "lon": 34.8282610000001,
      "label": "ישיבת סלבוטקה - בני ברק",
      "text": "",
      "stayTimes": "13:00 - 15:30",
      "t_start": "2020-03-20T11:00:00",
      "t_end": "2020-03-20T13:30:00",
      "link": ""
    },
    {
      "id": 57739,
      "lat": 32.0763242,
      "lon": 34.8398895,
      "label": "בית כנסת משכנות יעקב - בני ברק",
      "text": "",
      "stayTimes": "17:00 - 17:30",
      "t_start": "2020-03-21T15:00:00",
      "t_end": "2020-03-21T15:30:00",
      "link": ""
    },
    {
      "id": 57740,
      "lat": 32.0859852,
      "lon": 34.8355715000001,
      "label": "בית כנסת איצקוביץ - בני ברק",
      "text": "",
      "stayTimes": "12:30 - 13:00",
      "t_start": "2020-03-20T10:30:00",
      "t_end": "2020-03-20T11:00:00",
      "link": ""
    },
    {
      "id": 57741,
      "lat": 32.0984322410001,
      "lon": 34.833049869,
      "label": "בית כנסת אור הצפון - בני ברק",
      "text": "",
      "stayTimes": "17:00 - 12:00",
      "t_start": "2020-03-20T15:00:00",
      "t_end": "2020-03-21T10:00:00",
      "link": ""
    },
    {
      "id": 57742,
      "lat": 32.0905584000001,
      "lon": 34.8328416000001,
      "label": "בית כנסת תפארת נחמן - בני ברק",
      "text": "",
      "stayTimes": "17:00 - 12:00",
      "t_start": "2020-03-20T15:00:00",
      "t_end": "2020-03-21T10:00:00",
      "link": ""
    },
    {
      "id": 57743,
      "lat": 32.4341140000001,
      "lon": 34.9091965000001,
      "label": "ארכה חנות חומרי חשמל חדרה - חדרה",
      "text": "",
      "stayTimes": "07:00 - 17:00",
      "t_start": "2020-03-22T05:00:00",
      "t_end": "2020-03-22T15:00:00",
      "link": ""
    },
    {
      "id": 57744,
      "lat": 31.9359125,
      "lon": 34.8258773000001,
      "label": "מאפיה דרך הלחם, ספר אקספרס, קצביה, מענדניה - באר יעקב",
      "text": "",
      "stayTimes": "11:00 - 12:30",
      "t_start": "2020-03-23T09:00:00",
      "t_end": "2020-03-23T10:30:00",
      "link": ""
    },
    {
      "id": 57745,
      "lat": 31.941866443,
      "lon": 34.833751224,
      "label": "שופרסל, בקניון - באר יעקב",
      "text": "",
      "stayTimes": "10:30 - 10:45",
      "t_start": "2020-03-24T08:30:00",
      "t_end": "2020-03-24T08:45:00",
      "link": ""
    },
    {
      "id": 57746,
      "lat": 32.1046489170001,
      "lon": 34.8118631410001,
      "label": "תחנת בדיקה לקורונה,ברוקח - תל אביב - יפו",
      "text": "",
      "stayTimes": "20:30 - 21:00",
      "t_start": "2020-03-25T18:30:00",
      "t_end": "2020-03-25T19:00:00",
      "link": ""
    },
    {
      "id": 57747,
      "lat": 31.6355262000001,
      "lon": 34.5528603000001,
      "label": "רמי לוי - אשקלון",
      "text": "",
      "stayTimes": "21:00 - 23:00",
      "t_start": "2020-03-22T19:00:00",
      "t_end": "2020-03-22T21:00:00",
      "link": ""
    },
    {
      "id": 57748,
      "lat": 31.8865552,
      "lon": 35.0182949000001,
      "label": "סופר ברעות- סופר שלי, מרכז מסחרי רעות - מודיעין-מכבים-רעות",
      "text": "",
      "stayTimes": "17:00 - 17:20",
      "t_start": "2020-03-23T15:00:00",
      "t_end": "2020-03-23T15:20:00",
      "link": ""
    },
    {
      "id": 57749,
      "lat": 31.8865552,
      "lon": 35.0182949000001,
      "label": "סופרמרקט שופרסל שלי- מרכז מסחרי לב רעות - מודיעין-מכבים-רעות",
      "text": "",
      "stayTimes": "10:00 - 10:15",
      "t_start": "2020-03-20T08:00:00",
      "t_end": "2020-03-20T08:15:00",
      "link": ""
    },
    {
      "id": 57750,
      "lat": 32.103972238,
      "lon": 34.810706204,
      "label": "בדיקה בתל אביב במתחם של מד\"א - תל אביב - יפו",
      "text": "",
      "stayTimes": "22:45 - 22:55",
      "t_start": "2020-03-25T20:45:00",
      "t_end": "2020-03-25T20:55:00",
      "link": ""
    },
    {
      "id": 57751,
      "lat": 32.0908013000001,
      "lon": 34.8389312,
      "label": "סופר יש חסד - בני ברק",
      "text": "",
      "stayTimes": "22:45 - 23:30",
      "t_start": "2020-03-22T20:45:00",
      "t_end": "2020-03-22T21:30:00",
      "link": ""
    },
    {
      "id": 57752,
      "lat": 32.08714036,
      "lon": 34.828771558,
      "label": "כולל יוצאי חברון - בני ברק",
      "text": "",
      "stayTimes": "10:15 - 13:00",
      "t_start": "2020-03-19T08:15:00",
      "t_end": "2020-03-19T11:00:00",
      "link": ""
    },
    {
      "id": 57753,
      "lat": 32.087135102,
      "lon": 34.828786721,
      "label": "כולל יוצאי חברון - בני ברק",
      "text": "",
      "stayTimes": "11:00 - 12:30",
      "t_start": "2020-03-24T09:00:00",
      "t_end": "2020-03-24T10:30:00",
      "link": ""
    },
    {
      "id": 57754,
      "lat": 32.0880753010001,
      "lon": 34.839479827,
      "label": "בית כנסת חנכי ישיבית - בני ברק",
      "text": "",
      "stayTimes": "08:00 - 08:00",
      "t_start": "2020-03-21T06:00:00",
      "t_end": "2020-03-21T06:00:00",
      "link": ""
    },
    {
      "id": 57755,
      "lat": 32.8098420000001,
      "lon": 35.0565800000001,
      "label": "סופר יוחננוף אאוטלט חוצות המפרץ חיפה - חיפה",
      "text": "",
      "stayTimes": "17:30 - 18:30",
      "t_start": "2020-03-19T15:30:00",
      "t_end": "2020-03-19T16:30:00",
      "link": ""
    },
    {
      "id": 57756,
      "lat": 32.4490906,
      "lon": 34.9147627,
      "label": "סופר אושר עד - חדרה",
      "text": "",
      "stayTimes": "19:00 - 19:15",
      "t_start": "2020-03-19T17:00:00",
      "t_end": "2020-03-19T17:15:00",
      "link": ""
    },
    {
      "id": 57757,
      "lat": 32.4475695,
      "lon": 34.9133438000001,
      "label": "מאפיית המשפחה (צמוד לאושר עד) - חדרה",
      "text": "",
      "stayTimes": "19:15 - 19:30",
      "t_start": "2020-03-19T17:15:00",
      "t_end": "2020-03-19T17:30:00",
      "link": ""
    },
    {
      "id": 57758,
      "lat": 31.7932938000001,
      "lon": 34.651325,
      "label": "בית מרקחת כללית - אשדוד",
      "text": "",
      "stayTimes": "08:30 - 09:00",
      "t_start": "2020-03-19T06:30:00",
      "t_end": "2020-03-19T07:00:00",
      "link": ""
    },
    {
      "id": 57759,
      "lat": 31.79243675,
      "lon": 34.65534726,
      "label": "בית מרקחת קופ\"ח כללית - אשדוד",
      "text": "",
      "stayTimes": "10:00 - 11:00",
      "t_start": "2020-03-23T08:00:00",
      "t_end": "2020-03-23T09:00:00",
      "link": ""
    },
    {
      "id": 57760,
      "lat": 32.098909357,
      "lon": 34.829762456,
      "label": "אושר עד - בני ברק",
      "text": "",
      "stayTimes": "18:45 - 20:00",
      "t_start": "2020-03-23T16:45:00",
      "t_end": "2020-03-23T18:00:00",
      "link": ""
    },
    {
      "id": 57761,
      "lat": 32.0888296300001,
      "lon": 34.8390491580001,
      "label": "בית כנסת חניכי ישיבות סמינר אלקיים - בני ברק",
      "text": "",
      "stayTimes": "07:00 - 09:30",
      "t_start": "2020-03-21T05:00:00",
      "t_end": "2020-03-21T07:30:00",
      "link": ""
    },
    {
      "id": 57762,
      "lat": 32.0605863850001,
      "lon": 34.776487135,
      "label": "מפעל לליטוש יהלומים - תל אביב - יפו",
      "text": "",
      "stayTimes": "09:30 - 11:30",
      "t_start": "2020-03-24T07:30:00",
      "t_end": "2020-03-24T09:30:00",
      "link": ""
    },
    {
      "id": 57763,
      "lat": 32.0994975,
      "lon": 34.8755340000001,
      "label": "חצי חינם - פתח תקווה",
      "text": "",
      "stayTimes": "12:00 - 12:30",
      "t_start": "2020-03-23T10:00:00",
      "t_end": "2020-03-23T10:30:00",
      "link": ""
    },
    {
      "id": 57764,
      "lat": 32.085804954,
      "lon": 34.827918448,
      "label": "בית כנסת גור - בני ברק",
      "text": "",
      "stayTimes": "16:30 - 18:00",
      "t_start": "2020-03-21T14:30:00",
      "t_end": "2020-03-21T16:00:00",
      "link": ""
    },
    {
      "id": 57765,
      "lat": 32.0940110660001,
      "lon": 34.842704842,
      "label": "בית הכנסת שירת ישראל - בני ברק",
      "text": "",
      "stayTimes": "09:45 - 12:30",
      "t_start": "2020-03-21T07:45:00",
      "t_end": "2020-03-21T10:30:00",
      "link": ""
    },
    {
      "id": 57766,
      "lat": 32.0972669000001,
      "lon": 34.8379174,
      "label": "בית הכנסת זיו יהודה - בני ברק",
      "text": "",
      "stayTimes": "09:00 - 10:00",
      "t_start": "2020-03-22T07:00:00",
      "t_end": "2020-03-22T08:00:00",
      "link": ""
    },
    {
      "id": 57767,
      "lat": 31.8997105,
      "lon": 35.0136182000001,
      "label": "חנות ירקות \"אפונה וגזר\" - מודיעין-מכבים-רעות",
      "text": "",
      "stayTimes": "08:30 - 09:00",
      "t_start": "2020-03-20T06:30:00",
      "t_end": "2020-03-20T07:00:00",
      "link": ""
    },
    {
      "id": 57768,
      "lat": 31.8996547,
      "lon": 35.0138978000001,
      "label": "מכולת \"גולד מרקט\" - מודיעין-מכבים-רעות",
      "text": "",
      "stayTimes": "09:00 - 09:30",
      "t_start": "2020-03-20T07:00:00",
      "t_end": "2020-03-20T07:30:00",
      "link": ""
    },
    {
      "id": 57769,
      "lat": 32.0917393,
      "lon": 34.8223515,
      "label": "סטוק סנטר - רמת גן",
      "text": "",
      "stayTimes": "19:50 - 20:00",
      "t_start": "2020-03-22T17:50:00",
      "t_end": "2020-03-22T18:00:00",
      "link": ""
    },
    {
      "id": 57770,
      "lat": 32.0837975000001,
      "lon": 34.8141098,
      "label": "גוד פארם - רמת גן",
      "text": "",
      "stayTimes": "15:00 - 15:15",
      "t_start": "2020-03-20T13:00:00",
      "t_end": "2020-03-20T13:15:00",
      "link": ""
    },
    {
      "id": 57771,
      "lat": 32.0841454440001,
      "lon": 34.8193542230001,
      "label": "סופר סיטי - רמת גן",
      "text": "",
      "stayTimes": "20:00 - 20:10",
      "t_start": "2020-03-22T18:00:00",
      "t_end": "2020-03-22T18:10:00",
      "link": ""
    },
    {
      "id": 57772,
      "lat": 31.7789552,
      "lon": 34.6570806,
      "label": "בי\"ח אסותא- חדר ניתוח - אשדוד",
      "text": "",
      "stayTimes": "19:00 - 07:00",
      "t_start": "2020-03-25T17:00:00",
      "t_end": "2020-03-26T05:00:00",
      "link": ""
    },
    {
      "id": 57773,
      "lat": 32.0794196000001,
      "lon": 34.8364418,
      "label": "בית כנסת חסידי סאטמר - בני ברק",
      "text": "",
      "stayTimes": "08:00 - 09:30",
      "t_start": "2020-03-23T06:00:00",
      "t_end": "2020-03-23T07:30:00",
      "link": ""
    },
    {
      "id": 57774,
      "lat": 32.0065000000001,
      "lon": 34.951178,
      "label": "סופרמרקט בשוהם מרקט - שוהם",
      "text": "",
      "stayTimes": "10:00 - 10:30",
      "t_start": "2020-03-19T08:00:00",
      "t_end": "2020-03-19T08:30:00",
      "link": ""
    },
    {
      "id": 57775,
      "lat": 31.8920779000001,
      "lon": 34.8205555000001,
      "label": "סופר\" הטוב והמיטיב\" - רחובות",
      "text": "",
      "stayTimes": "09:00 - 09:20",
      "t_start": "2020-03-19T07:00:00",
      "t_end": "2020-03-19T07:20:00",
      "link": ""
    },
    {
      "id": 57776,
      "lat": 31.7675203000001,
      "lon": 35.2953086000001,
      "label": "מרפאת \"טרם\" - מעלה אדומים",
      "text": "",
      "stayTimes": "11:00 - 12:00",
      "t_start": "2020-03-22T09:00:00",
      "t_end": "2020-03-22T10:00:00",
      "link": ""
    },
    {
      "id": 57777,
      "lat": 31.7675203000001,
      "lon": 35.2953086000001,
      "label": "מרפאת \"טרם\" - מעלה אדומים",
      "text": "",
      "stayTimes": "15:00 - 16:00",
      "t_start": "2020-03-22T13:00:00",
      "t_end": "2020-03-22T14:00:00",
      "link": ""
    },
    {
      "id": 57778,
      "lat": 31.7649503000001,
      "lon": 35.1494106000001,
      "label": "מיון פנימי בי\"ח הדסה עין כרם - ירושלים",
      "text": "",
      "stayTimes": "23:00 - 01:00",
      "t_start": "2020-03-22T21:00:00",
      "t_end": "2020-03-22T23:00:00",
      "link": ""
    },
    {
      "id": 57779,
      "lat": 32.0854144,
      "lon": 34.8253573000001,
      "label": "בית כנסת ישראל הצעיר - בני ברק",
      "text": "",
      "stayTimes": "07:00 - 08:30",
      "t_start": "2020-03-21T05:00:00",
      "t_end": "2020-03-21T06:30:00",
      "link": ""
    },
    {
      "id": 57780,
      "lat": 32.0854144,
      "lon": 34.8253573000001,
      "label": "בית כנסת ישראל הצעיר - בני ברק",
      "text": "",
      "stayTimes": "12:30 - 13:00",
      "t_start": "2020-03-19T10:30:00",
      "t_end": "2020-03-19T11:00:00",
      "link": ""
    },
    {
      "id": 57781,
      "lat": 32.0828243,
      "lon": 34.8262474000001,
      "label": "סופר \"יש בשכונה\" - בני ברק",
      "text": "",
      "stayTimes": "13:00 - 13:30",
      "t_start": "2020-03-20T11:00:00",
      "t_end": "2020-03-20T11:30:00",
      "link": ""
    },
    {
      "id": 57782,
      "lat": 32.0258672000001,
      "lon": 34.8593382,
      "label": "סופר יש חסד - אור יהודה",
      "text": "",
      "stayTimes": "19:00 - 19:30",
      "t_start": "2020-03-25T17:00:00",
      "t_end": "2020-03-25T17:30:00",
      "link": ""
    },
    {
      "id": 57783,
      "lat": 31.8070985000001,
      "lon": 34.7848264,
      "label": "בית כנסת קהילתי תיכון רמון - גדרה",
      "text": "",
      "stayTimes": "08:00 - 10:00",
      "t_start": "2020-03-21T06:00:00",
      "t_end": "2020-03-21T08:00:00",
      "link": ""
    },
    {
      "id": 57784,
      "lat": 32.090239926,
      "lon": 34.825733954,
      "label": "ישיבת תפארת בחורים שיקומית - בני ברק",
      "text": "",
      "stayTimes": "08:00 - 12:00",
      "t_start": "2020-03-23T06:00:00",
      "t_end": "2020-03-23T10:00:00",
      "link": ""
    },
    {
      "id": 57785,
      "lat": 31.9478329,
      "lon": 34.9011619,
      "label": "מעבדה של מכבי - לוד",
      "text": "",
      "stayTimes": "07:30 - 08:30",
      "t_start": "2020-03-19T05:30:00",
      "t_end": "2020-03-19T06:30:00",
      "link": ""
    },
    {
      "id": 57786,
      "lat": 31.9478329,
      "lon": 34.9011619,
      "label": "קליניקה פרטית מכבי - לוד",
      "text": "",
      "stayTimes": "16:00 - 20:00",
      "t_start": "2020-03-22T14:00:00",
      "t_end": "2020-03-22T18:00:00",
      "link": ""
    },
    {
      "id": 57787,
      "lat": 31.927581,
      "lon": 34.872009,
      "label": "מרכז בריאות כללית - רמלה",
      "text": "",
      "stayTimes": "14:00 - 19:00",
      "t_start": "2020-03-19T12:00:00",
      "t_end": "2020-03-19T17:00:00",
      "link": ""
    },
    {
      "id": 57788,
      "lat": 31.9220189000001,
      "lon": 34.8587808,
      "label": "מרכז בריאות הילד כללית - רמלה",
      "text": "",
      "stayTimes": "08:00 - 14:00",
      "t_start": "2020-03-22T06:00:00",
      "t_end": "2020-03-22T12:00:00",
      "link": ""
    },
    {
      "id": 57789,
      "lat": 31.9478329,
      "lon": 34.9011619,
      "label": "קליניקה פרטית מכבי - לוד",
      "text": "",
      "stayTimes": "08:30 - 11:30",
      "t_start": "2020-03-24T06:30:00",
      "t_end": "2020-03-24T09:30:00",
      "link": ""
    },
    {
      "id": 57790,
      "lat": 31.9220189000001,
      "lon": 34.8587808,
      "label": "מרכז בריאות הילד כללית - רמלה",
      "text": "",
      "stayTimes": "08:00 - 14:30",
      "t_start": "2020-03-23T06:00:00",
      "t_end": "2020-03-23T12:30:00",
      "link": ""
    },
    {
      "id": 57791,
      "lat": 31.9220189000001,
      "lon": 34.8587808,
      "label": "מרכז בריאות הילד - רמלה",
      "text": "",
      "stayTimes": "08:15 - 11:00",
      "t_start": "2020-03-25T06:15:00",
      "t_end": "2020-03-25T09:00:00",
      "link": ""
    },
    {
      "id": 57792,
      "lat": 32.0142516000001,
      "lon": 34.7670197,
      "label": "מוקד מכבי - חולון",
      "text": "",
      "stayTimes": "19:00 - 23:00",
      "t_start": "2020-03-24T17:00:00",
      "t_end": "2020-03-24T21:00:00",
      "link": ""
    },
    {
      "id": 57793,
      "lat": 31.8167329,
      "lon": 34.7806883000001,
      "label": "בית ספר אוהל שלום - גדרה",
      "text": "",
      "stayTimes": "11:20 - 11:40",
      "t_start": "2020-03-19T09:20:00",
      "t_end": "2020-03-19T09:40:00",
      "link": ""
    },
    {
      "id": 57794,
      "lat": 31.9211925970001,
      "lon": 34.876954875,
      "label": "פיקוד העורף-מוקד קורונה - רמלה",
      "text": "",
      "stayTimes": "07:00 - 16:00",
      "t_start": "2020-03-19T05:00:00",
      "t_end": "2020-03-19T14:00:00",
      "link": ""
    },
    {
      "id": 57795,
      "lat": 31.9211343160001,
      "lon": 34.876920543,
      "label": "פיקוד העורף-מוקד קורונה - רמלה",
      "text": "",
      "stayTimes": "07:00 - 16:00",
      "t_start": "2020-03-20T05:00:00",
      "t_end": "2020-03-20T14:00:00",
      "link": ""
    },
    {
      "id": 57796,
      "lat": 31.921163456,
      "lon": 34.8769892070001,
      "label": "פיקוד העורף-מוקד קורונה - רמלה",
      "text": "",
      "stayTimes": "07:00 - 09:00",
      "t_start": "2020-03-22T05:00:00",
      "t_end": "2020-03-22T07:00:00",
      "link": ""
    },
    {
      "id": 57797,
      "lat": 31.9211343160001,
      "lon": 34.8769892070001,
      "label": "מרפאת פיקוד העורף - רמלה",
      "text": "",
      "stayTimes": "09:00 - 10:00",
      "t_start": "2020-03-22T07:00:00",
      "t_end": "2020-03-22T08:00:00",
      "link": ""
    },
    {
      "id": 57798,
      "lat": 32.2727963510001,
      "lon": 34.9129163470001,
      "label": "בית כנסת \"שבזי\" קדימה - קדימה-צורן",
      "text": "",
      "stayTimes": "07:30 - 09:30",
      "t_start": "2020-03-21T05:30:00",
      "t_end": "2020-03-21T07:30:00",
      "link": ""
    },
    {
      "id": 57799,
      "lat": 32.2727382950001,
      "lon": 34.9129506840001,
      "label": "בית כנסת \"שבזי\" קדימה - קדימה-צורן",
      "text": "",
      "stayTimes": "12:30 - 21:30",
      "t_start": "2020-03-21T10:30:00",
      "t_end": "2020-03-21T19:30:00",
      "link": ""
    },
    {
      "id": 57800,
      "lat": 32.2728253830001,
      "lon": 34.9129163630001,
      "label": "בית כנסת \"שבזי\" קדימה - קדימה-צורן",
      "text": "",
      "stayTimes": "18:25 - 19:00",
      "t_start": "2020-03-21T16:25:00",
      "t_end": "2020-03-21T17:00:00",
      "link": ""
    },
    {
      "id": 57801,
      "lat": 32.27151816,
      "lon": 34.9170467980001,
      "label": "בית כנסת \"המרוקאי\" קדימה - קדימה-צורן",
      "text": "",
      "stayTimes": "05:00 - 06:00",
      "t_start": "2020-03-22T03:00:00",
      "t_end": "2020-03-22T04:00:00",
      "link": ""
    },
    {
      "id": 57802,
      "lat": 32.271548142,
      "lon": 34.9171340660001,
      "label": "בית כנסת \"מרוקאי\" קדימה - קדימה-צורן",
      "text": "",
      "stayTimes": "05:00 - 06:00",
      "t_start": "2020-03-20T03:00:00",
      "t_end": "2020-03-20T04:00:00",
      "link": ""
    },
    {
      "id": 57803,
      "lat": 32.2714429170001,
      "lon": 34.9172024590001,
      "label": "בית כנסת \"מרוקאי\" קדימה - קדימה-צורן",
      "text": "",
      "stayTimes": "05:00 - 06:00",
      "t_start": "2020-03-19T03:00:00",
      "t_end": "2020-03-19T04:00:00",
      "link": ""
    },
    {
      "id": 57804,
      "lat": 32.2762888,
      "lon": 34.9204034000001,
      "label": "סופרמרקט \"רמי לוי\" קדימה - קדימה-צורן",
      "text": "",
      "stayTimes": "19:45 - 21:00",
      "t_start": "2020-03-21T17:45:00",
      "t_end": "2020-03-21T19:00:00",
      "link": ""
    },
    {
      "id": 57805,
      "lat": 32.066315,
      "lon": 34.8109544000001,
      "label": "סופר Mega - גבעתיים",
      "text": "",
      "stayTimes": "21:45 - 22:30",
      "t_start": "2020-03-22T19:45:00",
      "t_end": "2020-03-22T20:30:00",
      "link": ""
    },
    {
      "id": 57806,
      "lat": 31.9370367110001,
      "lon": 35.038946331,
      "label": "חנות כלבו \"עזרא ואחווה\" מרכז עסקים - מודיעין עילית",
      "text": "",
      "stayTimes": "18:00 - 19:00",
      "t_start": "2020-03-22T16:00:00",
      "t_end": "2020-03-22T17:00:00",
      "link": ""
    },
    {
      "id": 57807,
      "lat": 31.9326186370001,
      "lon": 35.0453525200001,
      "label": "חנות מוצרי סית \"סנטר ליין\" - מודיעין עילית",
      "text": "",
      "stayTimes": "16:30 - 16:50",
      "t_start": "2020-03-24T14:30:00",
      "t_end": "2020-03-24T14:50:00",
      "link": ""
    },
    {
      "id": 57808,
      "lat": 31.9454999000001,
      "lon": 34.8920591,
      "label": "רמי לוי - לוד",
      "text": "",
      "stayTimes": "12:00 - 13:00",
      "t_start": "2020-03-22T10:00:00",
      "t_end": "2020-03-22T11:00:00",
      "link": ""
    },
    {
      "id": 57809,
      "lat": 31.931367058,
      "lon": 34.889472229,
      "label": "חנות BOOOM - לוד",
      "text": "",
      "stayTimes": "15:20 - 16:00",
      "t_start": "2020-03-23T13:20:00",
      "t_end": "2020-03-23T14:00:00",
      "link": ""
    },
    {
      "id": 57810,
      "lat": 31.9540566250001,
      "lon": 34.890366369,
      "label": "אושר עד - לוד",
      "text": "",
      "stayTimes": "17:00 - 18:00",
      "t_start": "2020-03-23T15:00:00",
      "t_end": "2020-03-23T16:00:00",
      "link": ""
    },
    {
      "id": 57811,
      "lat": 31.946440017,
      "lon": 34.8978359610001,
      "label": "בית מרקחת מכבי - לוד",
      "text": "",
      "stayTimes": "14:00 - 15:00",
      "t_start": "2020-03-23T12:00:00",
      "t_end": "2020-03-23T13:00:00",
      "link": ""
    },
    {
      "id": 57812,
      "lat": 31.9325056000001,
      "lon": 35.0445323000001,
      "label": "בית מדרש ישיבת באר יצחק מנחת חינוך 1 - מודיעין עילית",
      "text": "",
      "stayTimes": "13:00 - 13:30",
      "t_start": "2020-03-19T11:00:00",
      "t_end": "2020-03-19T11:30:00",
      "link": ""
    },
    {
      "id": 57813,
      "lat": 31.9393470000001,
      "lon": 34.86089,
      "label": "בית כנסת רשבם - רמלה",
      "text": "",
      "stayTimes": "14:30 - 17:00",
      "t_start": "2020-03-21T12:30:00",
      "t_end": "2020-03-21T15:00:00",
      "link": ""
    },
    {
      "id": 57814,
      "lat": 32.0468261550001,
      "lon": 34.908611948,
      "label": "סופרמרקט יש - בארות יצחק",
      "text": "",
      "stayTimes": "13:45 - 14:30",
      "t_start": "2020-03-23T11:45:00",
      "t_end": "2020-03-23T12:30:00",
      "link": ""
    },
    {
      "id": 57815,
      "lat": 31.9325056000001,
      "lon": 35.0445323000001,
      "label": "בית מדרש ישיבת באר יצחק רחוב מנחת חינוך 1 - מודיעין עילית",
      "text": "",
      "stayTimes": "18:00 - 19:30",
      "t_start": "2020-03-19T16:00:00",
      "t_end": "2020-03-19T17:30:00",
      "link": ""
    },
    {
      "id": 57817,
      "lat": 31.9324770000001,
      "lon": 35.042265,
      "label": "מרכל - מודיעין עילית",
      "text": "",
      "stayTimes": "08:30 - 09:10",
      "t_start": "2020-03-22T06:30:00",
      "t_end": "2020-03-22T07:10:00",
      "link": ""
    },
    {
      "id": 57818,
      "lat": 31.926964394,
      "lon": 35.041944619,
      "label": "מרכול  רחוב נתיבות המשפט פינת מסילת יוסף - מודיעין עילית",
      "text": "",
      "stayTimes": "18:50 - 19:10",
      "t_start": "2020-03-26T16:50:00",
      "t_end": "2020-03-26T17:10:00",
      "link": ""
    },
    {
      "id": 57819,
      "lat": 31.9247418,
      "lon": 35.0410441000001,
      "label": "קריאת תורה בבית הכנסת שירה חדשה - מודיעין עילית",
      "text": "",
      "stayTimes": "10:30 - 11:00",
      "t_start": "2020-03-21T08:30:00",
      "t_end": "2020-03-21T09:00:00",
      "link": ""
    },
    {
      "id": 57820,
      "lat": 32.5735174930001,
      "lon": 34.9540195340001,
      "label": "משרד שרותי רב קו - זכרון יעקב",
      "text": "",
      "stayTimes": "11:00 - 17:30",
      "t_start": "2020-03-19T09:00:00",
      "t_end": "2020-03-19T15:30:00",
      "link": ""
    },
    {
      "id": 57821,
      "lat": 32.5735138760001,
      "lon": 34.954023825,
      "label": "משרד שרותי רב קו - זכרון יעקב",
      "text": "",
      "stayTimes": "11:00 - 17:30",
      "t_start": "2020-03-22T09:00:00",
      "t_end": "2020-03-22T15:30:00",
      "link": ""
    },
    {
      "id": 57822,
      "lat": 31.8601944000001,
      "lon": 34.8145379000001,
      "label": "יוחננוף - קרית עקרון",
      "text": "",
      "stayTimes": "16:30 - 17:00",
      "t_start": "2020-03-19T14:30:00",
      "t_end": "2020-03-19T15:00:00",
      "link": ""
    },
    {
      "id": 57823,
      "lat": 32.7891667000001,
      "lon": 35.535,
      "label": "שופרסל דיל - טבריה",
      "text": "",
      "stayTimes": "12:00 - 14:00",
      "t_start": "2020-03-19T10:00:00",
      "t_end": "2020-03-19T12:00:00",
      "link": ""
    },
    {
      "id": 57824,
      "lat": 32.7891667000001,
      "lon": 35.535,
      "label": "שופרסל דיל - טבריה",
      "text": "",
      "stayTimes": "21:00 - 21:10",
      "t_start": "2020-03-23T19:00:00",
      "t_end": "2020-03-23T19:10:00",
      "link": ""
    },
    {
      "id": 57825,
      "lat": 31.8142379270001,
      "lon": 34.776425123,
      "label": "מעון מוריה - גדרה",
      "text": "",
      "stayTimes": "06:00 - 21:00",
      "t_start": "2020-03-19T04:00:00",
      "t_end": "2020-03-19T19:00:00",
      "link": ""
    },
    {
      "id": 57826,
      "lat": 31.8142447650001,
      "lon": 34.7764170770001,
      "label": "מעון מוריה - גדרה",
      "text": "",
      "stayTimes": "06:00 - 14:00",
      "t_start": "2020-03-20T04:00:00",
      "t_end": "2020-03-20T12:00:00",
      "link": ""
    },
    {
      "id": 57827,
      "lat": 31.8142139,
      "lon": 34.7764126000001,
      "label": "מעון מוריה - גדרה",
      "text": "",
      "stayTimes": "06:00 - 20:00",
      "t_start": "2020-03-21T04:00:00",
      "t_end": "2020-03-21T18:00:00",
      "link": ""
    },
    {
      "id": 57828,
      "lat": 31.6629795000001,
      "lon": 34.5766783,
      "label": "קופ\"ח כללית נאות אשקלון - אשקלון",
      "text": "",
      "stayTimes": "07:30 - 13:30",
      "t_start": "2020-03-25T05:30:00",
      "t_end": "2020-03-25T11:30:00",
      "link": ""
    },
    {
      "id": 57829,
      "lat": 31.813560991,
      "lon": 34.6601808670001,
      "label": "רמי לוי - אשדוד",
      "text": "",
      "stayTimes": "10:30 - 12:00",
      "t_start": "2020-03-24T08:30:00",
      "t_end": "2020-03-24T10:00:00",
      "link": ""
    },
    {
      "id": 57830,
      "lat": 31.8079432420001,
      "lon": 34.6573172600001,
      "label": "מחסני בשר - אשדוד",
      "text": "",
      "stayTimes": "10:00 - 10:30",
      "t_start": "2020-03-24T08:00:00",
      "t_end": "2020-03-24T08:30:00",
      "link": ""
    },
    {
      "id": 57831,
      "lat": 32.015268334,
      "lon": 34.756772578,
      "label": "סופר דוש בקניון בת ים - בת ים",
      "text": "",
      "stayTimes": "16:00 - 17:30",
      "t_start": "2020-03-24T14:00:00",
      "t_end": "2020-03-24T15:30:00",
      "link": ""
    },
    {
      "id": 57832,
      "lat": 32.6782892800001,
      "lon": 35.2433936890001,
      "label": "שופר סל מתחם פרץ סנטר - מגדל העמק",
      "text": "",
      "stayTimes": "17:30 - 18:45",
      "t_start": "2020-03-22T15:30:00",
      "t_end": "2020-03-22T16:45:00",
      "link": ""
    },
    {
      "id": 57833,
      "lat": 31.2399585000001,
      "lon": 34.7938263,
      "label": "מחסני השוק ליד בית החייל - באר שבע",
      "text": "",
      "stayTimes": "19:00 - 21:00",
      "t_start": "2020-03-19T17:00:00",
      "t_end": "2020-03-19T19:00:00",
      "link": ""
    },
    {
      "id": 57834,
      "lat": 31.374236604,
      "lon": 35.006553292,
      "label": "סופר מחסני השוק- מיתרים - שמעה",
      "text": "",
      "stayTimes": "12:30 - 13:30",
      "t_start": "2020-03-25T10:30:00",
      "t_end": "2020-03-25T11:30:00",
      "link": ""
    },
    {
      "id": 57835,
      "lat": 31.2433310000001,
      "lon": 34.8125470000001,
      "label": "סופר פארם ביג - באר שבע",
      "text": "",
      "stayTimes": "09:30 - 10:00",
      "t_start": "2020-03-25T07:30:00",
      "t_end": "2020-03-25T08:00:00",
      "link": ""
    },
    {
      "id": 57836,
      "lat": 31.2413889000001,
      "lon": 34.8105556,
      "label": "ACE ביג - באר שבע",
      "text": "",
      "stayTimes": "10:00 - 10:30",
      "t_start": "2020-03-25T08:00:00",
      "t_end": "2020-03-25T08:30:00",
      "link": ""
    },
    {
      "id": 57837,
      "lat": 31.2428483750001,
      "lon": 34.8121199610001,
      "label": "חנות נעמן BIG - באר שבע",
      "text": "",
      "stayTimes": "10:00 - 10:30",
      "t_start": "2020-03-25T08:00:00",
      "t_end": "2020-03-25T08:30:00",
      "link": ""
    },
    {
      "id": 57838,
      "lat": 31.7789552,
      "lon": 34.6570806,
      "label": "מיון ביה\"ח אסותא - אשדוד",
      "text": "",
      "stayTimes": "17:00 - 17:30",
      "t_start": "2020-03-26T15:00:00",
      "t_end": "2020-03-26T15:30:00",
      "link": ""
    },
    {
      "id": 57839,
      "lat": 31.984200215,
      "lon": 34.8059405130001,
      "label": "בית כנסת ישורון - ראשון לציון",
      "text": "",
      "stayTimes": "18:00 - 18:30",
      "t_start": "2020-03-21T16:00:00",
      "t_end": "2020-03-21T16:30:00",
      "link": ""
    },
    {
      "id": 57840,
      "lat": 31.9909974,
      "lon": 34.7607583000001,
      "label": "מאפיית קראמבל - ראשון לציון",
      "text": "",
      "stayTimes": "23:00 - 23:30",
      "t_start": "2020-03-26T21:00:00",
      "t_end": "2020-03-26T21:30:00",
      "link": ""
    },
    {
      "id": 57841,
      "lat": 32.6038847,
      "lon": 35.2930428000001,
      "label": "רמי לוי - עפולה",
      "text": "",
      "stayTimes": "20:30 - 21:30",
      "t_start": "2020-03-21T18:30:00",
      "t_end": "2020-03-21T19:30:00",
      "link": ""
    },
    {
      "id": 57842,
      "lat": 32.6109777990001,
      "lon": 35.2879909660001,
      "label": "חנות שבו - כלי כתיבה - עפולה",
      "text": "",
      "stayTimes": "18:30 - 18:45",
      "t_start": "2020-03-22T16:30:00",
      "t_end": "2020-03-22T16:45:00",
      "link": ""
    },
    {
      "id": 57843,
      "lat": 32.6122728,
      "lon": 35.2882818000001,
      "label": "מאפייה קציר - עפולה",
      "text": "",
      "stayTimes": "08:00 - 09:00",
      "t_start": "2020-03-24T06:00:00",
      "t_end": "2020-03-24T07:00:00",
      "link": ""
    },
    {
      "id": 57844,
      "lat": 32.0763242,
      "lon": 34.8398895,
      "label": "בית כנסת משכנות יעקב באולם  הישיבה דעת תבונות למעלה - בני ברק",
      "text": "",
      "stayTimes": "10:00 - 12:00",
      "t_start": "2020-03-21T08:00:00",
      "t_end": "2020-03-21T10:00:00",
      "link": ""
    },
    {
      "id": 57845,
      "lat": 32.0862964340001,
      "lon": 34.8348863210001,
      "label": "נתיב החסד - בני ברק",
      "text": "",
      "stayTimes": "11:00 - 12:30",
      "t_start": "2020-03-24T09:00:00",
      "t_end": "2020-03-24T10:30:00",
      "link": ""
    },
    {
      "id": 57846,
      "lat": 32.090743767,
      "lon": 34.832575702,
      "label": "מכירה שכונתית בגינת אבן שפרוט - בני ברק",
      "text": "",
      "stayTimes": "12:00 - 08:00",
      "t_start": "2020-03-25T10:00:00",
      "t_end": "2020-03-22T06:00:00",
      "link": ""
    },
    {
      "id": 57847,
      "lat": 32.0794501020001,
      "lon": 34.815074942,
      "label": "סופר פארם - רמת גן",
      "text": "",
      "stayTimes": "10:30 - 11:00",
      "t_start": "2020-03-25T08:30:00",
      "t_end": "2020-03-25T09:00:00",
      "link": ""
    },
    {
      "id": 57848,
      "lat": 31.66687574,
      "lon": 34.5847790080001,
      "label": "סעדה הדגים ליד ג'וליה - אזור תעשיה - אשקלון",
      "text": "",
      "stayTimes": "09:30 - 10:00",
      "t_start": "2020-03-20T07:30:00",
      "t_end": "2020-03-20T08:00:00",
      "link": ""
    },
    {
      "id": 57849,
      "lat": 32.076331177,
      "lon": 34.839895675,
      "label": "בית כנסת משכנות יעקב באולם - בני ברק",
      "text": "",
      "stayTimes": "09:45 - 11:00",
      "t_start": "2020-03-22T07:45:00",
      "t_end": "2020-03-22T09:00:00",
      "link": ""
    },
    {
      "id": 57850,
      "lat": 32.076332155,
      "lon": 34.8398897370001,
      "label": "בית כנסת משכנות יעקב - בני ברק",
      "text": "",
      "stayTimes": "01:00 - 01:30",
      "t_start": "2020-03-23T23:00:00",
      "t_end": "2020-03-23T23:30:00",
      "link": ""
    },
    {
      "id": 57851,
      "lat": 32.0786915,
      "lon": 34.8367749000001,
      "label": "בית כנסת לדרמן - בני ברק",
      "text": "",
      "stayTimes": "18:15 - 19:00",
      "t_start": "2020-03-21T16:15:00",
      "t_end": "2020-03-21T17:00:00",
      "link": ""
    },
    {
      "id": 57852,
      "lat": 32.0786915,
      "lon": 34.8367749000001,
      "label": "בית כנסת לדרמן - בני ברק",
      "text": "",
      "stayTimes": "21:00 - 22:00",
      "t_start": "2020-03-21T19:00:00",
      "t_end": "2020-03-21T20:00:00",
      "link": ""
    },
    {
      "id": 57853,
      "lat": 32.0786915,
      "lon": 34.8367749000001,
      "label": "בית כנסת לדרמן למטה - בני ברק",
      "text": "",
      "stayTimes": "17:40 - 18:15",
      "t_start": "2020-03-22T15:40:00",
      "t_end": "2020-03-22T16:15:00",
      "link": ""
    },
    {
      "id": 57854,
      "lat": 32.0788157000001,
      "lon": 34.8400310000001,
      "label": "עזרא ואחווה - בני ברק",
      "text": "",
      "stayTimes": "16:30 - 17:30",
      "t_start": "2020-03-24T14:30:00",
      "t_end": "2020-03-24T15:30:00",
      "link": ""
    },
    {
      "id": 57855,
      "lat": 33.0327904000001,
      "lon": 35.1034588000001,
      "label": "סופרמרקט רמי לוי - נהריה",
      "text": "",
      "stayTimes": "23:00 - 22:00",
      "t_start": "2020-03-23T21:00:00",
      "t_end": "2020-03-23T20:00:00",
      "link": ""
    },
    {
      "id": 57856,
      "lat": 33.0735393000001,
      "lon": 35.138159,
      "label": "מרפאה כללית בצת - בצת",
      "text": "",
      "stayTimes": "10:00 - 18:00",
      "t_start": "2020-03-23T08:00:00",
      "t_end": "2020-03-23T16:00:00",
      "link": ""
    },
    {
      "id": 57857,
      "lat": 33.0728,
      "lon": 35.1430135000001,
      "label": "מרפאה כללית - שלומי",
      "text": "",
      "stayTimes": "12:00 - 12:30",
      "t_start": "2020-03-24T10:00:00",
      "t_end": "2020-03-24T10:30:00",
      "link": ""
    },
    {
      "id": 57858,
      "lat": 33.0741361190001,
      "lon": 35.142915181,
      "label": "קייטנת ילדים במתנס - שלומי",
      "text": "",
      "stayTimes": "10:00 - 10:30",
      "t_start": "2020-03-25T08:00:00",
      "t_end": "2020-03-25T08:30:00",
      "link": ""
    },
    {
      "id": 57859,
      "lat": 31.976393785,
      "lon": 34.8880033460001,
      "label": "מכולת המושב - זיתן",
      "text": "",
      "stayTimes": "08:00 - 08:30",
      "t_start": "2020-03-23T06:00:00",
      "t_end": "2020-03-23T06:30:00",
      "link": ""
    },
    {
      "id": 57860,
      "lat": 32.6766178440001,
      "lon": 35.239636568,
      "label": "בית מרקחת כללית ברחוב האלה - מגדל העמק",
      "text": "",
      "stayTimes": "12:20 - 12:30",
      "t_start": "2020-03-19T10:20:00",
      "t_end": "2020-03-19T10:30:00",
      "link": ""
    },
    {
      "id": 57861,
      "lat": 31.657619734,
      "lon": 34.5873018840001,
      "label": "מגדל - אשקלון",
      "text": "",
      "stayTimes": "08:00 - 14:00",
      "t_start": "2020-03-19T06:00:00",
      "t_end": "2020-03-19T12:00:00",
      "link": ""
    },
    {
      "id": 57862,
      "lat": 32.7885191,
      "lon": 35.528919,
      "label": "קבר רבי עקיבא - טבריה",
      "text": "",
      "stayTimes": "17:00 - 18:30",
      "t_start": "2020-03-23T15:00:00",
      "t_end": "2020-03-23T16:30:00",
      "link": ""
    },
    {
      "id": 57863,
      "lat": 32.0873548000001,
      "lon": 34.8289585000001,
      "label": "בית הכנסת הגדול - בני ברק",
      "text": "",
      "stayTimes": "09:00 - 10:00",
      "t_start": "2020-03-20T07:00:00",
      "t_end": "2020-03-20T08:00:00",
      "link": ""
    },
    {
      "id": 57864,
      "lat": 32.0873548000001,
      "lon": 34.8289585000001,
      "label": "בית הכנסת הגדול - בני ברק",
      "text": "",
      "stayTimes": "09:00 - 10:00",
      "t_start": "2020-03-22T07:00:00",
      "t_end": "2020-03-22T08:00:00",
      "link": ""
    },
    {
      "id": 57865,
      "lat": 32.0873548000001,
      "lon": 34.8289585000001,
      "label": "בית הכנסת הגדול - בני ברק",
      "text": "",
      "stayTimes": "13:00 - 14:00",
      "t_start": "2020-03-22T11:00:00",
      "t_end": "2020-03-22T12:00:00",
      "link": ""
    },
    {
      "id": 57866,
      "lat": 32.0873548000001,
      "lon": 34.8289585000001,
      "label": "בית הכנסת הגדול - בני ברק",
      "text": "",
      "stayTimes": "09:00 - 10:00",
      "t_start": "2020-03-19T07:00:00",
      "t_end": "2020-03-19T08:00:00",
      "link": ""
    },
    {
      "id": 57867,
      "lat": 32.0873548000001,
      "lon": 34.8289585000001,
      "label": "בית הכנסת הגדול - בני ברק",
      "text": "",
      "stayTimes": "13:00 - 14:00",
      "t_start": "2020-03-19T11:00:00",
      "t_end": "2020-03-19T12:00:00",
      "link": ""
    },
    {
      "id": 57868,
      "lat": 32.084542641,
      "lon": 34.836254497,
      "label": "בית הכנסת אלכסנדר - בני ברק",
      "text": "",
      "stayTimes": "21:00 - 22:00",
      "t_start": "2020-03-19T19:00:00",
      "t_end": "2020-03-19T20:00:00",
      "link": ""
    },
    {
      "id": 57869,
      "lat": 32.0876928000001,
      "lon": 34.8299212000001,
      "label": "בית הכנסת ברסלב - בני ברק",
      "text": "",
      "stayTimes": "07:00 - 10:00",
      "t_start": "2020-03-21T05:00:00",
      "t_end": "2020-03-21T08:00:00",
      "link": ""
    },
    {
      "id": 57870,
      "lat": 32.0862991000001,
      "lon": 34.8348894000001,
      "label": "נתיב חסד  (מכולת) - בני ברק",
      "text": "",
      "stayTimes": "18:00 - 18:30",
      "t_start": "2020-03-19T16:00:00",
      "t_end": "2020-03-19T16:30:00",
      "link": ""
    },
    {
      "id": 57871,
      "lat": 32.07547558,
      "lon": 34.829339743,
      "label": "לובי בבניין בו גר החולה - רמת גן",
      "text": "",
      "stayTimes": "17:30 - 18:30",
      "t_start": "2020-03-20T15:30:00",
      "t_end": "2020-03-20T16:30:00",
      "link": ""
    },
    {
      "id": 57872,
      "lat": 32.0812328430001,
      "lon": 34.834273807,
      "label": "בית כנסת ברסלב - בני ברק",
      "text": "",
      "stayTimes": "07:00 - 10:00",
      "t_start": "2020-03-21T05:00:00",
      "t_end": "2020-03-21T08:00:00",
      "link": ""
    },
    {
      "id": 57873,
      "lat": 32.086001298,
      "lon": 34.8315190370001,
      "label": "מעיין 2000 - בני ברק",
      "text": "",
      "stayTimes": "14:00 - 14:30",
      "t_start": "2020-03-21T12:00:00",
      "t_end": "2020-03-21T12:30:00",
      "link": ""
    },
    {
      "id": 57874,
      "lat": 32.0877748940001,
      "lon": 34.8274596640001,
      "label": "בית הכנסת מתיבתא - בני ברק",
      "text": "",
      "stayTimes": "08:30 - 09:30",
      "t_start": "2020-03-22T06:30:00",
      "t_end": "2020-03-22T07:30:00",
      "link": ""
    },
    {
      "id": 57875,
      "lat": 32.0257730000001,
      "lon": 34.90142,
      "label": "שופרסל - יהוד",
      "text": "",
      "stayTimes": "16:15 - 17:15",
      "t_start": "2020-03-27T14:15:00",
      "t_end": "2020-03-27T15:15:00",
      "link": ""
    },
    {
      "id": 57876,
      "lat": 31.7955842970001,
      "lon": 35.2159024330001,
      "label": "בית כנסת \"סערטויניץ\" - ירושלים",
      "text": "",
      "stayTimes": "17:20 - 18:15",
      "t_start": "2020-03-20T15:20:00",
      "t_end": "2020-03-20T16:15:00",
      "link": ""
    },
    {
      "id": 57877,
      "lat": 31.7923327500001,
      "lon": 35.2163743310001,
      "label": "מקווה ויזניץ - ירושלים",
      "text": "",
      "stayTimes": "07:15 - 07:30",
      "t_start": "2020-03-20T05:15:00",
      "t_end": "2020-03-20T05:30:00",
      "link": ""
    },
    {
      "id": 57878,
      "lat": 31.7955853,
      "lon": 35.2159022000001,
      "label": "בית כנסת ויזניץ - ירושלים",
      "text": "",
      "stayTimes": "07:30 - 09:30",
      "t_start": "2020-03-20T05:30:00",
      "t_end": "2020-03-20T07:30:00",
      "link": ""
    },
    {
      "id": 57879,
      "lat": 31.668082526,
      "lon": 34.582787631,
      "label": "סופרסל -אשקלון - ליד השוק - אשקלון",
      "text": "",
      "stayTimes": "17:00 - 17:30",
      "t_start": "2020-03-19T15:00:00",
      "t_end": "2020-03-19T15:30:00",
      "link": ""
    },
    {
      "id": 57880,
      "lat": 31.777853142,
      "lon": 34.6363561410001,
      "label": "קיוסק בכיכר מגי'ק - אשדוד",
      "text": "",
      "stayTimes": "20:00 - 20:30",
      "t_start": "2020-03-24T18:00:00",
      "t_end": "2020-03-24T18:30:00",
      "link": ""
    },
    {
      "id": 57881,
      "lat": 31.7775212170001,
      "lon": 34.636722267,
      "label": "רמי לוי בשכונה - אשדוד",
      "text": "",
      "stayTimes": "20:15 - 20:40",
      "t_start": "2020-03-24T18:15:00",
      "t_end": "2020-03-24T18:40:00",
      "link": ""
    },
    {
      "id": 57882,
      "lat": 31.7234749420001,
      "lon": 35.2221406150001,
      "label": "בית כנסת ישמח משה - ירושלים",
      "text": "",
      "stayTimes": "17:40 - 18:40",
      "t_start": "2020-03-20T15:40:00",
      "t_end": "2020-03-20T16:40:00",
      "link": ""
    },
    {
      "id": 57883,
      "lat": 31.666529,
      "lon": 34.5816350000001,
      "label": "בית כנסת \"משכן אביחי\" - אשקלון",
      "text": "",
      "stayTimes": "05:30 - 06:30",
      "t_start": "2020-03-19T03:30:00",
      "t_end": "2020-03-19T04:30:00",
      "link": ""
    },
    {
      "id": 57884,
      "lat": 31.666529,
      "lon": 34.5816350000001,
      "label": "בית כנסת \"משכן אביחי\" - אשקלון",
      "text": "",
      "stayTimes": "17:30 - 18:30",
      "t_start": "2020-03-19T15:30:00",
      "t_end": "2020-03-19T16:30:00",
      "link": ""
    },
    {
      "id": 57885,
      "lat": 31.7884542,
      "lon": 35.206351,
      "label": "סופר מעיין 200 - ירושלים",
      "text": "",
      "stayTimes": "08:00 - 14:00",
      "t_start": "2020-03-19T06:00:00",
      "t_end": "2020-03-19T12:00:00",
      "link": ""
    },
    {
      "id": 57886,
      "lat": 32.086106074,
      "lon": 34.8300113760001,
      "label": "בית הכנסת מתיבתא - בני ברק",
      "text": "",
      "stayTimes": "09:00 - 10:30",
      "t_start": "2020-03-22T07:00:00",
      "t_end": "2020-03-22T08:30:00",
      "link": ""
    },
    {
      "id": 57887,
      "lat": 32.0833752,
      "lon": 34.8296135000001,
      "label": "בית הכנסת תפארת ציון - בני ברק",
      "text": "",
      "stayTimes": "13:00 - 14:00",
      "t_start": "2020-03-22T11:00:00",
      "t_end": "2020-03-22T12:00:00",
      "link": ""
    },
    {
      "id": 57888,
      "lat": 32.0873548000001,
      "lon": 34.8289585000001,
      "label": "בית הכנסת הגדול - בני ברק",
      "text": "",
      "stayTimes": "13:00 - 14:00",
      "t_start": "2020-03-23T11:00:00",
      "t_end": "2020-03-23T12:00:00",
      "link": ""
    },
    {
      "id": 57889,
      "lat": 32.0873548000001,
      "lon": 34.8289585000001,
      "label": "בית הכנסת הגדול - בני ברק",
      "text": "",
      "stayTimes": "09:00 - 11:00",
      "t_start": "2020-03-23T07:00:00",
      "t_end": "2020-03-23T09:00:00",
      "link": ""
    },
    {
      "id": 57890,
      "lat": 32.0873548000001,
      "lon": 34.8289585000001,
      "label": "בית הכנסת הגדול - בני ברק",
      "text": "",
      "stayTimes": "21:00 - 22:00",
      "t_start": "2020-03-23T19:00:00",
      "t_end": "2020-03-23T20:00:00",
      "link": ""
    },
    {
      "id": 57891,
      "lat": 32.0818576,
      "lon": 34.8337900000001,
      "label": "בית הכנסת חיסדא - בני ברק",
      "text": "",
      "stayTimes": "12:30 - 13:00",
      "t_start": "2020-03-21T10:30:00",
      "t_end": "2020-03-21T11:00:00",
      "link": ""
    },
    {
      "id": 57892,
      "lat": 32.0818576,
      "lon": 34.8337900000001,
      "label": "בית הכנסת חיסדא - בני ברק",
      "text": "",
      "stayTimes": "20:00 - 21:00",
      "t_start": "2020-03-21T18:00:00",
      "t_end": "2020-03-21T19:00:00",
      "link": ""
    },
    {
      "id": 57893,
      "lat": 32.083106485,
      "lon": 34.8395137370001,
      "label": "בית כנסת בבית הספר באר מרים - בני ברק",
      "text": "",
      "stayTimes": "08:30 - 11:30",
      "t_start": "2020-03-21T06:30:00",
      "t_end": "2020-03-21T09:30:00",
      "link": ""
    },
    {
      "id": 57894,
      "lat": 32.0873548000001,
      "lon": 34.8289585000001,
      "label": "בית הכנסת הגדול - בני ברק",
      "text": "",
      "stayTimes": "09:00 - 10:00",
      "t_start": "2020-03-20T07:00:00",
      "t_end": "2020-03-20T08:00:00",
      "link": ""
    },
    {
      "id": 57895,
      "lat": 31.7923395890001,
      "lon": 35.2162661450001,
      "label": "מקווה \"ויגניץ\" - ירושלים",
      "text": "",
      "stayTimes": "08:20 - 08:30",
      "t_start": "2020-03-22T06:20:00",
      "t_end": "2020-03-22T06:30:00",
      "link": ""
    },
    {
      "id": 57896,
      "lat": 31.7923742890001,
      "lon": 35.2162616160001,
      "label": "בית כנסת \"ויזניץ\" - ירושלים",
      "text": "",
      "stayTimes": "07:30 - 09:30",
      "t_start": "2020-03-22T05:30:00",
      "t_end": "2020-03-22T07:30:00",
      "link": ""
    },
    {
      "id": 57897,
      "lat": 32.0876430000001,
      "lon": 34.8296700000001,
      "label": "חוג חתם סופר - בני ברק",
      "text": "",
      "stayTimes": "08:00 - 10:00",
      "t_start": "2020-03-22T06:00:00",
      "t_end": "2020-03-22T08:00:00",
      "link": ""
    },
    {
      "id": 57898,
      "lat": 32.065522021,
      "lon": 34.7923603360001,
      "label": "משרד עו\"ד - תל אביב - יפו",
      "text": "",
      "stayTimes": "10:00 - 19:00",
      "t_start": "2020-03-19T08:00:00",
      "t_end": "2020-03-19T17:00:00",
      "link": ""
    },
    {
      "id": 57899,
      "lat": 32.066183181,
      "lon": 34.7924624070001,
      "label": "משרד עו\"ד שוב דוד - תל אביב - יפו",
      "text": "",
      "stayTimes": "11:00 - 19:00",
      "t_start": "2020-03-22T09:00:00",
      "t_end": "2020-03-22T17:00:00",
      "link": ""
    },
    {
      "id": 57900,
      "lat": 32.069924573,
      "lon": 34.7810425820001,
      "label": "בית הכנסת חשמונאים - תל אביב - יפו",
      "text": "",
      "stayTimes": "09:00 - 21:00",
      "t_start": "2020-03-19T07:00:00",
      "t_end": "2020-03-19T19:00:00",
      "link": ""
    },
    {
      "id": 57901,
      "lat": 32.0863578070001,
      "lon": 34.832844982,
      "label": "שיא החמשל - בני ברק",
      "text": "",
      "stayTimes": "17:00 - 19:00",
      "t_start": "2020-03-19T15:00:00",
      "t_end": "2020-03-19T17:00:00",
      "link": ""
    },
    {
      "id": 57902,
      "lat": 31.666529,
      "lon": 34.5816350000001,
      "label": "בית כנסת \"משכן אביחי\" - אשקלון",
      "text": "",
      "stayTimes": "05:30 - 06:30",
      "t_start": "2020-03-20T03:30:00",
      "t_end": "2020-03-20T04:30:00",
      "link": ""
    },
    {
      "id": 57903,
      "lat": 32.086117895,
      "lon": 34.8299881340001,
      "label": "מתיבתא - בני ברק",
      "text": "",
      "stayTimes": "09:00 - 10:00",
      "t_start": "2020-03-23T07:00:00",
      "t_end": "2020-03-23T08:00:00",
      "link": ""
    },
    {
      "id": 57904,
      "lat": 31.9645469370001,
      "lon": 34.7928522510001,
      "label": "בנק מרכנטיל - ראשון לציון",
      "text": "",
      "stayTimes": "14:00 - 15:00",
      "t_start": "2020-03-24T12:00:00",
      "t_end": "2020-03-24T13:00:00",
      "link": ""
    },
    {
      "id": 57905,
      "lat": 32.031392522,
      "lon": 34.8554434000001,
      "label": "סופר סיטי נווה סביון - אור יהודה",
      "text": "",
      "stayTimes": "21:00 - 21:30",
      "t_start": "2020-03-24T19:00:00",
      "t_end": "2020-03-24T19:30:00",
      "link": ""
    },
    {
      "id": 57906,
      "lat": 32.031362458,
      "lon": 34.855545363,
      "label": "מאפיית מן הארץ - אור יהודה",
      "text": "",
      "stayTimes": "13:00 - 13:30",
      "t_start": "2020-03-25T11:00:00",
      "t_end": "2020-03-25T11:30:00",
      "link": ""
    },
    {
      "id": 57907,
      "lat": 32.031388733,
      "lon": 34.85544191,
      "label": "סופר סיטי נווה סביון - אור יהודה",
      "text": "",
      "stayTimes": "19:00 - 19:30",
      "t_start": "2020-03-27T17:00:00",
      "t_end": "2020-03-27T17:30:00",
      "link": ""
    },
    {
      "id": 57908,
      "lat": 32.8303148000001,
      "lon": 34.9774800000001,
      "label": "תחנת דלק אלדור חיפה - חיפה",
      "text": "",
      "stayTimes": "08:00 - 08:00",
      "t_start": "2020-03-23T06:00:00",
      "t_end": "2020-03-23T06:00:00",
      "link": ""
    },
    {
      "id": 57909,
      "lat": 32.7879442,
      "lon": 35.041954882,
      "label": "תחנת דלק חרמש חיפה - חיפה",
      "text": "",
      "stayTimes": "08:00 - 08:00",
      "t_start": "2020-03-23T06:00:00",
      "t_end": "2020-03-23T06:00:00",
      "link": ""
    },
    {
      "id": 57910,
      "lat": 32.8085851390001,
      "lon": 35.0243334580001,
      "label": "תחנת דלק הקישון - חיפה",
      "text": "",
      "stayTimes": "08:00 - 08:00",
      "t_start": "2020-03-23T06:00:00",
      "t_end": "2020-03-23T06:00:00",
      "link": ""
    },
    {
      "id": 57911,
      "lat": 32.8126773440001,
      "lon": 35.071222817,
      "label": "תחנת דלק המפרץ - חיפה",
      "text": "",
      "stayTimes": "08:00 - 08:00",
      "t_start": "2020-03-22T06:00:00",
      "t_end": "2020-03-22T06:00:00",
      "link": ""
    },
    {
      "id": 57912,
      "lat": 31.682503341,
      "lon": 34.5716398060001,
      "label": "מרפאה כללית ברנע - אשקלון",
      "text": "",
      "stayTimes": "08:00 - 08:00",
      "t_start": "2020-03-22T06:00:00",
      "t_end": "2020-03-22T06:00:00",
      "link": ""
    },
    {
      "id": 57913,
      "lat": 31.691771379,
      "lon": 34.5819073280001,
      "label": "בית מגורים - אשקלון",
      "text": "",
      "stayTimes": "08:00 - 08:00",
      "t_start": "2020-03-23T06:00:00",
      "t_end": "2020-03-23T06:00:00",
      "link": ""
    },
    {
      "id": 57914,
      "lat": 32.0694707330001,
      "lon": 34.7795962880001,
      "label": "בית הכנסת חיי שלום - תל אביב - יפו",
      "text": "",
      "stayTimes": "12:00 - 13:00",
      "t_start": "2020-03-21T10:00:00",
      "t_end": "2020-03-21T11:00:00",
      "link": ""
    },
    {
      "id": 57915,
      "lat": 31.6629795000001,
      "lon": 34.5766783,
      "label": "קופ\"ח כללית - אשקלון",
      "text": "",
      "stayTimes": "16:00 - 19:00",
      "t_start": "2020-03-19T14:00:00",
      "t_end": "2020-03-19T17:00:00",
      "link": ""
    },
    {
      "id": 57916,
      "lat": 31.6641894000001,
      "lon": 34.5632752000001,
      "label": "סניף ויקטורי ליד בית משפט - אשקלון",
      "text": "",
      "stayTimes": "16:30 - 17:00",
      "t_start": "2020-03-23T14:30:00",
      "t_end": "2020-03-23T15:00:00",
      "link": ""
    },
    {
      "id": 57917,
      "lat": 31.6622785000001,
      "lon": 34.5592871000001,
      "label": "מחלקת משאבי אנוש בית חולים ברזילי - אשקלון",
      "text": "",
      "stayTimes": "15:00 - 17:00",
      "t_start": "2020-03-25T13:00:00",
      "t_end": "2020-03-25T15:00:00",
      "link": ""
    },
    {
      "id": 57918,
      "lat": 31.6622785000001,
      "lon": 34.5592871000001,
      "label": "מכון MRI  בית חולים ברזילי - אשקלון",
      "text": "",
      "stayTimes": "15:00 - 17:00",
      "t_start": "2020-03-25T13:00:00",
      "t_end": "2020-03-25T15:00:00",
      "link": ""
    },
    {
      "id": 57919,
      "lat": 32.0911698900001,
      "lon": 34.834619821,
      "label": "לוקווע - בני ברק",
      "text": "",
      "stayTimes": "20:40 - 21:00",
      "t_start": "2020-03-22T18:40:00",
      "t_end": "2020-03-22T19:00:00",
      "link": ""
    },
    {
      "id": 57920,
      "lat": 32.0911628000001,
      "lon": 34.834622,
      "label": "בית כנסת לוקווע - בני ברק",
      "text": "",
      "stayTimes": "08:10 - 09:10",
      "t_start": "2020-03-22T06:10:00",
      "t_end": "2020-03-22T07:10:00",
      "link": ""
    },
    {
      "id": 57921,
      "lat": 32.0856778,
      "lon": 34.8242087,
      "label": "בית כנסת אוהל אברהם צייטלין - בני ברק",
      "text": "",
      "stayTimes": "19:00 - 19:30",
      "t_start": "2020-03-22T17:00:00",
      "t_end": "2020-03-22T17:30:00",
      "link": ""
    },
    {
      "id": 57922,
      "lat": 32.0827834,
      "lon": 34.8426542,
      "label": "צרכניה אחיעזר - בני ברק",
      "text": "",
      "stayTimes": "20:40 - 22:00",
      "t_start": "2020-03-25T18:40:00",
      "t_end": "2020-03-25T20:00:00",
      "link": ""
    },
    {
      "id": 57923,
      "lat": 32.0821021,
      "lon": 34.8325449000001,
      "label": "בית כנסת  אהבת חסד - בני ברק",
      "text": "",
      "stayTimes": "14:00 - 14:30",
      "t_start": "2020-03-20T12:00:00",
      "t_end": "2020-03-20T12:30:00",
      "link": ""
    },
    {
      "id": 57924,
      "lat": 31.6561888000001,
      "lon": 34.5878943000001,
      "label": "סיטונאות רחמים - אשקלון",
      "text": "",
      "stayTimes": "08:00 - 10:00",
      "t_start": "2020-03-20T06:00:00",
      "t_end": "2020-03-20T08:00:00",
      "link": ""
    },
    {
      "id": 57925,
      "lat": 31.6640608000001,
      "lon": 34.6002740000001,
      "label": "מעדני גוליה - אשקלון",
      "text": "",
      "stayTimes": "10:00 - 11:00",
      "t_start": "2020-03-20T08:00:00",
      "t_end": "2020-03-20T09:00:00",
      "link": ""
    },
    {
      "id": 57926,
      "lat": 31.66159608,
      "lon": 34.5990634880001,
      "label": "מפעל גדילות \"ארין\" - אשקלון",
      "text": "",
      "stayTimes": "11:00 - 11:30",
      "t_start": "2020-03-20T09:00:00",
      "t_end": "2020-03-20T09:30:00",
      "link": ""
    },
    {
      "id": 57927,
      "lat": 31.6693889100001,
      "lon": 34.581119378,
      "label": "מחסני אלקטריק - אשקלון",
      "text": "",
      "stayTimes": "13:30 - 14:00",
      "t_start": "2020-03-20T11:30:00",
      "t_end": "2020-03-20T12:00:00",
      "link": ""
    },
    {
      "id": 57928,
      "lat": 32.3126221680001,
      "lon": 34.961797661,
      "label": "סופר חינם פלוס - תנובות",
      "text": "",
      "stayTimes": "15:15 - 16:15",
      "t_start": "2020-03-19T13:15:00",
      "t_end": "2020-03-19T14:15:00",
      "link": ""
    },
    {
      "id": 57929,
      "lat": 32.310169,
      "lon": 35.0007424,
      "label": "פמילי מארקט - תנובות",
      "text": "",
      "stayTimes": "16:45 - 17:00",
      "t_start": "2020-03-19T14:45:00",
      "t_end": "2020-03-19T15:00:00",
      "link": ""
    },
    {
      "id": 57930,
      "lat": 32.311183,
      "lon": 34.9632374,
      "label": "מרקדו - תנובות",
      "text": "",
      "stayTimes": "14:45 - 15:15",
      "t_start": "2020-03-19T12:45:00",
      "t_end": "2020-03-19T13:15:00",
      "link": ""
    },
    {
      "id": 57931,
      "lat": 32.0859852,
      "lon": 34.8355715000001,
      "label": "בית כנסת איצקוביץ - בני ברק",
      "text": "",
      "stayTimes": "15:00 - 15:15",
      "t_start": "2020-03-22T13:00:00",
      "t_end": "2020-03-22T13:15:00",
      "link": ""
    },
    {
      "id": 57932,
      "lat": 32.0873548000001,
      "lon": 34.8289585000001,
      "label": "בית הכנסת הגדול - בני ברק",
      "text": "",
      "stayTimes": "08:00 - 09:00",
      "t_start": "2020-03-22T06:00:00",
      "t_end": "2020-03-22T07:00:00",
      "link": ""
    },
    {
      "id": 57933,
      "lat": 32.0777296000001,
      "lon": 34.9062192000001,
      "label": "\"היפר מור\"- סופר מרקט - פתח תקווה",
      "text": "",
      "stayTimes": "16:00 - 17:00",
      "t_start": "2020-03-22T14:00:00",
      "t_end": "2020-03-22T15:00:00",
      "link": ""
    },
    {
      "id": 57934,
      "lat": 32.0819701,
      "lon": 34.8409268,
      "label": "א.א אורטופדיה - בני ברק",
      "text": "",
      "stayTimes": "14:00 - 15:00",
      "t_start": "2020-03-23T12:00:00",
      "t_end": "2020-03-23T13:00:00",
      "link": ""
    },
    {
      "id": 57935,
      "lat": 31.245803772,
      "lon": 34.7769873840001,
      "label": "קופת חולים כללית ט - באר שבע",
      "text": "",
      "stayTimes": "10:30 - 11:00",
      "t_start": "2020-03-27T08:30:00",
      "t_end": "2020-03-27T09:00:00",
      "link": ""
    },
    {
      "id": 57936,
      "lat": 31.254819759,
      "lon": 34.814353639,
      "label": "סופר ויקטורי - באר שבע",
      "text": "",
      "stayTimes": "14:30 - 15:30",
      "t_start": "2020-03-19T12:30:00",
      "t_end": "2020-03-19T13:30:00",
      "link": ""
    },
    {
      "id": 57937,
      "lat": 31.2133285,
      "lon": 34.8110283820001,
      "label": "סופר \"אושר עד\" - באר שבע",
      "text": "",
      "stayTimes": "17:00 - 18:30",
      "t_start": "2020-03-23T15:00:00",
      "t_end": "2020-03-23T16:30:00",
      "link": ""
    },
    {
      "id": 57938,
      "lat": 32.0244638,
      "lon": 34.8705627000001,
      "label": "סופר פארם נוה רבין - אור יהודה",
      "text": "",
      "stayTimes": "21:00 - 22:00",
      "t_start": "2020-03-21T19:00:00",
      "t_end": "2020-03-21T20:00:00",
      "link": ""
    },
    {
      "id": 57939,
      "lat": 32.0258672000001,
      "lon": 34.8593382,
      "label": "סופרמרקט \"יש\" - אור יהודה",
      "text": "",
      "stayTimes": "17:00 - 17:30",
      "t_start": "2020-03-22T15:00:00",
      "t_end": "2020-03-22T15:30:00",
      "link": ""
    },
    {
      "id": 57940,
      "lat": 32.0784483,
      "lon": 34.8394218,
      "label": "בית אבות והדרת פני זקן - בני ברק",
      "text": "",
      "stayTimes": "11:00 - 15:00",
      "t_start": "2020-03-27T09:00:00",
      "t_end": "2020-03-27T13:00:00",
      "link": ""
    },
    {
      "id": 57941,
      "lat": 32.0784483,
      "lon": 34.8394218,
      "label": "בית אבות והדרת פני זקן - בני ברק",
      "text": "",
      "stayTimes": "10:00 - 14:00",
      "t_start": "2020-03-25T08:00:00",
      "t_end": "2020-03-25T12:00:00",
      "link": ""
    },
    {
      "id": 57942,
      "lat": 32.0784483,
      "lon": 34.8394218,
      "label": "בית אבות והדרת פני זקן - בני ברק",
      "text": "",
      "stayTimes": "10:00 - 14:00",
      "t_start": "2020-03-26T08:00:00",
      "t_end": "2020-03-26T12:00:00",
      "link": ""
    },
    {
      "id": 57943,
      "lat": 32.0784483,
      "lon": 34.8394218,
      "label": "בית אבות והדרת פני זקן - בני ברק",
      "text": "",
      "stayTimes": "10:00 - 14:00",
      "t_start": "2020-03-22T08:00:00",
      "t_end": "2020-03-22T12:00:00",
      "link": ""
    },
    {
      "id": 57944,
      "lat": 32.0784483,
      "lon": 34.8394218,
      "label": "בת אבות והדרת פני זקן - בני ברק",
      "text": "",
      "stayTimes": "10:00 - 14:00",
      "t_start": "2020-03-23T08:00:00",
      "t_end": "2020-03-23T12:00:00",
      "link": ""
    },
    {
      "id": 57945,
      "lat": 32.7791922000001,
      "lon": 35.5029054,
      "label": "סופרמרקט יוחננוב - טבריה",
      "text": "",
      "stayTimes": "20:00 - 22:00",
      "t_start": "2020-03-19T18:00:00",
      "t_end": "2020-03-19T20:00:00",
      "link": ""
    },
    {
      "id": 57946,
      "lat": 32.3187235,
      "lon": 34.9340612,
      "label": "חבוש - כפר יונה",
      "text": "",
      "stayTimes": "11:15 - 11:30",
      "t_start": "2020-03-25T09:15:00",
      "t_end": "2020-03-25T09:30:00",
      "link": ""
    },