{
  "points": [
    {
      "id": 439768,
      "lat": 31.8142224540001,
      "lon": 34.77642057,
      "label": "מעון מוריה - גדרה",
      "text": "",
      "stayTimes": "05:30 - 06:00",
      "t_start": "2020-04-05T03:30:00",
      "t_end": "2020-04-05T04:00:00",
      "link": ""
    },
    {
      "id": 439769,
      "lat": 31.8142139,
      "lon": 34.7764126000001,
      "label": "מעון מוריה - גדרה",
      "text": "",
      "stayTimes": "14:00 - 22:00",
      "t_start": "2020-04-05T12:00:00",
      "t_end": "2020-04-05T20:00:00",
      "link": ""
    },
    {
      "id": 439770,
      "lat": 32.6494422000001,
      "lon": 35.2905623,
      "label": "טיב טעם - מזרע",
      "text": "",
      "stayTimes": "09:00 - 09:30",
      "t_start": "2020-04-08T07:00:00",
      "t_end": "2020-04-08T07:30:00",
      "link": ""
    },
    {
      "id": 439771,
      "lat": 32.1823231000001,
      "lon": 34.8954868000001,
      "label": "ביה\"ח מאיר - כפר סבא",
      "text": "",
      "stayTimes": "08:00 - 08:30",
      "t_start": "2020-04-05T06:00:00",
      "t_end": "2020-04-05T06:30:00",
      "link": ""
    },
    {
      "id": 439772,
      "lat": 32.0469554490001,
      "lon": 34.8448678510001,
      "label": "מעבדה מרכזית תל השומר - רמת גן",
      "text": "",
      "stayTimes": "07:30 - 09:00",
      "t_start": "2020-04-05T05:30:00",
      "t_end": "2020-04-05T07:00:00",
      "link": ""
    },
    {
      "id": 439773,
      "lat": 32.0444342870001,
      "lon": 34.7691806880001,
      "label": "מעבדה לבריאות הציבור אבו כביר - תל אביב - יפו",
      "text": "",
      "stayTimes": "09:30 - 12:00",
      "t_start": "2020-04-05T07:30:00",
      "t_end": "2020-04-05T10:00:00",
      "link": ""
    },
    {
      "id": 439774,
      "lat": 32.0906142640001,
      "lon": 34.945982932,
      "label": "פינוי מדא לבית חולים - ראש העין",
      "text": "",
      "stayTimes": "00:00 - 00:00",
      "t_start": "2020-04-04T22:00:00",
      "t_end": "2020-04-04T22:00:00",
      "link": ""
    },
    {
      "id": 439775,
      "lat": 32.028290579,
      "lon": 34.7483266520001,
      "label": "בית חולים בית בלב - בת ים",
      "text": "",
      "stayTimes": "08:00 - 16:00",
      "t_start": "2020-04-05T06:00:00",
      "t_end": "2020-04-05T14:00:00",
      "link": ""
    },
    {
      "id": 439776,
      "lat": 32.1673930440001,
      "lon": 34.8412880870001,
      "label": "סופר פארם - הרצליה",
      "text": "",
      "stayTimes": "12:00 - 12:30",
      "t_start": "2020-04-05T10:00:00",
      "t_end": "2020-04-05T10:30:00",
      "link": ""
    },
    {
      "id": 439777,
      "lat": 32.167390137,
      "lon": 34.841294954,
      "label": "חנות פארם - הרצליה",
      "text": "",
      "stayTimes": "12:30 - 13:00",
      "t_start": "2020-04-05T10:30:00",
      "t_end": "2020-04-05T11:00:00",
      "link": ""
    },
    {
      "id": 439778,
      "lat": 32.1818416,
      "lon": 34.8698910000001,
      "label": "ויקטורי - רעננה",
      "text": "",
      "stayTimes": "19:00 - 20:00",
      "t_start": "2020-04-05T17:00:00",
      "t_end": "2020-04-05T18:00:00",
      "link": ""
    },
    {
      "id": 439779,
      "lat": 31.8135049000001,
      "lon": 34.6500062000001,
      "label": "בית הדר - אשדוד",
      "text": "",
      "stayTimes": "08:00 - 08:30",
      "t_start": "2020-04-15T06:00:00",
      "t_end": "2020-04-15T06:30:00",
      "link": ""
    },
    {
      "id": 439780,
      "lat": 32.1058370000001,
      "lon": 34.8923941,
      "label": "סופר \"אושר עד\" - פתח תקווה",
      "text": "",
      "stayTimes": "14:00 - 15:00",
      "t_start": "2020-04-05T12:00:00",
      "t_end": "2020-04-05T13:00:00",
      "link": ""
    },
    {
      "id": 439781,
      "lat": 32.6486540000001,
      "lon": 35.288241,
      "label": "בית אבות אור העמק - מזרע",
      "text": "",
      "stayTimes": "07:00 - 14:00",
      "t_start": "2020-04-08T05:00:00",
      "t_end": "2020-04-08T12:00:00",
      "link": ""
    },
    {
      "id": 439782,
      "lat": 32.6486540000001,
      "lon": 35.288241,
      "label": "בית אבות אור העמק - מזרע",
      "text": "",
      "stayTimes": "16:00 - 18:00",
      "t_start": "2020-04-08T14:00:00",
      "t_end": "2020-04-08T16:00:00",
      "link": ""
    },
    {
      "id": 439783,
      "lat": 32.6486540000001,
      "lon": 35.288241,
      "label": "בית אבות אור העמק - מזרע",
      "text": "",
      "stayTimes": "07:10 - 17:00",
      "t_start": "2020-04-12T05:10:00",
      "t_end": "2020-04-12T15:00:00",
      "link": ""
    },
    {
      "id": 439784,
      "lat": 32.04834607,
      "lon": 34.9577129480001,
      "label": "זול כל - אלעד",
      "text": "",
      "stayTimes": "18:00 - 18:10",
      "t_start": "2020-04-12T16:00:00",
      "t_end": "2020-04-12T16:10:00",
      "link": ""
    },
    {
      "id": 439785,
      "lat": 32.1722288730001,
      "lon": 34.9248283950001,
      "label": "מרכז לסר- ביצים - כפר סבא",
      "text": "",
      "stayTimes": "15:00 - 16:00",
      "t_start": "2020-04-06T13:00:00",
      "t_end": "2020-04-06T14:00:00",
      "link": ""
    },
    {
      "id": 439786,
      "lat": 32.0541667000001,
      "lon": 34.9638889,
      "label": "נתיב החסד - אלעד",
      "text": "",
      "stayTimes": "15:00 - 15:30",
      "t_start": "2020-04-05T13:00:00",
      "t_end": "2020-04-05T13:30:00",
      "link": ""
    },
    {
      "id": 439787,
      "lat": 32.0504166260001,
      "lon": 34.9503998230001,
      "label": "כולל סנטר - אלעד",
      "text": "",
      "stayTimes": "10:45 - 11:30",
      "t_start": "2020-04-05T08:45:00",
      "t_end": "2020-04-05T09:30:00",
      "link": ""
    },
    {
      "id": 439788,
      "lat": 32.7791922000001,
      "lon": 35.5029054,
      "label": "סופר מרקט יוחננוף - טבריה",
      "text": "",
      "stayTimes": "07:00 - 13:00",
      "t_start": "2020-04-05T05:00:00",
      "t_end": "2020-04-05T11:00:00",
      "link": ""
    },
    {
      "id": 439789,
      "lat": 31.9485812,
      "lon": 34.7889725000001,
      "label": "מרכז גריאטרי ראש\"צ - ראשון לציון",
      "text": "",
      "stayTimes": "08:00 - 08:30",
      "t_start": "2020-04-05T06:00:00",
      "t_end": "2020-04-05T06:30:00",
      "link": ""
    },
    {
      "id": 439790,
      "lat": 32.0525832270001,
      "lon": 34.9512222270001,
      "label": "סופר \"יש חסד\" - אלעד",
      "text": "",
      "stayTimes": "11:00 - 12:20",
      "t_start": "2020-04-05T09:00:00",
      "t_end": "2020-04-05T10:20:00",
      "link": ""
    },
    {
      "id": 439791,
      "lat": 32.0480153020001,
      "lon": 34.9546538440001,
      "label": "סופר \"שוק מהדרין\" - אלעד",
      "text": "",
      "stayTimes": "21:00 - 21:30",
      "t_start": "2020-04-05T19:00:00",
      "t_end": "2020-04-05T19:30:00",
      "link": ""
    },
    {
      "id": 439792,
      "lat": 31.8030403000001,
      "lon": 35.2161090000001,
      "label": "מעון אורים - ירושלים",
      "text": "",
      "stayTimes": "08:00 - 08:30",
      "t_start": "2020-04-05T06:00:00",
      "t_end": "2020-04-05T06:30:00",
      "link": ""
    },
    {
      "id": 439793,
      "lat": 32.0675613000001,
      "lon": 34.7946249,
      "label": "סופר \"אושר עד\" - תל אביב - יפו",
      "text": "",
      "stayTimes": "12:30 - 14:00",
      "t_start": "2020-04-05T10:30:00",
      "t_end": "2020-04-05T12:00:00",
      "link": ""
    },
    {
      "id": 439794,
      "lat": 31.416920222,
      "lon": 34.5902385630001,
      "label": "סופר כהן אזור התעשיה - נתיבות",
      "text": "",
      "stayTimes": "16:00 - 18:00",
      "t_start": "2020-04-05T14:00:00",
      "t_end": "2020-04-05T16:00:00",
      "link": ""
    },
    {
      "id": 439795,
      "lat": 32.6821624,
      "lon": 35.2773957000001,
      "label": "בית מרקחת  של קופ\"ח כללית - יפיע",
      "text": "",
      "stayTimes": "10:00 - 10:30",
      "t_start": "2020-04-05T08:00:00",
      "t_end": "2020-04-05T08:30:00",
      "link": ""
    },
    {
      "id": 439796,
      "lat": 32.1823231000001,
      "lon": 34.8954868000001,
      "label": "מאיר - כפר סבא",
      "text": "",
      "stayTimes": "07:00 - 22:00",
      "t_start": "2020-04-06T05:00:00",
      "t_end": "2020-04-06T20:00:00",
      "link": ""
    },
    {
      "id": 439797,
      "lat": 32.1823231000001,
      "lon": 34.8954868000001,
      "label": "מאיר - כפר סבא",
      "text": "",
      "stayTimes": "07:00 - 16:30",
      "t_start": "2020-04-07T05:00:00",
      "t_end": "2020-04-07T14:30:00",
      "link": ""
    },
    {
      "id": 439798,
      "lat": 32.451313,
      "lon": 34.8957780000001,
      "label": "רנטגן הלל יפה - חדרה",
      "text": "",
      "stayTimes": "14:30 - 22:30",
      "t_start": "2020-04-08T12:30:00",
      "t_end": "2020-04-08T20:30:00",
      "link": ""
    },
    {
      "id": 439799,
      "lat": 32.4623320160001,
      "lon": 35.046626772,
      "label": "שופרסל אקספרס - חריש",
      "text": "",
      "stayTimes": "19:30 - 20:00",
      "t_start": "2020-04-07T17:30:00",
      "t_end": "2020-04-07T18:00:00",
      "link": ""
    },
    {
      "id": 439800,
      "lat": 31.814233394,
      "lon": 34.776429153,
      "label": "מעון מוריה - גדרה",
      "text": "",
      "stayTimes": "05:30 - 14:30",
      "t_start": "2020-04-06T03:30:00",
      "t_end": "2020-04-06T12:30:00",
      "link": ""
    },
    {
      "id": 439801,
      "lat": 31.814216984,
      "lon": 34.7764141330001,
      "label": "מעון מוריה - גדרה",
      "text": "",
      "stayTimes": "05:30 - 14:30",
      "t_start": "2020-04-07T03:30:00",
      "t_end": "2020-04-07T12:30:00",
      "link": ""
    },
    {
      "id": 439802,
      "lat": 31.8142128550001,
      "lon": 34.7764177930001,
      "label": "מעון מוריה - גדרה",
      "text": "",
      "stayTimes": "05:30 - 14:30",
      "t_start": "2020-04-08T03:30:00",
      "t_end": "2020-04-08T12:30:00",
      "link": ""
    },
    {
      "id": 439803,
      "lat": 32.0862991000001,
      "lon": 34.8348894000001,
      "label": "רשת נתיב החסד - בני ברק",
      "text": "",
      "stayTimes": "07:00 - 09:00",
      "t_start": "2020-04-07T05:00:00",
      "t_end": "2020-04-07T07:00:00",
      "link": ""
    },
    {
      "id": 439804,
      "lat": 32.0891573540001,
      "lon": 34.8440267920001,
      "label": "רשת נתיב החסד - בני ברק",
      "text": "",
      "stayTimes": "12:30 - 13:00",
      "t_start": "2020-04-07T10:30:00",
      "t_end": "2020-04-07T11:00:00",
      "link": ""
    },
    {
      "id": 439805,
      "lat": 32.0796249000001,
      "lon": 34.8411712000001,
      "label": "ברכול - בני ברק",
      "text": "",
      "stayTimes": "11:00 - 12:00",
      "t_start": "2020-04-07T09:00:00",
      "t_end": "2020-04-07T10:00:00",
      "link": ""
    },
    {
      "id": 439806,
      "lat": 32.086883636,
      "lon": 34.826847243,
      "label": "רשת נתיב החסד - בני ברק",
      "text": "",
      "stayTimes": "09:30 - 10:30",
      "t_start": "2020-04-07T07:30:00",
      "t_end": "2020-04-07T08:30:00",
      "link": ""
    },
    {
      "id": 439807,
      "lat": 32.0692707000001,
      "lon": 34.8386134,
      "label": "ברכול - רמת גן",
      "text": "",
      "stayTimes": "09:00 - 12:30",
      "t_start": "2020-04-06T07:00:00",
      "t_end": "2020-04-06T10:30:00",
      "link": ""
    },
    {
      "id": 439808,
      "lat": 32.0751126710001,
      "lon": 34.838131892,
      "label": "נתיב החסד - בני ברק",
      "text": "",
      "stayTimes": "09:00 - 10:00",
      "t_start": "2020-04-05T07:00:00",
      "t_end": "2020-04-05T08:00:00",
      "link": ""
    },
    {
      "id": 439809,
      "lat": 32.1018083000001,
      "lon": 34.8298623000001,
      "label": "רמי לוי - בני ברק",
      "text": "",
      "stayTimes": "18:00 - 19:00",
      "t_start": "2020-04-06T16:00:00",
      "t_end": "2020-04-06T17:00:00",
      "link": ""
    },
    {
      "id": 439810,
      "lat": 32.098441286,
      "lon": 34.8242140410001,
      "label": "ויקטורי בקניון איילון - רמת גן",
      "text": "",
      "stayTimes": "19:00 - 20:00",
      "t_start": "2020-04-06T17:00:00",
      "t_end": "2020-04-06T18:00:00",
      "link": ""
    },
    {
      "id": 439811,
      "lat": 32.0905605450001,
      "lon": 34.8670575350001,
      "label": "בית חולים בלינסון - פתח תקווה",
      "text": "",
      "stayTimes": "07:45 - 12:15",
      "t_start": "2020-04-06T05:45:00",
      "t_end": "2020-04-06T10:15:00",
      "link": ""
    },
    {
      "id": 439812,
      "lat": 32.0885839650001,
      "lon": 34.889469504,
      "label": "קופת חולים לאומית - פתח תקווה",
      "text": "",
      "stayTimes": "08:00 - 08:20",
      "t_start": "2020-04-05T06:00:00",
      "t_end": "2020-04-05T06:20:00",
      "link": ""
    },
    {
      "id": 439813,
      "lat": 31.8142224540001,
      "lon": 34.7764119880001,
      "label": "מעון מוריה - גדרה",
      "text": "",
      "stayTimes": "05:30 - 14:30",
      "t_start": "2020-04-12T03:30:00",
      "t_end": "2020-04-12T12:30:00",
      "link": ""
    },
    {
      "id": 439814,
      "lat": 32.6486540000001,
      "lon": 35.288241,
      "label": "בית אבות אור העמק - מזרע",
      "text": "",
      "stayTimes": "07:10 - 14:00",
      "t_start": "2020-04-14T05:10:00",
      "t_end": "2020-04-14T12:00:00",
      "link": ""
    },
    {
      "id": 439815,
      "lat": 32.6486540000001,
      "lon": 35.288241,
      "label": "בית אבות אור העמק - מזרע",
      "text": "",
      "stayTimes": "17:30 - 20:00",
      "t_start": "2020-04-13T15:30:00",
      "t_end": "2020-04-13T18:00:00",
      "link": ""
    },
    {
      "id": 439816,
      "lat": 32.0967519980001,
      "lon": 34.840960135,
      "label": "נתיב החסד - בני ברק",
      "text": "",
      "stayTimes": "12:00 - 14:30",
      "t_start": "2020-04-05T10:00:00",
      "t_end": "2020-04-05T12:30:00",
      "link": ""
    },
    {
      "id": 439817,
      "lat": 32.0986354120001,
      "lon": 34.839776977,
      "label": "נתיב החסד - בני ברק",
      "text": "",
      "stayTimes": "14:30 - 16:30",
      "t_start": "2020-04-05T12:30:00",
      "t_end": "2020-04-05T14:30:00",
      "link": ""
    },
    {
      "id": 439818,
      "lat": 32.0974892090001,
      "lon": 34.836421236,
      "label": "נתיב החסד - בני ברק",
      "text": "",
      "stayTimes": "08:00 - 09:00",
      "t_start": "2020-04-05T06:00:00",
      "t_end": "2020-04-05T07:00:00",
      "link": ""
    },
    {
      "id": 439819,
      "lat": 32.1655278000001,
      "lon": 34.8419696,
      "label": "קופת חולים מאוחדת - הרצליה",
      "text": "",
      "stayTimes": "13:30 - 14:00",
      "t_start": "2020-04-05T11:30:00",
      "t_end": "2020-04-05T12:00:00",
      "link": ""
    },
    {
      "id": 439820,
      "lat": 32.0827834,
      "lon": 34.8426542,
      "label": "צרכניה אחיעזר - בני ברק",
      "text": "",
      "stayTimes": "19:00 - 20:00",
      "t_start": "2020-04-05T17:00:00",
      "t_end": "2020-04-05T18:00:00",
      "link": ""
    },
    {
      "id": 439821,
      "lat": 31.9839168010001,
      "lon": 34.7689122560001,
      "label": "סופר רמי לוי מתחם G סינמה סיטי - ראשון לציון",
      "text": "",
      "stayTimes": "12:30 - 13:06",
      "t_start": "2020-04-06T10:30:00",
      "t_end": "2020-04-06T11:06:00",
      "link": ""
    },
    {
      "id": 439822,
      "lat": 32.0833881,
      "lon": 34.8405592,
      "label": "קופ\"ח מכבי בני ברק רח\" קהנמן 64 - בני ברק",
      "text": "",
      "stayTimes": "17:40 - 18:10",
      "t_start": "2020-04-06T15:40:00",
      "t_end": "2020-04-06T16:10:00",
      "link": ""
    },
    {
      "id": 439823,
      "lat": 31.764983806,
      "lon": 35.1494208570001,
      "label": "מח' תינוקות בי\"ח הדסה - ירושלים",
      "text": "",
      "stayTimes": "07:00 - 14:00",
      "t_start": "2020-04-06T05:00:00",
      "t_end": "2020-04-06T12:00:00",
      "link": ""
    },
    {
      "id": 439824,
      "lat": 31.7868018410001,
      "lon": 35.2099549070001,
      "label": "מוקד ערב של קופת חולים מאוחדת - ירושלים",
      "text": "",
      "stayTimes": "21:00 - 23:00",
      "t_start": "2020-04-05T19:00:00",
      "t_end": "2020-04-05T21:00:00",
      "link": ""
    },
    {
      "id": 439825,
      "lat": 31.7867898440001,
      "lon": 35.2099478700001,
      "label": "קופת חולים מאוחדת - ירושלים",
      "text": "",
      "stayTimes": "12:00 - 12:45",
      "t_start": "2020-04-06T10:00:00",
      "t_end": "2020-04-06T10:45:00",
      "link": ""
    },
    {
      "id": 439826,
      "lat": 31.7892705800001,
      "lon": 35.2181986470001,
      "label": "קופת חולים מאוחדת פסגת זאב - ירושלים",
      "text": "",
      "stayTimes": "16:45 - 17:00",
      "t_start": "2020-04-05T14:45:00",
      "t_end": "2020-04-05T15:00:00",
      "link": ""
    },
    {
      "id": 439827,
      "lat": 32.1557439000001,
      "lon": 34.8911459,
      "label": "\"שקדיה\" - הוד השרון",
      "text": "",
      "stayTimes": "08:00 - 08:30",
      "t_start": "2020-04-08T06:00:00",
      "t_end": "2020-04-08T06:30:00",
      "link": ""
    },
    {
      "id": 439828,
      "lat": 32.1558361,
      "lon": 34.8911464,
      "label": "בית מרקחת של מכבי - הוד השרון",
      "text": "",
      "stayTimes": "08:00 - 08:30",
      "t_start": "2020-04-08T06:00:00",
      "t_end": "2020-04-08T06:30:00",
      "link": ""
    },
    {
      "id": 439829,
      "lat": 32.1558146,
      "lon": 34.8910203,
      "label": "מעדניה - הוד השרון",
      "text": "",
      "stayTimes": "08:00 - 08:30",
      "t_start": "2020-04-08T06:00:00",
      "t_end": "2020-04-08T06:30:00",
      "link": ""
    },
    {
      "id": 439830,
      "lat": 32.1591120000001,
      "lon": 34.8883456,
      "label": "מגה בעיר - הוד השרון",
      "text": "",
      "stayTimes": "08:00 - 08:30",
      "t_start": "2020-04-08T06:00:00",
      "t_end": "2020-04-08T06:30:00",
      "link": ""
    },
    {
      "id": 439831,
      "lat": 32.1690857,
      "lon": 34.8775149000001,
      "label": "חנות משק - גבעת ח\"ן",
      "text": "",
      "stayTimes": "08:00 - 08:30",
      "t_start": "2020-04-08T06:00:00",
      "t_end": "2020-04-08T06:30:00",
      "link": ""
    },
    {
      "id": 439832,
      "lat": 32.1432281,
      "lon": 34.891664,
      "label": "סופר בקניון עזריאל - הוד השרון",
      "text": "",
      "stayTimes": "08:00 - 08:30",
      "t_start": "2020-04-08T06:00:00",
      "t_end": "2020-04-08T06:30:00",
      "link": ""
    },
    {
      "id": 439833,
      "lat": 32.0710518220001,
      "lon": 34.8022676530001,
      "label": "בית הקברות רמב\"מ - גבעתיים",
      "text": "",
      "stayTimes": "08:00 - 21:00",
      "t_start": "2020-04-08T06:00:00",
      "t_end": "2020-04-08T19:00:00",
      "link": ""
    },
    {
      "id": 439834,
      "lat": 32.779623171,
      "lon": 35.5114331830001,
      "label": "הנשיא ויצמן 1017, טבריה",
      "text": "",
      "stayTimes": "12:00 - 13:30",
      "t_start": "2020-04-07T10:00:00",
      "t_end": "2020-04-07T11:30:00",
      "link": ""
    },
    {
      "id": 439835,
      "lat": 32.7792120440001,
      "lon": 35.50291163,
      "label": "החרושת 10, טבריה",
      "text": "",
      "stayTimes": "13:45 - 14:15",
      "t_start": "2020-04-07T11:45:00",
      "t_end": "2020-04-07T12:15:00",
      "link": ""
    },
    {
      "id": 439836,
      "lat": 32.7791922000001,
      "lon": 35.5029054,
      "label": "סופר מרקט יוחננוף - טבריה",
      "text": "",
      "stayTimes": "07:30 - 07:45",
      "t_start": "2020-04-05T05:30:00",
      "t_end": "2020-04-05T05:45:00",
      "link": ""
    },
    {
      "id": 439837,
      "lat": 32.0556009000001,
      "lon": 34.8631348000001,
      "label": "סופר \"מגה\" - קרית אונו",
      "text": "",
      "stayTimes": "07:00 - 07:30",
      "t_start": "2020-04-07T05:00:00",
      "t_end": "2020-04-07T05:30:00",
      "link": ""
    },
    {
      "id": 439838,
      "lat": 32.0880423,
      "lon": 34.8884476000001,
      "label": "סניף דואר - פתח תקווה",
      "text": "",
      "stayTimes": "12:00 - 12:30",
      "t_start": "2020-04-07T10:00:00",
      "t_end": "2020-04-07T10:30:00",
      "link": ""
    },
    {
      "id": 439839,
      "lat": 32.4587389500001,
      "lon": 35.0443252960001,
      "label": "שופרסל אקספרס - חריש",
      "text": "",
      "stayTimes": "08:00 - 08:30",
      "t_start": "2020-04-06T06:00:00",
      "t_end": "2020-04-06T06:30:00",
      "link": ""
    },
    {
      "id": 439840,
      "lat": 32.0796249000001,
      "lon": 34.8411712000001,
      "label": "בר כל - בני ברק",
      "text": "",
      "stayTimes": "12:30 - 14:00",
      "t_start": "2020-04-07T10:30:00",
      "t_end": "2020-04-07T12:00:00",
      "link": ""
    },
    {
      "id": 439841,
      "lat": 31.7553923200001,
      "lon": 35.223620322,
      "label": "טרם - ירושלים",
      "text": "",
      "stayTimes": "09:30 - 10:30",
      "t_start": "2020-04-06T07:30:00",
      "t_end": "2020-04-06T08:30:00",
      "link": ""
    },
    {
      "id": 439842,
      "lat": 31.8652568000001,
      "lon": 35.1681530000001,
      "label": "סופר מחסני השוק - גבעת זאב",
      "text": "",
      "stayTimes": "21:30 - 22:30",
      "t_start": "2020-04-07T19:30:00",
      "t_end": "2020-04-07T20:30:00",
      "link": ""
    },
    {
      "id": 439843,
      "lat": 31.8652905930001,
      "lon": 35.1678811200001,
      "label": "מרקטו 2000 - גבעת זאב",
      "text": "",
      "stayTimes": "11:00 - 11:30",
      "t_start": "2020-04-08T09:00:00",
      "t_end": "2020-04-08T09:30:00",
      "link": ""
    },
    {
      "id": 439844,
      "lat": 32.182369911,
      "lon": 34.8955200460001,
      "label": "בית חולים מאיר - כפר סבא",
      "text": "",
      "stayTimes": "19:00 - 19:30",
      "t_start": "2020-04-08T17:00:00",
      "t_end": "2020-04-08T17:30:00",
      "link": ""
    },
    {
      "id": 439845,
      "lat": 31.7926447730001,
      "lon": 35.2241985920001,
      "label": "סופר - ירושלים",
      "text": "",
      "stayTimes": "09:00 - 09:30",
      "t_start": "2020-04-05T07:00:00",
      "t_end": "2020-04-05T07:30:00",
      "link": ""
    },
    {
      "id": 439846,
      "lat": 31.937298766,
      "lon": 35.043176385,
      "label": "ברכת הרשבי - מודיעין עילית",
      "text": "",
      "stayTimes": "13:00 - 13:15",
      "t_start": "2020-04-05T11:00:00",
      "t_end": "2020-04-05T11:15:00",
      "link": ""
    },
    {
      "id": 439847,
      "lat": 32.4351603000001,
      "lon": 34.9089263000001,
      "label": "שופרסל דיל שערי חדרה - חדרה",
      "text": "",
      "stayTimes": "11:00 - 12:00",
      "t_start": "2020-04-05T09:00:00",
      "t_end": "2020-04-05T10:00:00",
      "link": ""
    },
    {
      "id": 439848,
      "lat": 32.4362153000001,
      "lon": 34.9211945000001,
      "label": "בנק הפועלים - חדרה",
      "text": "",
      "stayTimes": "09:00 - 10:00",
      "t_start": "2020-04-05T07:00:00",
      "t_end": "2020-04-05T08:00:00",
      "link": ""
    },
    {
      "id": 439849,
      "lat": 32.4357942,
      "lon": 34.9163935,
      "label": "קופרת חולים כללית קורן - חדרה",
      "text": "",
      "stayTimes": "08:00 - 08:30",
      "t_start": "2020-04-05T06:00:00",
      "t_end": "2020-04-05T06:30:00",
      "link": ""
    },
    {
      "id": 439850,
      "lat": 31.9648014000001,
      "lon": 34.7920651000001,
      "label": "פיצריה ירושלמית - ראשון לציון",
      "text": "",
      "stayTimes": "13:00 - 22:00",
      "t_start": "2020-04-05T11:00:00",
      "t_end": "2020-04-05T20:00:00",
      "link": ""
    },
    {
      "id": 439851,
      "lat": 31.9648014000001,
      "lon": 34.7920651000001,
      "label": "פיצריה ירושלמית - ראשון לציון",
      "text": "",
      "stayTimes": "15:00 - 22:00",
      "t_start": "2020-04-06T13:00:00",
      "t_end": "2020-04-06T20:00:00",
      "link": ""
    },
    {
      "id": 439852,
      "lat": 31.8030403000001,
      "lon": 35.2161090000001,
      "label": "מעון הורים שומרי החומות - ירושלים",
      "text": "",
      "stayTimes": "08:00 - 08:30",
      "t_start": "2020-04-06T06:00:00",
      "t_end": "2020-04-06T06:30:00",
      "link": ""
    },
    {
      "id": 439853,
      "lat": 31.7852588000001,
      "lon": 35.1830189,
      "label": "אושר עד גבעת שאול - ירושלים",
      "text": "",
      "stayTimes": "17:00 - 19:00",
      "t_start": "2020-04-05T15:00:00",
      "t_end": "2020-04-05T17:00:00",
      "link": ""
    },
    {
      "id": 439854,
      "lat": 31.771007561,
      "lon": 35.183845385,
      "label": "שפע ברכת השם - בית וגן - ירושלים",
      "text": "",
      "stayTimes": "12:00 - 13:00",
      "t_start": "2020-04-07T10:00:00",
      "t_end": "2020-04-07T11:00:00",
      "link": ""
    },
    {
      "id": 439855,
      "lat": 32.3283018290001,
      "lon": 34.8567293560001,
      "label": "חנות חשמל של רובי - נתניה",
      "text": "",
      "stayTimes": "10:30 - 16:30",
      "t_start": "2020-04-05T08:30:00",
      "t_end": "2020-04-05T14:30:00",
      "link": ""
    },
    {
      "id": 439856,
      "lat": 32.7890532000001,
      "lon": 35.5335639,
      "label": "יהודה הלוי 113, טבריה",
      "text": "",
      "stayTimes": "12:30 - 18:00",
      "t_start": "2020-04-06T10:30:00",
      "t_end": "2020-04-06T16:00:00",
      "link": ""
    },
    {
      "id": 439857,
      "lat": 32.7789031,
      "lon": 35.5167485000001,
      "label": "אור חיים 11, טבריה",
      "text": "",
      "stayTimes": "11:00 - 11:45",
      "t_start": "2020-04-05T09:00:00",
      "t_end": "2020-04-05T09:45:00",
      "link": ""
    },
    {
      "id": 439858,
      "lat": 32.0773136,
      "lon": 34.8423142,
      "label": "שוק העיר - בני ברק",
      "text": "",
      "stayTimes": "09:00 - 10:30",
      "t_start": "2020-04-08T07:00:00",
      "t_end": "2020-04-08T08:30:00",
      "link": ""
    },
    {
      "id": 439859,
      "lat": 32.4587369380001,
      "lon": 35.044326749,
      "label": "שופר סל אקספרס - חריש",
      "text": "",
      "stayTimes": "08:00 - 08:30",
      "t_start": "2020-04-08T06:00:00",
      "t_end": "2020-04-08T06:30:00",
      "link": ""
    },
    {
      "id": 439860,
      "lat": 31.7932316000001,
      "lon": 35.3288288000001,
      "label": "מפעל \"הר שפי\" - מעלה אדומים",
      "text": "",
      "stayTimes": "08:00 - 17:00",
      "t_start": "2020-04-05T06:00:00",
      "t_end": "2020-04-05T15:00:00",
      "link": ""
    },
    {
      "id": 439861,
      "lat": 32.0989093530001,
      "lon": 34.829728135,
      "label": "סופר אושר עד - בני ברק",
      "text": "",
      "stayTimes": "07:00 - 23:00",
      "t_start": "2020-04-05T05:00:00",
      "t_end": "2020-04-05T21:00:00",
      "link": ""
    },
    {
      "id": 439862,
      "lat": 32.098967524,
      "lon": 34.829788212,
      "label": "סופר אושר עד - בני ברק",
      "text": "",
      "stayTimes": "07:00 - 23:00",
      "t_start": "2020-04-06T05:00:00",
      "t_end": "2020-04-06T21:00:00",
      "link": ""
    },
    {
      "id": 439863,
      "lat": 32.0988889000001,
      "lon": 34.8297222,
      "label": "סופר עושר עד - בני ברק",
      "text": "",
      "stayTimes": "07:00 - 23:00",
      "t_start": "2020-04-07T05:00:00",
      "t_end": "2020-04-07T21:00:00",
      "link": ""
    },
    {
      "id": 439864,
      "lat": 31.7948177000001,
      "lon": 34.6407751,
      "label": "סופר פאפא - אשדוד",
      "text": "",
      "stayTimes": "14:00 - 14:30",
      "t_start": "2020-04-07T12:00:00",
      "t_end": "2020-04-07T12:30:00",
      "link": ""
    },
    {
      "id": 439865,
      "lat": 32.7890532000001,
      "lon": 35.5335639,
      "label": "יהודה הלוי 113, טבריה",
      "text": "",
      "stayTimes": "12:30 - 18:00",
      "t_start": "2020-04-06T10:30:00",
      "t_end": "2020-04-06T16:00:00",
      "link": ""
    },
    {
      "id": 439866,
      "lat": 32.779251238,
      "lon": 35.516785172,
      "label": "דואר ישראל - טבריה",
      "text": "",
      "stayTimes": "11:00 - 11:45",
      "t_start": "2020-04-05T09:00:00",
      "t_end": "2020-04-05T09:45:00",
      "link": ""
    },
    {
      "id": 439867,
      "lat": 31.7937868810001,
      "lon": 35.3337773370001,
      "label": "רמי לוי - סניף מעלה אדומים - מעלה אדומים",
      "text": "",
      "stayTimes": "10:00 - 12:00",
      "t_start": "2020-04-07T08:00:00",
      "t_end": "2020-04-07T10:00:00",
      "link": ""
    },
    {
      "id": 439868,
      "lat": 32.079536365,
      "lon": 34.835004128,
      "label": "מכולת נחמיה - בני ברק",
      "text": "",
      "stayTimes": "10:00 - 10:30",
      "t_start": "2020-04-06T08:00:00",
      "t_end": "2020-04-06T08:30:00",
      "link": ""
    },
    {
      "id": 439869,
      "lat": 31.9661207720001,
      "lon": 34.8019810280001,
      "label": "חניון ניסן יעקובי - ראשון לציון",
      "text": "",
      "stayTimes": "06:30 - 15:00",
      "t_start": "2020-04-05T04:30:00",
      "t_end": "2020-04-05T13:00:00",
      "link": ""
    },
    {
      "id": 439870,
      "lat": 31.7919300120001,
      "lon": 35.2045671670001,
      "label": "סופר \"שערי רווחה\" - ירושלים",
      "text": "",
      "stayTimes": "16:30 - 16:45",
      "t_start": "2020-04-05T14:30:00",
      "t_end": "2020-04-05T14:45:00",
      "link": ""
    },
    {
      "id": 439871,
      "lat": 31.7947479000001,
      "lon": 35.2084070000001,
      "label": "בית מרקחת בקניון \"רב שפע\" - ירושלים",
      "text": "",
      "stayTimes": "21:00 - 21:20",
      "t_start": "2020-04-05T19:00:00",
      "t_end": "2020-04-05T19:20:00",
      "link": ""
    },
    {
      "id": 439872,
      "lat": 32.6494422000001,
      "lon": 35.2905623,
      "label": "טיב טעם - מזרע",
      "text": "",
      "stayTimes": "09:00 - 09:30",
      "t_start": "2020-04-14T07:00:00",
      "t_end": "2020-04-14T07:30:00",
      "link": ""
    },
    {
      "id": 439873,
      "lat": 32.6035835000001,
      "lon": 35.2960555000001,
      "label": "מקלות וניל - עפולה",
      "text": "",
      "stayTimes": "07:30 - 07:40",
      "t_start": "2020-04-16T05:30:00",
      "t_end": "2020-04-16T05:40:00",
      "link": ""
    },
    {
      "id": 439874,
      "lat": 32.6486540000001,
      "lon": 35.288241,
      "label": "בית אבות אור העמק - מזרע",
      "text": "",
      "stayTimes": "08:00 - 17:00",
      "t_start": "2020-04-16T06:00:00",
      "t_end": "2020-04-16T15:00:00",
      "link": ""
    },
    {
      "id": 439875,
      "lat": 31.75548095,
      "lon": 35.2236184770001,
      "label": "טרם סניף היילת - ירושלים",
      "text": "",
      "stayTimes": "09:30 - 10:30",
      "t_start": "2020-04-06T07:30:00",
      "t_end": "2020-04-06T08:30:00",
      "link": ""
    },
    {
      "id": 439876,
      "lat": 32.3969300000001,
      "lon": 35.035914,
      "label": "סופר אל באיין-כפר גת - ג'ת",
      "text": "",
      "stayTimes": "12:00 - 13:00",
      "t_start": "2020-04-06T10:00:00",
      "t_end": "2020-04-06T11:00:00",
      "link": ""
    },
    {
      "id": 439877,
      "lat": 32.7930742,
      "lon": 35.5343003,
      "label": "גלידות פלדמן - טבריה",
      "text": "",
      "stayTimes": "13:30 - 14:30",
      "t_start": "2020-04-08T11:30:00",
      "t_end": "2020-04-08T12:30:00",
      "link": ""
    },
    {
      "id": 439878,
      "lat": 32.7931494000001,
      "lon": 35.5336308,
      "label": "חנות חד פעמי מולטי סרביס - טבריה",
      "text": "",
      "stayTimes": "20:30 - 21:30",
      "t_start": "2020-04-07T18:30:00",
      "t_end": "2020-04-07T19:30:00",
      "link": ""
    },
    {
      "id": 439879,
      "lat": 32.7892867370001,
      "lon": 35.5350182060001,
      "label": "סופרמרקט שופרסל דיל - טבריה",
      "text": "",
      "stayTimes": "12:00 - 13:30",
      "t_start": "2020-04-08T10:00:00",
      "t_end": "2020-04-08T11:30:00",
      "link": ""
    },
    {
      "id": 439880,
      "lat": 32.7892461500001,
      "lon": 35.535012841,
      "label": "סופרמרקט שופרסל דיל - טבריה",
      "text": "",
      "stayTimes": "18:00 - 20:00",
      "t_start": "2020-04-07T16:00:00",
      "t_end": "2020-04-07T18:00:00",
      "link": ""
    },
    {
      "id": 439881,
      "lat": 32.077318516,
      "lon": 34.8423142010001,
      "label": "שוק העיר - בני ברק",
      "text": "",
      "stayTimes": "16:00 - 17:00",
      "t_start": "2020-04-05T14:00:00",
      "t_end": "2020-04-05T15:00:00",
      "link": ""
    },
    {
      "id": 439882,
      "lat": 31.9429862000001,
      "lon": 34.8759535,
      "label": "מוטי מרקט - לוד",
      "text": "",
      "stayTimes": "10:30 - 12:30",
      "t_start": "2020-04-07T08:30:00",
      "t_end": "2020-04-07T10:30:00",
      "link": ""
    },
    {
      "id": 439883,
      "lat": 32.7791922000001,
      "lon": 35.5029054,
      "label": "סופרמרקט יוחננוף - טבריה",
      "text": "",
      "stayTimes": "14:00 - 16:00",
      "t_start": "2020-04-06T12:00:00",
      "t_end": "2020-04-06T14:00:00",
      "link": ""
    },
    {
      "id": 439884,
      "lat": 32.0908013000001,
      "lon": 34.8389312,
      "label": "חנות \"יש\" - בני ברק",
      "text": "",
      "stayTimes": "14:30 - 15:30",
      "t_start": "2020-04-06T12:30:00",
      "t_end": "2020-04-06T13:30:00",
      "link": ""
    },
    {
      "id": 439885,
      "lat": 32.0899676000001,
      "lon": 34.8385091000001,
      "label": "שיווק ישיר - בני ברק",
      "text": "",
      "stayTimes": "16:00 - 16:45",
      "t_start": "2020-04-06T14:00:00",
      "t_end": "2020-04-06T14:45:00",
      "link": ""
    },
    {
      "id": 439886,
      "lat": 32.7246002000001,
      "lon": 35.0581080000001,
      "label": "מרפאת מאוחדת סניף ראשי - עספיא",
      "text": "",
      "stayTimes": "08:20 - 08:50",
      "t_start": "2020-04-05T06:20:00",
      "t_end": "2020-04-05T06:50:00",
      "link": ""
    },
    {
      "id": 439887,
      "lat": 31.7867965,
      "lon": 34.6446318000001,
      "label": "מכולת הציונות - אשדוד",
      "text": "",
      "stayTimes": "17:30 - 18:00",
      "t_start": "2020-04-06T15:30:00",
      "t_end": "2020-04-06T16:00:00",
      "link": ""
    },
    {
      "id": 439888,
      "lat": 31.9485812,
      "lon": 34.7889725000001,
      "label": "מרכז גריאטרי מלבן - ראשון לציון",
      "text": "",
      "stayTimes": "07:00 - 15:00",
      "t_start": "2020-04-05T05:00:00",
      "t_end": "2020-04-05T13:00:00",
      "link": ""
    },
    {
      "id": 439889,
      "lat": 32.1023710000001,
      "lon": 35.207100978,
      "label": "סופרפארם גוד פארם - אריאל",
      "text": "",
      "stayTimes": "10:00 - 10:15",
      "t_start": "2020-04-08T08:00:00",
      "t_end": "2020-04-08T08:15:00",
      "link": ""
    },
    {
      "id": 439890,
      "lat": 32.5055083030001,
      "lon": 35.054321266,
      "label": "סופר אלג'זירה סניף אלערק - כפר קרע",
      "text": "",
      "stayTimes": "15:00 - 15:30",
      "t_start": "2020-04-06T13:00:00",
      "t_end": "2020-04-06T13:30:00",
      "link": ""
    },
    {
      "id": 439891,
      "lat": 32.6210762000001,
      "lon": 35.3165964,
      "label": "מיון בית חולים עפולה - עפולה",
      "text": "",
      "stayTimes": "08:00 - 14:30",
      "t_start": "2020-04-07T06:00:00",
      "t_end": "2020-04-07T12:30:00",
      "link": ""
    },
    {
      "id": 439892,
      "lat": 32.0055320000001,
      "lon": 34.8854112000001,
      "label": "נמל תעופה בן גוריון - נמל תעופה בן-גוריון",
      "text": "",
      "stayTimes": "11:50 - 12:20",
      "t_start": "2020-04-09T09:50:00",
      "t_end": "2020-04-09T10:20:00",
      "link": ""
    },
    {
      "id": 439893,
      "lat": 31.8142139,
      "lon": 34.7764126000001,
      "label": "מעון מוריה - גדרה",
      "text": "",
      "stayTimes": "05:30 - 14:30",
      "t_start": "2020-04-13T03:30:00",
      "t_end": "2020-04-13T12:30:00",
      "link": ""
    },
    {
      "id": 439894,
      "lat": 31.8142139,
      "lon": 34.7764126000001,
      "label": "מעון מוריה - גדרה",
      "text": "",
      "stayTimes": "05:30 - 12:00",
      "t_start": "2020-04-14T03:30:00",
      "t_end": "2020-04-14T10:00:00",
      "link": ""
    },
    {
      "id": 439895,
      "lat": 32.6486540000001,
      "lon": 35.288241,
      "label": "בית אבות אור העמק - מזרע",
      "text": "",
      "stayTimes": "17:00 - 22:00",
      "t_start": "2020-04-17T15:00:00",
      "t_end": "2020-04-17T20:00:00",
      "link": ""
    },
    {
      "id": 439896,
      "lat": 32.0824614000001,
      "lon": 34.8430837000001,
      "label": "חסדי דויד המלך סופר - בני ברק",
      "text": "",
      "stayTimes": "09:00 - 10:00",
      "t_start": "2020-04-07T07:00:00",
      "t_end": "2020-04-07T08:00:00",
      "link": ""
    },
    {
      "id": 439897,
      "lat": 32.0856737070001,
      "lon": 34.843682755,
      "label": "נתיב החסד - בני ברק",
      "text": "",
      "stayTimes": "10:00 - 10:30",
      "t_start": "2020-04-08T08:00:00",
      "t_end": "2020-04-08T08:30:00",
      "link": ""
    },
    {
      "id": 439898,
      "lat": 31.6180253000001,
      "lon": 34.7537390000001,
      "label": "סופר רחמים קרית גת - קרית גת",
      "text": "",
      "stayTimes": "10:00 - 10:30",
      "t_start": "2020-04-07T08:00:00",
      "t_end": "2020-04-07T08:30:00",
      "link": ""
    },
    {
      "id": 439899,
      "lat": 31.618117496,
      "lon": 34.75365649,
      "label": "סופר רחמים - קרית גת",
      "text": "",
      "stayTimes": "10:00 - 10:30",
      "t_start": "2020-04-05T08:00:00",
      "t_end": "2020-04-05T08:30:00",
      "link": ""
    },
    {
      "id": 439900,
      "lat": 32.0362056000001,
      "lon": 34.7620058000001,
      "label": "\"שופרסל\" הלוחמים 62 חולון - חולון",
      "text": "",
      "stayTimes": "07:30 - 07:40",
      "t_start": "2020-04-05T05:30:00",
      "t_end": "2020-04-05T05:40:00",
      "link": ""
    },
    {
      "id": 439901,
      "lat": 32.0684001000001,
      "lon": 34.8220410000001,
      "label": "\"מגה בעיר\" עוזיאל 113 רמת גן - רמת גן",
      "text": "",
      "stayTimes": "11:10 - 11:20",
      "t_start": "2020-04-05T09:10:00",
      "t_end": "2020-04-05T09:20:00",
      "link": ""
    },
    {
      "id": 439902,
      "lat": 32.0715940000001,
      "lon": 34.828264,
      "label": "\"פרש מרקט\" בקניון מרום נווה רמת גן - רמת גן",
      "text": "",
      "stayTimes": "15:00 - 15:15",
      "t_start": "2020-04-06T13:00:00",
      "t_end": "2020-04-06T13:15:00",
      "link": ""
    },
    {
      "id": 439903,
      "lat": 31.9485812,
      "lon": 34.7889725000001,
      "label": "מרכז גריאטרי מלבן - ראשון לציון",
      "text": "",
      "stayTimes": "07:00 - 15:00",
      "t_start": "2020-04-07T05:00:00",
      "t_end": "2020-04-07T13:00:00",
      "link": ""
    },
    {
      "id": 439904,
      "lat": 32.0813121,
      "lon": 34.7704048000001,
      "label": "\"שופרסל\" בן יהודה 79 תל אביב - תל אביב - יפו",
      "text": "",
      "stayTimes": "08:20 - 08:50",
      "t_start": "2020-04-06T06:20:00",
      "t_end": "2020-04-06T06:50:00",
      "link": ""
    },
    {
      "id": 439905,
      "lat": 32.0539889,
      "lon": 34.7647012,
      "label": "\"סופר ברקת\" רח' שלבים 27 תל אביב - תל אביב - יפו",
      "text": "",
      "stayTimes": "07:30 - 07:45",
      "t_start": "2020-04-06T05:30:00",
      "t_end": "2020-04-06T05:45:00",
      "link": ""
    },
    {
      "id": 439906,
      "lat": 32.04893229,
      "lon": 34.7668330600001,
      "label": "\" מפעל סנפיר ים\" - תל אביב - יפו",
      "text": "",
      "stayTimes": "09:15 - 09:45",
      "t_start": "2020-04-05T07:15:00",
      "t_end": "2020-04-05T07:45:00",
      "link": ""
    },
    {
      "id": 439907,
      "lat": 32.051057429,
      "lon": 34.7538797560001,
      "label": "\"שופרסל\" ביפו אנדרמודה רח' דרור 2 תל אביב - תל אביב - יפו",
      "text": "",
      "stayTimes": "08:00 - 08:15",
      "t_start": "2020-04-06T06:00:00",
      "t_end": "2020-04-06T06:15:00",
      "link": ""
    },
    {
      "id": 439908,
      "lat": 32.0562844,
      "lon": 34.7697156,
      "label": "\"שופרסל\" פלורטין 27 תל אביב - תל אביב - יפו",
      "text": "",
      "stayTimes": "10:45 - 11:00",
      "t_start": "2020-04-05T08:45:00",
      "t_end": "2020-04-05T09:00:00",
      "link": ""
    },
    {
      "id": 439909,
      "lat": 32.047802716,
      "lon": 34.7777715920001,
      "label": "\" סופר ברקת\" קיבוץ גלויות 106 תל אביב - תל אביב - יפו",
      "text": "",
      "stayTimes": "07:00 - 07:15",
      "t_start": "2020-04-06T05:00:00",
      "t_end": "2020-04-06T05:15:00",
      "link": ""
    },
    {
      "id": 439910,
      "lat": 32.042469,
      "lon": 34.78076,
      "label": "\"גלידה אמרקאית\" ישראל גורי 34 תל אביב - תל אביב - יפו",
      "text": "",
      "stayTimes": "10:30 - 10:40",
      "t_start": "2020-04-05T08:30:00",
      "t_end": "2020-04-05T08:40:00",
      "link": ""
    },
    {
      "id": 439911,
      "lat": 32.7846748000001,
      "lon": 34.9861212000001,
      "label": "רולדין - חיפה",
      "text": "",
      "stayTimes": "13:00 - 13:10",
      "t_start": "2020-04-10T11:00:00",
      "t_end": "2020-04-10T11:10:00",
      "link": ""
    },
    {
      "id": 439912,
      "lat": 32.7733010000001,
      "lon": 35.04452,
      "label": "מנטה תחנת דלק - נשר",
      "text": "",
      "stayTimes": "18:30 - 19:00",
      "t_start": "2020-04-07T16:30:00",
      "t_end": "2020-04-07T17:00:00",
      "link": ""
    },
    {
      "id": 439913,
      "lat": 31.9110217240001,
      "lon": 34.8064108790001,
      "label": "ויקטורי - רחובות",
      "text": "",
      "stayTimes": "17:30 - 18:30",
      "t_start": "2020-04-06T15:30:00",
      "t_end": "2020-04-06T16:30:00",
      "link": ""
    },
    {
      "id": 439914,
      "lat": 31.69806163,
      "lon": 35.1008720130001,
      "label": "סופר \" שבע ברכות השם\" - ביתר עילית",
      "text": "",
      "stayTimes": "08:30 - 09:30",
      "t_start": "2020-04-06T06:30:00",
      "t_end": "2020-04-06T07:30:00",
      "link": ""
    },
    {
      "id": 439915,
      "lat": 31.7051188,
      "lon": 35.1168587000001,
      "label": "סופר \"יש חסד\" - ביתר עילית",
      "text": "",
      "stayTimes": "12:30 - 13:00",
      "t_start": "2020-04-08T10:30:00",
      "t_end": "2020-04-08T11:00:00",
      "link": ""
    },
    {
      "id": 439916,
      "lat": 32.8163604000001,
      "lon": 34.9915912000001,
      "label": "בית אבות נוף הגפן - חיפה",
      "text": "",
      "stayTimes": "07:00 - 13:30",
      "t_start": "2020-04-08T05:00:00",
      "t_end": "2020-04-08T11:30:00",
      "link": ""
    },
    {
      "id": 439917,
      "lat": 32.7245491,
      "lon": 35.1139211,
      "label": "בית אבות מול כרמל בקיבוץ שער העמקים - שער העמקים",
      "text": "",
      "stayTimes": "15:00 - 23:00",
      "t_start": "2020-04-08T13:00:00",
      "t_end": "2020-04-08T21:00:00",
      "link": ""
    },
    {
      "id": 439918,
      "lat": 32.7884388000001,
      "lon": 34.9863803000001,
      "label": "דואר ישראל אחוזה (מוריה) - חיפה",
      "text": "",
      "stayTimes": "08:45 - 09:00",
      "t_start": "2020-04-07T06:45:00",
      "t_end": "2020-04-07T07:00:00",
      "link": ""
    },
    {
      "id": 439919,
      "lat": 32.7830556000001,
      "lon": 34.9594444000001,
      "label": "שופרסל פארק מתם - חיפה",
      "text": "",
      "stayTimes": "20:30 - 21:00",
      "t_start": "2020-04-07T18:30:00",
      "t_end": "2020-04-07T19:00:00",
      "link": ""
    },
    {
      "id": 439920,
      "lat": 32.8034440000001,
      "lon": 34.9857153,
      "label": "סופר פארם \"כיכר האודיטוריום\" - חיפה",
      "text": "",
      "stayTimes": "12:00 - 12:15",
      "t_start": "2020-04-10T10:00:00",
      "t_end": "2020-04-10T10:15:00",
      "link": ""
    },
    {
      "id": 439921,
      "lat": 32.8033077000001,
      "lon": 34.9859483000001,
      "label": "חנות \"היין והסיגר\" \"כיכר האודיטוריום\" - חיפה",
      "text": "",
      "stayTimes": "12:30 - 12:40",
      "t_start": "2020-04-10T10:30:00",
      "t_end": "2020-04-10T10:40:00",
      "link": ""
    },
    {
      "id": 439922,
      "lat": 32.803503791,
      "lon": 34.9860512920001,
      "label": "סופר מגה בעיר \"כיכר האודיטוריום\" - חיפה",
      "text": "",
      "stayTimes": "12:45 - 12:55",
      "t_start": "2020-04-10T10:45:00",
      "t_end": "2020-04-10T10:55:00",
      "link": ""
    },
    {
      "id": 439923,
      "lat": 32.8175226000001,
      "lon": 34.972657,
      "label": "מכולת שכונתית - חיפה",
      "text": "",
      "stayTimes": "15:00 - 15:15",
      "t_start": "2020-04-08T13:00:00",
      "t_end": "2020-04-08T13:15:00",
      "link": ""
    },
    {
      "id": 439924,
      "lat": 32.098810889,
      "lon": 34.9453303170001,
      "label": "תחנת משטרה - ראש העין",
      "text": "",
      "stayTimes": "07:30 - 16:00",
      "t_start": "2020-04-05T05:30:00",
      "t_end": "2020-04-05T14:00:00",
      "link": ""
    },
    {
      "id": 439925,
      "lat": 32.0988002,
      "lon": 34.9453306,
      "label": "תחנת משטרה - ראש העין",
      "text": "",
      "stayTimes": "07:30 - 16:00",
      "t_start": "2020-04-06T05:30:00",
      "t_end": "2020-04-06T14:00:00",
      "link": ""
    },
    {
      "id": 439926,
      "lat": 32.0988002,
      "lon": 34.9453306,
      "label": "תחנת משטרה - ראש העין",
      "text": "",
      "stayTimes": "07:30 - 16:00",
      "t_start": "2020-04-07T05:30:00",
      "t_end": "2020-04-07T14:00:00",
      "link": ""
    },
    {
      "id": 439927,
      "lat": 32.0988002,
      "lon": 34.9453306,
      "label": "תחנת משטרה - ראש העין",
      "text": "",
      "stayTimes": "07:30 - 11:00",
      "t_start": "2020-04-08T05:30:00",
      "t_end": "2020-04-08T09:00:00",
      "link": ""
    },
    {
      "id": 439928,
      "lat": 32.0552349000001,
      "lon": 34.9606875000001,
      "label": "סופר שפע - אלעד",
      "text": "",
      "stayTimes": "10:00 - 10:30",
      "t_start": "2020-04-05T08:00:00",
      "t_end": "2020-04-05T08:30:00",
      "link": ""
    },
    {
      "id": 439929,
      "lat": 31.7051188,
      "lon": 35.1168587000001,
      "label": "סופר יש חסד - ביתר עילית",
      "text": "",
      "stayTimes": "13:30 - 14:30",
      "t_start": "2020-04-05T11:30:00",
      "t_end": "2020-04-05T12:30:00",
      "link": ""
    },
    {
      "id": 439930,
      "lat": 31.9899838050001,
      "lon": 34.763943124,
      "label": "טיב טעם - ראשון לציון",
      "text": "",
      "stayTimes": "15:00 - 15:30",
      "t_start": "2020-04-07T13:00:00",
      "t_end": "2020-04-07T13:30:00",
      "link": ""
    },
    {
      "id": 439931,
      "lat": 31.7137227000001,
      "lon": 34.9984664,
      "label": "בנק הדואר רמת בית שמש - בית שמש",
      "text": "",
      "stayTimes": "12:30 - 13:30",
      "t_start": "2020-04-06T10:30:00",
      "t_end": "2020-04-06T11:30:00",
      "link": ""
    },
    {
      "id": 439932,
      "lat": 31.7142751000001,
      "lon": 34.9879125000001,
      "label": "בית מרקחת רפואה פארם רמה א - בית שמש",
      "text": "",
      "stayTimes": "13:30 - 14:00",
      "t_start": "2020-04-06T11:30:00",
      "t_end": "2020-04-06T12:00:00",
      "link": ""
    },
    {
      "id": 439933,
      "lat": 31.6932602360001,
      "lon": 35.11354685,
      "label": "כוילל סטור - ביתר עילית",
      "text": "",
      "stayTimes": "10:00 - 11:30",
      "t_start": "2020-04-05T08:00:00",
      "t_end": "2020-04-05T09:30:00",
      "link": ""
    },
    {
      "id": 439934,
      "lat": 31.9648014000001,
      "lon": 34.7920651000001,
      "label": "פיצריה ירושלמית - ראשון לציון",
      "text": "",
      "stayTimes": "13:00 - 22:00",
      "t_start": "2020-04-07T11:00:00",
      "t_end": "2020-04-07T20:00:00",
      "link": ""
    },
    {
      "id": 439935,
      "lat": 31.4231960000001,
      "lon": 34.5952540000001,
      "label": "נתיבות",
      "text": "",
      "stayTimes": "12:30 - 13:00",
      "t_start": "2020-04-06T10:30:00",
      "t_end": "2020-04-06T11:00:00",
      "link": ""
    },
    {
      "id": 439936,
      "lat": 31.7547715000001,
      "lon": 34.992852,
      "label": "חנות נוחות סונול - בית שמש",
      "text": "",
      "stayTimes": "11:30 - 12:00",
      "t_start": "2020-04-07T09:30:00",
      "t_end": "2020-04-07T10:00:00",
      "link": ""
    },
    {
      "id": 439937,
      "lat": 31.7545424910001,
      "lon": 34.9927935600001,
      "label": "קלית יבגי - בית שמש",
      "text": "",
      "stayTimes": "12:00 - 12:15",
      "t_start": "2020-04-07T10:00:00",
      "t_end": "2020-04-07T10:15:00",
      "link": ""
    },
    {
      "id": 439938,
      "lat": 31.7892954000001,
      "lon": 35.2064971,
      "label": "\"טרם\" - ירושלים",
      "text": "",
      "stayTimes": "13:00 - 13:30",
      "t_start": "2020-04-05T11:00:00",
      "t_end": "2020-04-05T11:30:00",
      "link": ""
    },
    {
      "id": 439939,
      "lat": 31.7892954000001,
      "lon": 35.2064971,
      "label": "\"טרם\" - ירושלים",
      "text": "",
      "stayTimes": "13:00 - 13:30",
      "t_start": "2020-04-05T11:00:00",
      "t_end": "2020-04-05T11:30:00",
      "link": ""
    },
    {
      "id": 439940,
      "lat": 32.50602381,
      "lon": 35.0584389740001,
      "label": "ג'יג'י פארם כפר קרע - כפר קרע",
      "text": "",
      "stayTimes": "14:45 - 15:15",
      "t_start": "2020-04-06T12:45:00",
      "t_end": "2020-04-06T13:15:00",
      "link": ""
    },
    {
      "id": 439941,
      "lat": 32.4582558000001,
      "lon": 35.0517596,
      "label": "מתחם בנייה ומגורים בצוותא חריש - חריש",
      "text": "",
      "stayTimes": "12:00 - 14:00",
      "t_start": "2020-04-08T10:00:00",
      "t_end": "2020-04-08T12:00:00",
      "link": ""
    },
    {
      "id": 439942,
      "lat": 32.4582558000001,
      "lon": 35.0517596,
      "label": "מתחם בניה ומגורים בצוותא חריש - חריש",
      "text": "",
      "stayTimes": "12:00 - 14:00",
      "t_start": "2020-04-07T10:00:00",
      "t_end": "2020-04-07T12:00:00",
      "link": ""
    },
    {
      "id": 439943,
      "lat": 31.2432213000001,
      "lon": 34.7989584000001,
      "label": "מכבי פארם סניף רכבת באר שבע - באר שבע",
      "text": "",
      "stayTimes": "12:00 - 15:00",
      "t_start": "2020-04-05T10:00:00",
      "t_end": "2020-04-05T13:00:00",
      "link": ""
    },
    {
      "id": 439944,
      "lat": 31.7360973,
      "lon": 34.9926081,
      "label": "קניון לב הרמה סופר יש חסד - בית שמש",
      "text": "",
      "stayTimes": "17:00 - 18:00",
      "t_start": "2020-04-05T15:00:00",
      "t_end": "2020-04-05T16:00:00",
      "link": ""
    },
    {
      "id": 439945,
      "lat": 31.71286739,
      "lon": 34.9876848660001,
      "label": "קופת חולים לאומית רמה א' - בית שמש",
      "text": "",
      "stayTimes": "10:00 - 10:30",
      "t_start": "2020-04-06T08:00:00",
      "t_end": "2020-04-06T08:30:00",
      "link": ""
    },
    {
      "id": 439946,
      "lat": 32.0779937,
      "lon": 34.8285547,
      "label": "בני תורה - בני ברק",
      "text": "",
      "stayTimes": "12:00 - 13:00",
      "t_start": "2020-04-06T10:00:00",
      "t_end": "2020-04-06T11:00:00",
      "link": ""
    },
    {
      "id": 439947,
      "lat": 32.0862216,
      "lon": 34.8530480000001,
      "label": "סופר ברקת - גבעת שמואל",
      "text": "",
      "stayTimes": "07:30 - 08:00",
      "t_start": "2020-04-08T05:30:00",
      "t_end": "2020-04-08T06:00:00",
      "link": ""
    },
    {
      "id": 439948,
      "lat": 31.2505170000001,
      "lon": 34.7840818,
      "label": "ספי דוג מרבד הקסמים ב\"ש - באר שבע",
      "text": "",
      "stayTimes": "12:00 - 15:00",
      "t_start": "2020-04-06T10:00:00",
      "t_end": "2020-04-06T13:00:00",
      "link": ""
    },
    {
      "id": 439949,
      "lat": 31.7967271750001,
      "lon": 35.242129306,
      "label": "בית חולים הדסה עין כרם - ירושלים",
      "text": "",
      "stayTimes": "06:00 - 14:00",
      "t_start": "2020-04-05T04:00:00",
      "t_end": "2020-04-05T12:00:00",
      "link": ""
    },
    {
      "id": 439950,
      "lat": 31.764661303,
      "lon": 35.148473337,
      "label": "בית חולים הדסה עין כרם - ירושלים",
      "text": "",
      "stayTimes": "06:00 - 14:00",
      "t_start": "2020-04-06T04:00:00",
      "t_end": "2020-04-06T12:00:00",
      "link": ""
    },
    {
      "id": 439951,
      "lat": 31.9005931990001,
      "lon": 34.814680293,
      "label": "בית חולים הדסה עין כרם - ירושלים",
      "text": "",
      "stayTimes": "06:00 - 14:00",
      "t_start": "2020-04-07T04:00:00",
      "t_end": "2020-04-07T12:00:00",
      "link": ""
    },
    {
      "id": 439952,
      "lat": 31.7646485650001,
      "lon": 35.149663376,
      "label": "בית חולים הדסה עין כרם - ירושלים",
      "text": "",
      "stayTimes": "06:00 - 14:00",
      "t_start": "2020-04-08T04:00:00",
      "t_end": "2020-04-08T12:00:00",
      "link": ""
    },
    {
      "id": 439953,
      "lat": 32.0891032000001,
      "lon": 34.8380488,
      "label": "שפע ברכת השם - בני ברק",
      "text": "",
      "stayTimes": "22:00 - 22:30",
      "t_start": "2020-04-07T20:00:00",
      "t_end": "2020-04-07T20:30:00",
      "link": ""
    },
    {
      "id": 439954,
      "lat": 32.3220808740001,
      "lon": 34.8715314300001,
      "label": "רמי לוי - נתניה",
      "text": "",
      "stayTimes": "17:30 - 18:30",
      "t_start": "2020-04-13T15:30:00",
      "t_end": "2020-04-13T16:30:00",
      "link": ""
    },
    {
      "id": 439955,
      "lat": 32.6486540000001,
      "lon": 35.288241,
      "label": "בית אבות אור העמק - מזרע",
      "text": "",
      "stayTimes": "07:00 - 10:30",
      "t_start": "2020-04-17T05:00:00",
      "t_end": "2020-04-17T08:30:00",
      "link": ""
    },
    {
      "id": 439956,
      "lat": 32.4612614330001,
      "lon": 34.9720260770001,
      "label": "מעון לאנשים עם צרכים מיוחדים - פרדס חנה-כרכור",
      "text": "",
      "stayTimes": "09:00 - 18:00",
      "t_start": "2020-04-05T07:00:00",
      "t_end": "2020-04-05T16:00:00",
      "link": ""
    },
    {
      "id": 439957,
      "lat": 31.958583,
      "lon": 34.792875,
      "label": "בית אבות הבולגרי - ראשון לציון",
      "text": "",
      "stayTimes": "07:00 - 15:00",
      "t_start": "2020-04-10T05:00:00",
      "t_end": "2020-04-10T13:00:00",
      "link": ""
    },
    {
      "id": 439958,
      "lat": 32.7940463,
      "lon": 34.9895710000001,
      "label": "עיריית חיפה - חיפה",
      "text": "",
      "stayTimes": "08:00 - 13:30",
      "t_start": "2020-04-07T06:00:00",
      "t_end": "2020-04-07T11:30:00",
      "link": ""
    },
    {
      "id": 439959,
      "lat": 32.8204286000001,
      "lon": 34.9589282000001,
      "label": "יש - חיפה",
      "text": "",
      "stayTimes": "16:00 - 16:10",
      "t_start": "2020-04-05T14:00:00",
      "t_end": "2020-04-05T14:10:00",
      "link": ""
    },
    {
      "id": 439960,
      "lat": 32.8204286000001,
      "lon": 34.9589282000001,
      "label": "יש - חיפה",
      "text": "",
      "stayTimes": "16:00 - 16:10",
      "t_start": "2020-04-05T14:00:00",
      "t_end": "2020-04-05T14:10:00",
      "link": ""
    },
    {
      "id": 439961,
      "lat": 32.084959,
      "lon": 34.8440880000001,
      "label": "מעייני הישועה - בני ברק",
      "text": "",
      "stayTimes": "07:00 - 19:00",
      "t_start": "2020-04-05T05:00:00",
      "t_end": "2020-04-05T17:00:00",
      "link": ""
    },
    {
      "id": 439962,
      "lat": 32.084959,
      "lon": 34.8440880000001,
      "label": "מעייני הישועה - בני ברק",
      "text": "",
      "stayTimes": "07:00 - 19:00",
      "t_start": "2020-04-06T05:00:00",
      "t_end": "2020-04-06T17:00:00",
      "link": ""
    },
    {
      "id": 439963,
      "lat": 32.084959,
      "lon": 34.8440880000001,
      "label": "מעייני הישועה - בני ברק",
      "text": "",
      "stayTimes": "07:00 - 19:00",
      "t_start": "2020-04-07T05:00:00",
      "t_end": "2020-04-07T17:00:00",
      "link": ""
    },
    {
      "id": 439964,
      "lat": 32.0770430000001,
      "lon": 34.841146,
      "label": "מאפיית מסורת - בני ברק",
      "text": "",
      "stayTimes": "08:00 - 15:30",
      "t_start": "2020-04-08T06:00:00",
      "t_end": "2020-04-08T13:30:00",
      "link": ""
    },
    {
      "id": 439965,
      "lat": 32.0908013000001,
      "lon": 34.8389312,
      "label": "יש - בני ברק - בני ברק",
      "text": "",
      "stayTimes": "12:00 - 14:00",
      "t_start": "2020-04-10T10:00:00",
      "t_end": "2020-04-10T12:00:00",
      "link": ""
    },
    {
      "id": 439966,
      "lat": 31.7744048500001,
      "lon": 35.185934205,
      "label": "בי\"ח שערי צדק+- מיון ביולוגי - ירושלים",
      "text": "",
      "stayTimes": "08:00 - 16:00",
      "t_start": "2020-04-06T06:00:00",
      "t_end": "2020-04-06T14:00:00",
      "link": ""
    },
    {
      "id": 439967,
      "lat": 31.7511262,
      "lon": 35.2154249000001,
      "label": "סופר רמי לוי - ירושלים",
      "text": "",
      "stayTimes": "08:00 - 09:00",
      "t_start": "2020-04-07T06:00:00",
      "t_end": "2020-04-07T07:00:00",
      "link": ""
    },
    {
      "id": 439968,
      "lat": 31.79218568,
      "lon": 35.2099435710001,
      "label": "שערי רווחה סופר - ירושלים",
      "text": "",
      "stayTimes": "22:30 - 23:00",
      "t_start": "2020-04-07T20:30:00",
      "t_end": "2020-04-07T21:00:00",
      "link": ""
    },
    {
      "id": 439969,
      "lat": 31.7866726,
      "lon": 35.2248145,
      "label": "שומרי חומות - ירושלים",
      "text": "",
      "stayTimes": "07:00 - 23:00",
      "t_start": "2020-04-08T05:00:00",
      "t_end": "2020-04-08T21:00:00",
      "link": ""
    },
    {
      "id": 439970,
      "lat": 31.8031149380001,
      "lon": 35.2161618120001,
      "label": "שומרי חומות - ירושלים",
      "text": "",
      "stayTimes": "07:00 - 23:30",
      "t_start": "2020-04-09T05:00:00",
      "t_end": "2020-04-09T21:30:00",
      "link": ""
    },
    {
      "id": 439971,
      "lat": 31.9375099000001,
      "lon": 34.8864369,
      "label": "יוחננוף - רמלה",
      "text": "",
      "stayTimes": "14:45 - 15:45",
      "t_start": "2020-04-05T12:45:00",
      "t_end": "2020-04-05T13:45:00",
      "link": ""
    },
    {
      "id": 439972,
      "lat": 31.9266720000001,
      "lon": 34.8777440000001,
      "label": "סופר פארם - רמלה",
      "text": "",
      "stayTimes": "13:20 - 13:30",
      "t_start": "2020-04-10T11:20:00",
      "t_end": "2020-04-10T11:30:00",
      "link": ""
    },
    {
      "id": 439973,
      "lat": 31.8117019000001,
      "lon": 34.6571174000001,
      "label": "קנקון- חנות בשרים - אשדוד",
      "text": "",
      "stayTimes": "13:00 - 13:30",
      "t_start": "2020-04-06T11:00:00",
      "t_end": "2020-04-06T11:30:00",
      "link": ""
    },
    {
      "id": 439974,
      "lat": 31.7649503000001,
      "lon": 35.1494106000001,
      "label": "הדסה עין כרם - ירושלים",
      "text": "",
      "stayTimes": "08:00 - 23:30",
      "t_start": "2020-04-06T06:00:00",
      "t_end": "2020-04-06T21:30:00",
      "link": ""
    },
    {
      "id": 439975,
      "lat": 32.0543710000001,
      "lon": 34.872843,
      "label": "הגבעה 27, סביון",
      "text": "",
      "stayTimes": "07:00 - 15:30",
      "t_start": "2020-04-06T05:00:00",
      "t_end": "2020-04-06T13:30:00",
      "link": ""
    },
    {
      "id": 439976,
      "lat": 31.7919167000001,
      "lon": 35.2045525,
      "label": "שערי רווחה - ירושלים",
      "text": "",
      "stayTimes": "18:00 - 23:30",
      "t_start": "2020-04-05T16:00:00",
      "t_end": "2020-04-05T21:30:00",
      "link": ""
    },
    {
      "id": 439977,
      "lat": 31.7919167000001,
      "lon": 35.2045525,
      "label": "שערי רווחה - ירושלים",
      "text": "",
      "stayTimes": "09:00 - 11:00",
      "t_start": "2020-04-06T07:00:00",
      "t_end": "2020-04-06T09:00:00",
      "link": ""
    },
    {
      "id": 439978,
      "lat": 31.6928594720001,
      "lon": 35.109663832,
      "label": "מכולת חסד לאלפים - ביתר עילית",
      "text": "",
      "stayTimes": "06:30 - 15:00",
      "t_start": "2020-04-06T04:30:00",
      "t_end": "2020-04-06T13:00:00",
      "link": ""
    },
    {
      "id": 439979,
      "lat": 31.8701646380001,
      "lon": 34.821669722,
      "label": "יוחננוף צומת בילו - קרית עקרון",
      "text": "",
      "stayTimes": "15:30 - 17:30",
      "t_start": "2020-04-06T13:30:00",
      "t_end": "2020-04-06T15:30:00",
      "link": ""
    },
    {
      "id": 439980,
      "lat": 32.0747840000001,
      "lon": 34.8372921000001,
      "label": "בית אבות ויזניץ - בני ברק",
      "text": "",
      "stayTimes": "08:00 - 16:30",
      "t_start": "2020-04-07T06:00:00",
      "t_end": "2020-04-07T14:30:00",
      "link": ""
    },
    {
      "id": 439981,
      "lat": 32.0747840000001,
      "lon": 34.8372921000001,
      "label": "בית אבות ויזניץ - בני ברק",
      "text": "",
      "stayTimes": "08:00 - 22:30",
      "t_start": "2020-04-08T06:00:00",
      "t_end": "2020-04-08T20:30:00",
      "link": ""
    },
    {
      "id": 439982,
      "lat": 32.0747840000001,
      "lon": 34.8372921000001,
      "label": "בית אבות ויזניץ - בני ברק",
      "text": "",
      "stayTimes": "08:00 - 22:30",
      "t_start": "2020-04-09T06:00:00",
      "t_end": "2020-04-09T20:30:00",
      "link": ""
    },
    {
      "id": 439983,
      "lat": 32.0747840000001,
      "lon": 34.8372921000001,
      "label": "בית אבות ויזניץ - בני ברק",
      "text": "",
      "stayTimes": "08:00 - 16:00",
      "t_start": "2020-04-06T06:00:00",
      "t_end": "2020-04-06T14:00:00",
      "link": ""
    },
    {
      "id": 439984,
      "lat": 31.7889897630001,
      "lon": 35.2018585010001,
      "label": "בנק הדאר - ירושלים",
      "text": "",
      "stayTimes": "07:30 - 13:00",
      "t_start": "2020-04-10T05:30:00",
      "t_end": "2020-04-10T11:00:00",
      "link": ""
    },
    {
      "id": 439985,
      "lat": 31.8170118670001,
      "lon": 35.1948838530001,
      "label": "שוק העיר, קניון רמות - ירושלים",
      "text": "",
      "stayTimes": "13:15 - 13:45",
      "t_start": "2020-04-10T11:15:00",
      "t_end": "2020-04-10T11:45:00",
      "link": ""
    },
    {
      "id": 439986,
      "lat": 32.974255038,
      "lon": 35.2230471990001,
      "label": "תחנת דלק בג'ת סאן - ג'ת",
      "text": "",
      "stayTimes": "11:00 - 11:30",
      "t_start": "2020-04-07T09:00:00",
      "t_end": "2020-04-07T09:30:00",
      "link": ""
    },
    {
      "id": 439987,
      "lat": 31.7885096310001,
      "lon": 34.644733264,
      "label": "מאניה - אשדוד",
      "text": "",
      "stayTimes": "13:30 - 14:00",
      "t_start": "2020-04-06T11:30:00",
      "t_end": "2020-04-06T12:00:00",
      "link": ""
    },
    {
      "id": 439988,
      "lat": 31.8142139,
      "lon": 34.7764126000001,
      "label": "מעון מוריה - גדרה",
      "text": "",
      "stayTimes": "08:00 - 08:30",
      "t_start": "2020-04-08T06:00:00",
      "t_end": "2020-04-08T06:30:00",
      "link": ""
    },
    {
      "id": 439989,
      "lat": 31.7675203000001,
      "lon": 35.2953086000001,
      "label": "טרם - מעלה אדומים",
      "text": "",
      "stayTimes": "15:00 - 23:30",
      "t_start": "2020-04-06T13:00:00",
      "t_end": "2020-04-06T21:30:00",
      "link": ""
    },
    {
      "id": 439990,
      "lat": 31.6948502000001,
      "lon": 35.1181495000001,
      "label": "טרם - ביתר עילית",
      "text": "",
      "stayTimes": "19:00 - 23:30",
      "t_start": "2020-04-07T17:00:00",
      "t_end": "2020-04-07T21:30:00",
      "link": ""
    },
    {
      "id": 439991,
      "lat": 31.7566910000001,
      "lon": 34.98792,
      "label": "טרם ומוקד - בית שמש",
      "text": "",
      "stayTimes": "08:00 - 22:00",
      "t_start": "2020-04-08T06:00:00",
      "t_end": "2020-04-08T20:00:00",
      "link": ""
    },
    {
      "id": 439992,
      "lat": 31.714425582,
      "lon": 34.987793627,
      "label": "מאפיית נחמה - בית שמש",
      "text": "",
      "stayTimes": "23:00 - 23:30",
      "t_start": "2020-04-06T21:00:00",
      "t_end": "2020-04-06T21:30:00",
      "link": ""
    },
    {
      "id": 439993,
      "lat": 31.7841582470001,
      "lon": 35.208512388,
      "label": "YELLOW - ירושלים",
      "text": "",
      "stayTimes": "09:00 - 11:00",
      "t_start": "2020-04-07T07:00:00",
      "t_end": "2020-04-07T09:00:00",
      "link": ""
    },
    {
      "id": 439994,
      "lat": 31.7845158000001,
      "lon": 35.2103903,
      "label": "סופר צ'יפ - ירושלים",
      "text": "",
      "stayTimes": "20:00 - 21:00",
      "t_start": "2020-04-07T18:00:00",
      "t_end": "2020-04-07T19:00:00",
      "link": ""
    },
    {
      "id": 439995,
      "lat": 32.088034077,
      "lon": 34.8599886710001,
      "label": "יכין סנטר שופרסל פ\"ת - פתח תקווה",
      "text": "",
      "stayTimes": "22:00 - 23:00",
      "t_start": "2020-04-09T20:00:00",
      "t_end": "2020-04-09T21:00:00",
      "link": ""
    },
    {
      "id": 439996,
      "lat": 32.0834682,
      "lon": 34.8157170000001,
      "label": "ויקטורי קניון איילון - רמת גן",
      "text": "",
      "stayTimes": "15:00 - 16:00",
      "t_start": "2020-04-10T13:00:00",
      "t_end": "2020-04-10T14:00:00",
      "link": ""
    },
    {
      "id": 439997,
      "lat": 32.357862606,
      "lon": 35.0271061890001,
      "label": "סופר לארג' זמר - זמר",
      "text": "",
      "stayTimes": "09:00 - 11:00",
      "t_start": "2020-04-09T07:00:00",
      "t_end": "2020-04-09T09:00:00",
      "link": ""
    },
    {
      "id": 439998,
      "lat": 32.3582654000001,
      "lon": 35.0264863,
      "label": "סופר לארג' זמר - זמר",
      "text": "",
      "stayTimes": "11:00 - 17:00",
      "t_start": "2020-04-06T09:00:00",
      "t_end": "2020-04-06T15:00:00",
      "link": ""
    },
    {
      "id": 439999,
      "lat": 32.358104283,
      "lon": 35.0272015570001,
      "label": "סופר לארג' זמר - זמר",
      "text": "",
      "stayTimes": "11:00 - 17:00",
      "t_start": "2020-04-07T09:00:00",
      "t_end": "2020-04-07T15:00:00",
      "link": ""
    },
    {
      "id": 440000,
      "lat": 32.0899676000001,
      "lon": 34.8385091000001,
      "label": "שיווק ישיר - בני ברק",
      "text": "",
      "stayTimes": "23:30 - 00:00",
      "t_start": "2020-04-07T21:30:00",
      "t_end": "2020-04-07T22:00:00",
      "link": ""
    },
    {
      "id": 440001,
      "lat": 32.0830876000001,
      "lon": 34.8289867,
      "label": "שלומי פירות וירקות - בני ברק",
      "text": "",
      "stayTimes": "20:00 - 20:30",
      "t_start": "2020-04-07T18:00:00",
      "t_end": "2020-04-07T18:30:00",
      "link": ""
    },
    {
      "id": 440002,
      "lat": 32.0922033000001,
      "lon": 34.8335467000001,
      "label": "השקדייה - בני ברק",
      "text": "",
      "stayTimes": "23:00 - 23:30",
      "t_start": "2020-04-07T21:00:00",
      "t_end": "2020-04-07T21:30:00",
      "link": ""
    },
    {
      "id": 440003,
      "lat": 32.5331253000001,
      "lon": 35.1485816000001,
      "label": "בית מרקחת בשכונת אלשאגור ליד תחנת הדלק - אום אל-פחם",
      "text": "",
      "stayTimes": "11:00 - 12:00",
      "t_start": "2020-04-07T09:00:00",
      "t_end": "2020-04-07T10:00:00",
      "link": ""
    },
    {
      "id": 440004,
      "lat": 31.789191074,
      "lon": 35.215509539,
      "label": "קופת חולים לאומית, רחוב עמוס פינת מלכי ישראל. בבית מרקחת - ירושלים",
      "text": "",
      "stayTimes": "11:00 - 13:00",
      "t_start": "2020-04-07T09:00:00",
      "t_end": "2020-04-07T11:00:00",
      "link": ""
    },
    {
      "id": 440005,
      "lat": 31.811206812,
      "lon": 35.219663333,
      "label": "קופת חולים כללית - ירושלים",
      "text": "",
      "stayTimes": "10:30 - 11:00",
      "t_start": "2020-04-07T08:30:00",
      "t_end": "2020-04-07T09:00:00",
      "link": ""
    },
    {
      "id": 440006,
      "lat": 31.7992033400001,
      "lon": 35.206211759,
      "label": "ברכול - ירושלים",
      "text": "",
      "stayTimes": "13:00 - 13:30",
      "t_start": "2020-04-07T11:00:00",
      "t_end": "2020-04-07T11:30:00",
      "link": ""
    },
    {
      "id": 440007,
      "lat": 31.8112446000001,
      "lon": 34.6540808,
      "label": "יוחננוף - אשדוד",
      "text": "",
      "stayTimes": "12:00 - 15:00",
      "t_start": "2020-04-07T10:00:00",
      "t_end": "2020-04-07T13:00:00",
      "link": ""
    },
    {
      "id": 440008,
      "lat": 31.8408456000001,
      "lon": 35.2481814000001,
      "label": "שוק מהדרין יינות ביתן נווה יעקב - ירושלים",
      "text": "",
      "stayTimes": "11:00 - 12:30",
      "t_start": "2020-04-08T09:00:00",
      "t_end": "2020-04-08T10:30:00",
      "link": ""
    },
    {
      "id": 440009,
      "lat": 31.8407370740001,
      "lon": 35.250050645,
      "label": "צרכניית אביר יעקב - ירושלים",
      "text": "",
      "stayTimes": "10:00 - 11:00",
      "t_start": "2020-04-08T08:00:00",
      "t_end": "2020-04-08T09:00:00",
      "link": ""
    },
    {
      "id": 440010,
      "lat": 31.7808453000001,
      "lon": 35.2238573000001,
      "label": "מוקד עיריית ירושלים - ירושלים",
      "text": "",
      "stayTimes": "08:00 - 14:30",
      "t_start": "2020-04-08T06:00:00",
      "t_end": "2020-04-08T12:30:00",
      "link": ""
    },
    {
      "id": 440011,
      "lat": 31.7534878000001,
      "lon": 35.2130043000001,
      "label": "אושר עד - ירושלים",
      "text": "",
      "stayTimes": "08:00 - 09:00",
      "t_start": "2020-04-05T06:00:00",
      "t_end": "2020-04-05T07:00:00",
      "link": ""
    },
    {
      "id": 440012,
      "lat": 31.7651568000001,
      "lon": 35.1829921,
      "label": "סופר שערי תורה - ירושלים",
      "text": "",
      "stayTimes": "09:30 - 10:00",
      "t_start": "2020-04-05T07:30:00",
      "t_end": "2020-04-05T08:00:00",
      "link": ""
    },
    {
      "id": 440013,
      "lat": 31.266476857,
      "lon": 34.800399498,
      "label": "מכולת שכונתית - באר שבע",
      "text": "",
      "stayTimes": "14:00 - 14:30",
      "t_start": "2020-04-06T12:00:00",
      "t_end": "2020-04-06T12:30:00",
      "link": ""
    },
    {
      "id": 440014,
      "lat": 31.2399585000001,
      "lon": 34.7938263,
      "label": "מחסני השוק בית אשל - באר שבע",
      "text": "",
      "stayTimes": "12:00 - 14:00",
      "t_start": "2020-04-06T10:00:00",
      "t_end": "2020-04-06T12:00:00",
      "link": ""
    },
    {
      "id": 440015,
      "lat": 31.7672563,
      "lon": 35.3014487,
      "label": "יינות ביתן -סופר - מעלה אדומים",
      "text": "",
      "stayTimes": "09:00 - 10:00",
      "t_start": "2020-04-05T07:00:00",
      "t_end": "2020-04-05T08:00:00",
      "link": ""
    },
    {
      "id": 440016,
      "lat": 32.1052778000001,
      "lon": 34.8944444000001,
      "label": "סופר יוחננוף - פתח תקווה",
      "text": "",
      "stayTimes": "08:00 - 16:30",
      "t_start": "2020-04-05T06:00:00",
      "t_end": "2020-04-05T14:30:00",
      "link": ""
    },
    {
      "id": 440017,
      "lat": 32.1052778000001,
      "lon": 34.8944444000001,
      "label": "סופר יוחננוף - פתח תקווה",
      "text": "",
      "stayTimes": "08:20 - 20:15",
      "t_start": "2020-04-06T06:20:00",
      "t_end": "2020-04-06T18:15:00",
      "link": ""
    },
    {
      "id": 440018,
      "lat": 31.773199,
      "lon": 35.185261,
      "label": "מח' גריאטרית שע\"צ - ירושלים",
      "text": "",
      "stayTimes": "08:00 - 08:30",
      "t_start": "2020-04-08T06:00:00",
      "t_end": "2020-04-08T06:30:00",
      "link": ""
    },
    {
      "id": 440019,
      "lat": 32.0530444560001,
      "lon": 34.9613862370001,
      "label": "יינות ביתן - אלעד",
      "text": "",
      "stayTimes": "07:00 - 13:00",
      "t_start": "2020-04-08T05:00:00",
      "t_end": "2020-04-08T11:00:00",
      "link": ""
    },
    {
      "id": 440020,
      "lat": 31.798347,
      "lon": 35.2146930000001,
      "label": "עזרת תורה 2, ירושלים",
      "text": "",
      "stayTimes": "08:00 - 08:30",
      "t_start": "2020-04-10T06:00:00",
      "t_end": "2020-04-10T06:30:00",
      "link": ""
    },
    {
      "id": 440021,
      "lat": 32.1058370000001,
      "lon": 34.8923941,
      "label": "סופר אושר עד - פתח תקווה",
      "text": "",
      "stayTimes": "07:30 - 13:00",
      "t_start": "2020-04-05T05:30:00",
      "t_end": "2020-04-05T11:00:00",
      "link": ""
    },
    {
      "id": 440022,
      "lat": 32.9236277000001,
      "lon": 35.3080387000001,
      "label": "רמי לוי - כרמיאל",
      "text": "",
      "stayTimes": "23:00 - 23:30",
      "t_start": "2020-04-07T21:00:00",
      "t_end": "2020-04-07T21:30:00",
      "link": ""
    },
    {
      "id": 440023,
      "lat": 32.8618235000001,
      "lon": 35.0982910000001,
      "label": "אושר עד - קרית ביאליק",
      "text": "",
      "stayTimes": "13:00 - 13:30",
      "t_start": "2020-04-06T11:00:00",
      "t_end": "2020-04-06T11:30:00",
      "link": ""
    },
    {
      "id": 440024,
      "lat": 31.2576606000001,
      "lon": 34.7678661,
      "label": "שופרסל דיל קניון שאול המלך - באר שבע",
      "text": "",
      "stayTimes": "09:00 - 10:00",
      "t_start": "2020-04-10T07:00:00",
      "t_end": "2020-04-10T08:00:00",
      "link": ""
    },
    {
      "id": 440025,
      "lat": 31.783149092,
      "lon": 35.1786684310001,
      "label": "מכולת ויזניץ - ירושלים",
      "text": "",
      "stayTimes": "12:00 - 16:00",
      "t_start": "2020-04-05T10:00:00",
      "t_end": "2020-04-05T14:00:00",
      "link": ""
    },
    {
      "id": 440026,
      "lat": 32.098961606,
      "lon": 34.8304834240001,
      "label": "סופר אושר עד - בני ברק",
      "text": "",
      "stayTimes": "10:30 - 12:00",
      "t_start": "2020-04-06T08:30:00",
      "t_end": "2020-04-06T10:00:00",
      "link": ""
    },
    {
      "id": 440027,
      "lat": 31.816270192,
      "lon": 35.250043158,
      "label": "קופ\"ח כללית - ירושלים",
      "text": "",
      "stayTimes": "08:30 - 09:00",
      "t_start": "2020-04-06T06:30:00",
      "t_end": "2020-04-06T07:00:00",
      "link": ""
    },
    {
      "id": 440028,
      "lat": 31.753439144,
      "lon": 35.2131473520001,
      "label": "קניון הדר - אושר עד - ירושלים",
      "text": "",
      "stayTimes": "12:00 - 14:00",
      "t_start": "2020-04-05T10:00:00",
      "t_end": "2020-04-05T12:00:00",
      "link": ""
    },
    {
      "id": 440029,
      "lat": 31.81624514,
      "lon": 35.250021458,
      "label": "קופ\"ח כללית - ירושלים",
      "text": "",
      "stayTimes": "08:30 - 10:00",
      "t_start": "2020-04-06T06:30:00",
      "t_end": "2020-04-06T08:00:00",
      "link": ""
    },
    {
      "id": 440030,
      "lat": 31.690607507,
      "lon": 35.10848851,
      "label": "חנות \"שפע ברכת האל\" - ביתר עילית",
      "text": "",
      "stayTimes": "13:50 - 14:10",
      "t_start": "2020-04-10T11:50:00",
      "t_end": "2020-04-10T12:10:00",
      "link": ""
    },
    {
      "id": 440031,
      "lat": 31.8084006500001,
      "lon": 35.220103921,
      "label": "תחנת טיפת חלב 29 - ירושלים",
      "text": "",
      "stayTimes": "13:00 - 19:00",
      "t_start": "2020-04-05T11:00:00",
      "t_end": "2020-04-05T17:00:00",
      "link": ""
    },
    {
      "id": 440032,
      "lat": 31.6929213450001,
      "lon": 35.109670984,
      "label": "צרכניית חסד לאלפים - ביתר עילית",
      "text": "",
      "stayTimes": "07:00 - 08:00",
      "t_start": "2020-04-06T05:00:00",
      "t_end": "2020-04-06T06:00:00",
      "link": ""
    },
    {
      "id": 440033,
      "lat": 31.6929193170001,
      "lon": 35.1096566790001,
      "label": "צרכניית  חסד לאלפים - ביתר עילית",
      "text": "",
      "stayTimes": "08:00 - 08:30",
      "t_start": "2020-04-06T06:00:00",
      "t_end": "2020-04-06T06:30:00",
      "link": ""
    },
    {
      "id": 440034,
      "lat": 31.693066587,
      "lon": 35.1096842580001,
      "label": "צרכניית  חסד לאלופים - ביתר עילית",
      "text": "",
      "stayTimes": "07:00 - 07:30",
      "t_start": "2020-04-08T05:00:00",
      "t_end": "2020-04-08T05:30:00",
      "link": ""
    },
    {
      "id": 440035,
      "lat": 31.6962839,
      "lon": 35.1177878,
      "label": "צרכיית שפע ברכת השם - ביתר עילית",
      "text": "",
      "stayTimes": "07:00 - 07:30",
      "t_start": "2020-04-07T05:00:00",
      "t_end": "2020-04-07T05:30:00",
      "link": ""
    },
    {
      "id": 440036,
      "lat": 31.7051188,
      "lon": 35.1168587000001,
      "label": "צרכנית יש חסד - ביתר עילית",
      "text": "",
      "stayTimes": "08:30 - 09:00",
      "t_start": "2020-04-07T06:30:00",
      "t_end": "2020-04-07T07:00:00",
      "link": ""
    },
    {
      "id": 440037,
      "lat": 31.6656187580001,
      "lon": 34.5670478480001,
      "label": "מאוחדת - אשקלון",
      "text": "",
      "stayTimes": "16:00 - 16:30",
      "t_start": "2020-04-07T14:00:00",
      "t_end": "2020-04-07T14:30:00",
      "link": ""
    },
    {
      "id": 440038,
      "lat": 31.665634992,
      "lon": 34.567055001,
      "label": "מאוחדת - אשקלון",
      "text": "",
      "stayTimes": "16:30 - 16:40",
      "t_start": "2020-04-05T14:30:00",
      "t_end": "2020-04-05T14:40:00",
      "link": ""
    },
    {
      "id": 440039,
      "lat": 31.7707530000001,
      "lon": 35.243902,
      "label": "קופ\"ח כללית אלחכמה - ירושלים",
      "text": "",
      "stayTimes": "09:30 - 10:00",
      "t_start": "2020-04-05T07:30:00",
      "t_end": "2020-04-05T08:00:00",
      "link": ""
    },
    {
      "id": 440040,
      "lat": 31.784478289,
      "lon": 35.2239904630001,
      "label": "קופת חולים כללית - ירושלים",
      "text": "",
      "stayTimes": "10:00 - 10:30",
      "t_start": "2020-04-07T08:00:00",
      "t_end": "2020-04-07T08:30:00",
      "link": ""
    },
    {
      "id": 440041,
      "lat": 32.2711266000001,
      "lon": 34.8889732000001,
      "label": "\"ביקור רופא\" - אבן יהודה",
      "text": "",
      "stayTimes": "20:00 - 20:20",
      "t_start": "2020-04-07T18:00:00",
      "t_end": "2020-04-07T18:20:00",
      "link": ""
    },
    {
      "id": 440042,
      "lat": 32.0520222590001,
      "lon": 34.9500734000001,
      "label": "מקווה - אלעד",
      "text": "",
      "stayTimes": "21:00 - 21:30",
      "t_start": "2020-04-11T19:00:00",
      "t_end": "2020-04-11T19:30:00",
      "link": ""
    },
    {
      "id": 440043,
      "lat": 32.1058370000001,
      "lon": 34.8923941,
      "label": "סופר - אושר עד - פתח תקווה",
      "text": "",
      "stayTimes": "06:30 - 17:00",
      "t_start": "2020-04-05T04:30:00",
      "t_end": "2020-04-05T15:00:00",
      "link": ""
    },
    {
      "id": 440044,
      "lat": 32.1058370000001,
      "lon": 34.8923941,
      "label": "סופר - אושר עד - פתח תקווה",
      "text": "",
      "stayTimes": "06:30 - 17:00",
      "t_start": "2020-04-06T04:30:00",
      "t_end": "2020-04-06T15:00:00",
      "link": ""
    },
    {
      "id": 440045,
      "lat": 32.1058370000001,
      "lon": 34.8923941,
      "label": "סופר - אושר עד - פתח תקווה",
      "text": "",
      "stayTimes": "06:30 - 17:00",
      "t_start": "2020-04-07T04:30:00",
      "t_end": "2020-04-07T15:00:00",
      "link": ""
    },
    {
      "id": 440046,
      "lat": 32.3221471300001,
      "lon": 34.98073587,
      "label": "מכולת - בארותיים",
      "text": "",
      "stayTimes": "13:30 - 15:50",
      "t_start": "2020-04-07T11:30:00",
      "t_end": "2020-04-07T13:50:00",
      "link": ""
    },
    {
      "id": 440047,
      "lat": 32.0791613000001,
      "lon": 34.8384143000001,
      "label": "יש חסד - בני ברק",
      "text": "",
      "stayTimes": "09:00 - 10:30",
      "t_start": "2020-04-07T07:00:00",
      "t_end": "2020-04-07T08:30:00",
      "link": ""
    },
    {
      "id": 440048,
      "lat": 32.1058543,
      "lon": 34.9402346000001,
      "label": "יינות ביתן - ראש העין",
      "text": "",
      "stayTimes": "14:30 - 15:30",
      "t_start": "2020-04-07T12:30:00",
      "t_end": "2020-04-07T13:30:00",
      "link": ""
    },
    {
      "id": 440049,
      "lat": 32.1080556000001,
      "lon": 34.9641667000001,
      "label": "ויקטורי פארק סיבל - ראש העין",
      "text": "",
      "stayTimes": "16:00 - 18:00",
      "t_start": "2020-04-06T14:00:00",
      "t_end": "2020-04-06T16:00:00",
      "link": ""
    },
    {
      "id": 440050,
      "lat": 31.6641894000001,
      "lon": 34.5632752000001,
      "label": "סופר ויקטורי אשקלון תחנה מרכזית רח בן גוריון 17 - אשקלון",
      "text": "",
      "stayTimes": "08:00 - 08:30",
      "t_start": "2020-04-06T06:00:00",
      "t_end": "2020-04-06T06:30:00",
      "link": ""
    },
    {
      "id": 440051,
      "lat": 31.799197,
      "lon": 35.2062189000001,
      "label": "ברכול - ירושלים",
      "text": "",
      "stayTimes": "13:00 - 13:30",
      "t_start": "2020-04-07T11:00:00",
      "t_end": "2020-04-07T11:30:00",
      "link": ""
    },
    {
      "id": 440052,
      "lat": 31.7843729030001,
      "lon": 35.223957086,
      "label": "קופת חולים כללית - ירושלים",
      "text": "",
      "stayTimes": "10:00 - 10:30",
      "t_start": "2020-04-07T08:00:00",
      "t_end": "2020-04-07T08:30:00",
      "link": ""
    },
    {
      "id": 440053,
      "lat": 31.8167972000001,
      "lon": 35.2024772,
      "label": "קופ\"ח כללית רמות - ירושלים",
      "text": "",
      "stayTimes": "11:00 - 12:15",
      "t_start": "2020-04-07T09:00:00",
      "t_end": "2020-04-07T10:15:00",
      "link": ""
    },
    {
      "id": 440054,
      "lat": 32.0529938,
      "lon": 34.9612355,
      "label": "יינות ביתן - אלעד",
      "text": "",
      "stayTimes": "07:00 - 17:00",
      "t_start": "2020-04-07T05:00:00",
      "t_end": "2020-04-07T15:00:00",
      "link": ""
    },
    {
      "id": 440055,
      "lat": 32.5972833000001,
      "lon": 34.949844,
      "label": "סופר \"חוואשי\" מנימרקט - פוריידיס",
      "text": "",
      "stayTimes": "14:00 - 14:30",
      "t_start": "2020-04-09T12:00:00",
      "t_end": "2020-04-09T12:30:00",
      "link": ""
    },
    {
      "id": 440056,
      "lat": 32.0282193,
      "lon": 34.7483546,
      "label": "בית אבות \"בית בלב\" מחלקה ב' שיקום אורטופדי - בת ים",
      "text": "",
      "stayTimes": "07:00 - 13:00",
      "t_start": "2020-04-09T05:00:00",
      "t_end": "2020-04-09T11:00:00",
      "link": ""
    },
    {
      "id": 440057,
      "lat": 32.052559,
      "lon": 34.9512194000001,
      "label": "סופר יש - אלעד",
      "text": "",
      "stayTimes": "11:00 - 12:00",
      "t_start": "2020-04-06T09:00:00",
      "t_end": "2020-04-06T10:00:00",
      "link": ""
    },
    {
      "id": 440058,
      "lat": 31.782977085,
      "lon": 35.1787483100001,
      "label": "מכולת ויזניץ - ירושלים",
      "text": "",
      "stayTimes": "12:00 - 16:00",
      "t_start": "2020-04-06T10:00:00",
      "t_end": "2020-04-06T14:00:00",
      "link": ""
    },
    {
      "id": 440059,
      "lat": 31.7879930060001,
      "lon": 35.1884990140001,
      "label": "סופר פארם - ירושלים",
      "text": "",
      "stayTimes": "12:00 - 13:30",
      "t_start": "2020-04-05T10:00:00",
      "t_end": "2020-04-05T11:30:00",
      "link": ""
    },
    {
      "id": 440060,
      "lat": 31.7909930000001,
      "lon": 35.1961147000001,
      "label": "שוק סיטונאי - ירושלים",
      "text": "",
      "stayTimes": "13:00 - 14:00",
      "t_start": "2020-04-05T11:00:00",
      "t_end": "2020-04-05T12:00:00",
      "link": ""
    },
    {
      "id": 440061,
      "lat": 31.762728125,
      "lon": 35.1978918450001,
      "label": "מכולת אחים יעקוב - ירושלים",
      "text": "",
      "stayTimes": "08:00 - 08:30",
      "t_start": "2020-04-07T06:00:00",
      "t_end": "2020-04-07T06:30:00",
      "link": ""
    },
    {
      "id": 440062,
      "lat": 31.7837281000001,
      "lon": 35.2170291,
      "label": "בנק מרכנתיל - ירושלים",
      "text": "",
      "stayTimes": "13:30 - 14:00",
      "t_start": "2020-04-07T11:30:00",
      "t_end": "2020-04-07T12:00:00",
      "link": ""
    },
    {
      "id": 440063,
      "lat": 32.047622334,
      "lon": 34.965932497,
      "label": "ברקול - אלעד",
      "text": "",
      "stayTimes": "18:00 - 18:30",
      "t_start": "2020-04-07T16:00:00",
      "t_end": "2020-04-07T16:30:00",
      "link": ""
    },
    {
      "id": 440064,
      "lat": 31.9368157000001,
      "lon": 35.0389028000001,
      "label": "סופרמרקט יש - מודיעין עילית",
      "text": "",
      "stayTimes": "12:00 - 17:00",
      "t_start": "2020-04-06T10:00:00",
      "t_end": "2020-04-06T15:00:00",
      "link": ""
    },
    {
      "id": 440065,
      "lat": 32.047711308,
      "lon": 34.9659318810001,
      "label": "סופר - ברכל - אלעד",
      "text": "",
      "stayTimes": "11:00 - 14:00",
      "t_start": "2020-04-05T09:00:00",
      "t_end": "2020-04-05T12:00:00",
      "link": ""
    },
    {
      "id": 440066,
      "lat": 31.7858421,
      "lon": 35.1873871,
      "label": "סופר רמי לוי גבעת שאול - ירושלים",
      "text": "",
      "stayTimes": "09:00 - 10:00",
      "t_start": "2020-04-06T07:00:00",
      "t_end": "2020-04-06T08:00:00",
      "link": ""
    },
    {
      "id": 440067,
      "lat": 31.7919167000001,
      "lon": 35.2045525,
      "label": "שערי רווחה - ירושלים",
      "text": "",
      "stayTimes": "14:00 - 15:00",
      "t_start": "2020-04-07T12:00:00",
      "t_end": "2020-04-07T13:00:00",
      "link": ""
    },
    {
      "id": 440068,
      "lat": 32.0804992610001,
      "lon": 34.8545146480001,
      "label": "הנשיא 75, גבעת שמואל",
      "text": "",
      "stayTimes": "12:00 - 12:30",
      "t_start": "2020-04-05T10:00:00",
      "t_end": "2020-04-05T10:30:00",
      "link": ""
    },
    {
      "id": 440069,
      "lat": 32.0989222320001,
      "lon": 34.829734918,
      "label": "\"אושר עד\" - בני ברק",
      "text": "",
      "stayTimes": "10:00 - 12:00",
      "t_start": "2020-04-06T08:00:00",
      "t_end": "2020-04-06T10:00:00",
      "link": ""
    },
    {
      "id": 440070,
      "lat": 32.0464889560001,
      "lon": 34.9588564430001,
      "label": "מרכול - בזול שפע - אלעד",
      "text": "",
      "stayTimes": "02:00 - 02:20",
      "t_start": "2020-04-06T00:00:00",
      "t_end": "2020-04-06T00:20:00",
      "link": ""
    },
    {
      "id": 440071,
      "lat": 32.0475711,
      "lon": 34.9659382,
      "label": "מרכול - בבר כל שמעון הצדיק - אלעד",
      "text": "",
      "stayTimes": "07:00 - 08:30",
      "t_start": "2020-04-05T05:00:00",
      "t_end": "2020-04-05T06:30:00",
      "link": ""
    },
    {
      "id": 440072,
      "lat": 32.0878644000001,
      "lon": 34.8597884000001,
      "label": "סופר סל דיל - יכין סנטר - פתח תקווה",
      "text": "",
      "stayTimes": "17:00 - 18:00",
      "t_start": "2020-04-06T15:00:00",
      "t_end": "2020-04-06T16:00:00",
      "link": ""
    },
    {
      "id": 440073,
      "lat": 32.0862216,
      "lon": 34.8530480000001,
      "label": "סופר ברקת - פתח תקווה",
      "text": "",
      "stayTimes": "14:00 - 16:30",
      "t_start": "2020-04-06T12:00:00",
      "t_end": "2020-04-06T14:30:00",
      "link": ""
    },
    {
      "id": 440074,
      "lat": 32.0569530000001,
      "lon": 34.8688528000001,
      "label": "מגה בעיר גבעת סביון - גני תקווה",
      "text": "",
      "stayTimes": "17:30 - 18:00",
      "t_start": "2020-04-05T15:30:00",
      "t_end": "2020-04-05T16:00:00",
      "link": ""
    },
    {
      "id": 440075,
      "lat": 32.0569576120001,
      "lon": 34.868852197,
      "label": "מגה בעיר גבעת סביון - גני תקווה",
      "text": "",
      "stayTimes": "10:00 - 11:30",
      "t_start": "2020-04-06T08:00:00",
      "t_end": "2020-04-06T09:30:00",
      "link": ""
    },
    {
      "id": 440076,
      "lat": 32.9236277000001,
      "lon": 35.3080387000001,
      "label": "רמי לוי - כרמיאל",
      "text": "",
      "stayTimes": "15:30 - 16:00",
      "t_start": "2020-04-06T13:30:00",
      "t_end": "2020-04-06T14:00:00",
      "link": ""
    },
    {
      "id": 440077,
      "lat": 32.07454561,
      "lon": 34.8373731620001,
      "label": "בית אבות ויזניץ - בני ברק",
      "text": "",
      "stayTimes": "08:00 - 14:00",
      "t_start": "2020-04-12T06:00:00",
      "t_end": "2020-04-12T12:00:00",
      "link": ""
    },
    {
      "id": 440078,
      "lat": 31.7534878000001,
      "lon": 35.2130043000001,
      "label": "אושר עד - סופר - ירושלים",
      "text": "",
      "stayTimes": "18:00 - 18:30",
      "t_start": "2020-04-07T16:00:00",
      "t_end": "2020-04-07T16:30:00",
      "link": ""
    },
    {
      "id": 440079,
      "lat": 32.1656065120001,
      "lon": 34.8419028430001,
      "label": "בית מרקחת של מאוחדת - הרצליה",
      "text": "",
      "stayTimes": "10:00 - 10:30",
      "t_start": "2020-04-07T08:00:00",
      "t_end": "2020-04-07T08:30:00",
      "link": ""
    },
    {
      "id": 440080,
      "lat": 32.1820514250001,
      "lon": 34.875457603,
      "label": "בית מרקחת שועלי  של כללית - רעננה",
      "text": "",
      "stayTimes": "11:00 - 12:00",
      "t_start": "2020-04-06T09:00:00",
      "t_end": "2020-04-06T10:00:00",
      "link": ""
    },
    {
      "id": 440081,
      "lat": 32.1672802000001,
      "lon": 34.8401166,
      "label": "בית מרקחת מכבי - הרצליה",
      "text": "",
      "stayTimes": "09:00 - 10:00",
      "t_start": "2020-04-06T07:00:00",
      "t_end": "2020-04-06T08:00:00",
      "link": ""
    },
    {
      "id": 440082,
      "lat": 32.1678024,
      "lon": 34.8457208,
      "label": "בית מרקחת לאומית - הרצליה",
      "text": "",
      "stayTimes": "10:00 - 11:00",
      "t_start": "2020-04-06T08:00:00",
      "t_end": "2020-04-06T09:00:00",
      "link": ""
    },
    {
      "id": 440083,
      "lat": 32.0090266,
      "lon": 34.8053370000001,
      "label": "טכנוטרייד - חולון",
      "text": "",
      "stayTimes": "11:00 - 12:00",
      "t_start": "2020-04-05T09:00:00",
      "t_end": "2020-04-05T10:00:00",
      "link": ""
    },
    {
      "id": 440084,
      "lat": 32.5226036,
      "lon": 35.1595666000001,
      "label": "בסמאן פארם - אום אל-פחם",
      "text": "",
      "stayTimes": "16:30 - 17:00",
      "t_start": "2020-04-07T14:30:00",
      "t_end": "2020-04-07T15:00:00",
      "link": ""
    },
    {
      "id": 440085,
      "lat": 31.7852473730001,
      "lon": 35.183015734,
      "label": "אושר עד - ירושלים",
      "text": "",
      "stayTimes": "12:00 - 14:00",
      "t_start": "2020-04-07T10:00:00",
      "t_end": "2020-04-07T12:00:00",
      "link": ""
    },
    {
      "id": 440086,
      "lat": 32.5099722860001,
      "lon": 35.1354143410001,
      "label": "מאפיית ומינימרקט אלפאכורי כניסת עין ג'ראר - אום אל-פחם",
      "text": "",
      "stayTimes": "09:00 - 09:15",
      "t_start": "2020-04-09T07:00:00",
      "t_end": "2020-04-09T07:15:00",
      "link": ""
    },
    {
      "id": 440087,
      "lat": 32.010113839,
      "lon": 34.8096986400001,
      "label": "חצי חינם - חולון",
      "text": "",
      "stayTimes": "11:00 - 12:30",
      "t_start": "2020-04-07T09:00:00",
      "t_end": "2020-04-07T10:30:00",
      "link": ""
    },
    {
      "id": 440088,
      "lat": 32.019035161,
      "lon": 34.7706672,
      "label": "בנק הפועלים - חולון",
      "text": "",
      "stayTimes": "10:00 - 10:30",
      "t_start": "2020-04-07T08:00:00",
      "t_end": "2020-04-07T08:30:00",
      "link": ""
    },
    {
      "id": 440089,
      "lat": 31.8119948680001,
      "lon": 34.662942817,
      "label": "סופר אושר עד - אשדוד",
      "text": "",
      "stayTimes": "07:30 - 09:00",
      "t_start": "2020-04-07T05:30:00",
      "t_end": "2020-04-07T07:00:00",
      "link": ""
    },
    {
      "id": 440090,
      "lat": 31.7631179000001,
      "lon": 35.2293939,
      "label": "קופת חולים כללית, אבו טור - ירושלים",
      "text": "",
      "stayTimes": "17:30 - 18:30",
      "t_start": "2020-04-06T15:30:00",
      "t_end": "2020-04-06T16:30:00",
      "link": ""
    },
    {
      "id": 440091,
      "lat": 31.7631179000001,
      "lon": 35.2293939,
      "label": "קופת חולים כללית אבו טור - ירושלים",
      "text": "",
      "stayTimes": "18:30 - 19:30",
      "t_start": "2020-04-08T16:30:00",
      "t_end": "2020-04-08T17:30:00",
      "link": ""
    },
    {
      "id": 440092,
      "lat": 32.3119181660001,
      "lon": 34.856667112,
      "label": "שוק מהדרין - נתניה",
      "text": "",
      "stayTimes": "07:00 - 07:10",
      "t_start": "2020-04-05T05:00:00",
      "t_end": "2020-04-05T05:10:00",
      "link": ""
    },
    {
      "id": 440093,
      "lat": 31.93753918,
      "lon": 34.886428139,
      "label": "יוחננוף - רמלה",
      "text": "",
      "stayTimes": "15:00 - 16:00",
      "t_start": "2020-04-05T13:00:00",
      "t_end": "2020-04-05T14:00:00",
      "link": ""
    },
    {
      "id": 440094,
      "lat": 32.0715859000001,
      "lon": 34.8385343,
      "label": "עשר תעשר - בני ברק",
      "text": "",
      "stayTimes": "10:00 - 10:30",
      "t_start": "2020-04-08T08:00:00",
      "t_end": "2020-04-08T08:30:00",
      "link": ""
    },
    {
      "id": 440095,
      "lat": 32.0785626000001,
      "lon": 34.8408496000001,
      "label": "אשפר בשר - בני ברק",
      "text": "",
      "stayTimes": "09:00 - 10:00",
      "t_start": "2020-04-05T07:00:00",
      "t_end": "2020-04-05T08:00:00",
      "link": ""
    },
    {
      "id": 440096,
      "lat": 31.793458926,
      "lon": 35.2054908530001,
      "label": "בית אבות \"גני אורה\" - ירושלים",
      "text": "",
      "stayTimes": "08:00 - 08:30",
      "t_start": "2020-04-05T06:00:00",
      "t_end": "2020-04-05T06:30:00",
      "link": ""
    },
    {
      "id": 440097,
      "lat": 31.7494016000001,
      "lon": 35.2167436,
      "label": "מוסך מרסדס - ירושלים",
      "text": "",
      "stayTimes": "07:15 - 12:00",
      "t_start": "2020-04-12T05:15:00",
      "t_end": "2020-04-12T10:00:00",
      "link": ""
    },
    {
      "id": 440098,
      "lat": 32.0796066,
      "lon": 34.8344037000001,
      "label": "בית מרקחת נחמיה - בני ברק",
      "text": "",
      "stayTimes": "11:00 - 11:30",
      "t_start": "2020-04-08T09:00:00",
      "t_end": "2020-04-08T09:30:00",
      "link": ""
    },
    {
      "id": 440099,
      "lat": 31.7882871,
      "lon": 35.1850293000001,
      "label": "רמי לוי כנפי נשרים - ירושלים",
      "text": "",
      "stayTimes": "22:00 - 22:30",
      "t_start": "2020-04-05T20:00:00",
      "t_end": "2020-04-05T20:30:00",
      "link": ""
    },
    {
      "id": 440100,
      "lat": 31.9062624000001,
      "lon": 35.0105092000001,
      "label": "סופר השחר - מודיעין-מכבים-רעות",
      "text": "",
      "stayTimes": "12:00 - 12:10",
      "t_start": "2020-04-08T10:00:00",
      "t_end": "2020-04-08T10:10:00",
      "link": ""
    },
    {
      "id": 440101,
      "lat": 31.7313425,
      "lon": 35.1877907000001,
      "label": "קופת חולים מאוחדת גילה - ירושלים",
      "text": "",
      "stayTimes": "12:00 - 14:00",
      "t_start": "2020-04-06T10:00:00",
      "t_end": "2020-04-06T12:00:00",
      "link": ""
    },
    {
      "id": 440102,
      "lat": 32.0464832000001,
      "lon": 34.9490029,
      "label": "מיקוה - אלעד",
      "text": "",
      "stayTimes": "22:30 - 22:50",
      "t_start": "2020-04-09T20:30:00",
      "t_end": "2020-04-09T20:50:00",
      "link": ""
    },
    {
      "id": 440103,
      "lat": 31.24595298,
      "lon": 34.797074513,
      "label": "מנהלת בנק פועלים- מחוז דרום - באר שבע",
      "text": "",
      "stayTimes": "08:00 - 16:00",
      "t_start": "2020-04-05T06:00:00",
      "t_end": "2020-04-05T14:00:00",
      "link": ""
    },
    {
      "id": 440104,
      "lat": 31.8120016240001,
      "lon": 34.6629474750001,
      "label": "אושר עד - אשדוד",
      "text": "",
      "stayTimes": "22:00 - 23:55",
      "t_start": "2020-04-06T20:00:00",
      "t_end": "2020-04-06T21:55:00",
      "link": ""
    },
    {
      "id": 440105,
      "lat": 32.0346381780001,
      "lon": 34.8494226020001,
      "label": "סופרפארם אור יהודה - אור יהודה",
      "text": "",
      "stayTimes": "16:30 - 17:00",
      "t_start": "2020-04-13T14:30:00",
      "t_end": "2020-04-13T15:00:00",
      "link": ""
    },
    {
      "id": 440106,
      "lat": 32.0513224000001,
      "lon": 34.9609747000001,
      "label": "בייבי זול - אלעד",
      "text": "",
      "stayTimes": "19:00 - 19:30",
      "t_start": "2020-04-06T17:00:00",
      "t_end": "2020-04-06T17:30:00",
      "link": ""
    },
    {
      "id": 440107,
      "lat": 32.0520699050001,
      "lon": 34.9618886530001,
      "label": "מזל וברכה - אלעד",
      "text": "",
      "stayTimes": "19:45 - 20:00",
      "t_start": "2020-04-06T17:45:00",
      "t_end": "2020-04-06T18:00:00",
      "link": ""
    },
    {
      "id": 440108,
      "lat": 31.418212,
      "lon": 34.5854649,
      "label": "סופר פארם ר\"ח טדי קולק - נתיבות",
      "text": "",
      "stayTimes": "08:00 - 16:00",
      "t_start": "2020-04-07T06:00:00",
      "t_end": "2020-04-07T14:00:00",
      "link": ""
    },
    {
      "id": 440109,
      "lat": 31.419927,
      "lon": 34.601184,
      "label": "\"מרכז הפצה\" חנות לתשמישי קדושה - נתיבות",
      "text": "",
      "stayTimes": "17:00 - 18:00",
      "t_start": "2020-04-07T15:00:00",
      "t_end": "2020-04-07T16:00:00",
      "link": ""
    },
    {
      "id": 440110,
      "lat": 31.7946040310001,
      "lon": 35.2077171330001,
      "label": "קופ\"ח מכבי - ירושלים",
      "text": "",
      "stayTimes": "09:00 - 10:00",
      "t_start": "2020-04-05T07:00:00",
      "t_end": "2020-04-05T08:00:00",
      "link": ""
    },
    {
      "id": 440111,
      "lat": 31.787587,
      "lon": 34.6433543000001,
      "label": "בנק לאומי - אשדוד",
      "text": "",
      "stayTimes": "08:00 - 16:00",
      "t_start": "2020-04-06T06:00:00",
      "t_end": "2020-04-06T14:00:00",
      "link": ""
    },
    {
      "id": 440112,
      "lat": 32.023003638,
      "lon": 34.858409841,
      "label": "יוחננוף - אור יהודה",
      "text": "",
      "stayTimes": "11:00 - 11:30",
      "t_start": "2020-04-12T09:00:00",
      "t_end": "2020-04-12T09:30:00",
      "link": ""
    },
    {
      "id": 440113,
      "lat": 32.0999994000001,
      "lon": 34.8951845,
      "label": "שופרסל  סגולה פ\"ת - פתח תקווה",
      "text": "",
      "stayTimes": "10:30 - 12:00",
      "t_start": "2020-04-05T08:30:00",
      "t_end": "2020-04-05T10:00:00",
      "link": ""
    },
    {
      "id": 440114,
      "lat": 31.7882821110001,
      "lon": 35.219760294,
      "label": "זול ובגדול - ירושלים",
      "text": "",
      "stayTimes": "10:00 - 13:00",
      "t_start": "2020-04-06T08:00:00",
      "t_end": "2020-04-06T11:00:00",
      "link": ""
    },
    {
      "id": 440115,
      "lat": 31.783740322,
      "lon": 35.2147810490001,
      "label": "בית מרקחת - ירושלים",
      "text": "",
      "stayTimes": "14:00 - 15:00",
      "t_start": "2020-04-05T12:00:00",
      "t_end": "2020-04-05T13:00:00",
      "link": ""
    },
    {
      "id": 440116,
      "lat": 31.785392341,
      "lon": 35.1829873980001,
      "label": "אושר עד - ירושלים",
      "text": "",
      "stayTimes": "07:30 - 08:30",
      "t_start": "2020-04-05T05:30:00",
      "t_end": "2020-04-05T06:30:00",
      "link": ""
    },
    {
      "id": 440117,
      "lat": 32.0552349000001,
      "lon": 34.9606875000001,
      "label": "שפע שוק - אלעד",
      "text": "",
      "stayTimes": "14:00 - 16:00",
      "t_start": "2020-04-07T12:00:00",
      "t_end": "2020-04-07T14:00:00",
      "link": ""
    },
    {
      "id": 440118,
      "lat": 32.1040158000001,
      "lon": 34.8943638000001,
      "label": "מפעל אלטק - פתח תקווה",
      "text": "",
      "stayTimes": "07:30 - 15:30",
      "t_start": "2020-04-05T05:30:00",
      "t_end": "2020-04-05T13:30:00",
      "link": ""
    },
    {
      "id": 440119,
      "lat": 32.1040158000001,
      "lon": 34.8943638000001,
      "label": "מפעל אלטק - פתח תקווה",
      "text": "",
      "stayTimes": "07:30 - 15:30",
      "t_start": "2020-04-06T05:30:00",
      "t_end": "2020-04-06T13:30:00",
      "link": ""
    },