{
  "points": [
    {
      "id": 195282,
      "lat": 30.9812812000001,
      "lon": 34.9473032000001,
      "label": "בית העלמין - ירוחם",
      "text": "",
      "stayTimes": "08:30 - 09:00",
      "t_start": "2020-03-30T06:30:00",
      "t_end": "2020-03-30T07:00:00",
      "link": ""
    },
    {
      "id": 195283,
      "lat": 31.862712,
      "lon": 35.1749548000001,
      "label": "סופר \"שוק העיר\" - גבעת זאב",
      "text": "",
      "stayTimes": "08:30 - 10:30",
      "t_start": "2020-03-24T06:30:00",
      "t_end": "2020-03-24T08:30:00",
      "link": ""
    },
    {
      "id": 195284,
      "lat": 32.6213325640001,
      "lon": 35.3160931080001,
      "label": "ביח' העמק - עפולה",
      "text": "",
      "stayTimes": "19:00 - 20:00",
      "t_start": "2020-03-23T17:00:00",
      "t_end": "2020-03-23T18:00:00",
      "link": ""
    },
    {
      "id": 195285,
      "lat": 31.6619693000001,
      "lon": 34.55967,
      "label": "מיון ברזילי - אשקלון",
      "text": "",
      "stayTimes": "18:30 - 21:30",
      "t_start": "2020-03-23T16:30:00",
      "t_end": "2020-03-23T19:30:00",
      "link": ""
    },
    {
      "id": 195286,
      "lat": 31.8686612000001,
      "lon": 34.7460415,
      "label": "סופרפארם - יבנה",
      "text": "",
      "stayTimes": "20:30 - 21:00",
      "t_start": "2020-03-23T18:30:00",
      "t_end": "2020-03-23T19:00:00",
      "link": ""
    },
    {
      "id": 195287,
      "lat": 32.0997094000001,
      "lon": 34.8287219000001,
      "label": "מחסני חשמל - בני ברק",
      "text": "",
      "stayTimes": "13:15 - 14:00",
      "t_start": "2020-03-25T11:15:00",
      "t_end": "2020-03-25T12:00:00",
      "link": ""
    },
    {
      "id": 195288,
      "lat": 32.0141083090001,
      "lon": 34.7449400100001,
      "label": "מרפאת כללית - השקמה בת ים - בת ים",
      "text": "",
      "stayTimes": "08:00 - 10:00",
      "t_start": "2020-03-25T06:00:00",
      "t_end": "2020-03-25T08:00:00",
      "link": ""
    },
    {
      "id": 195289,
      "lat": 31.7916038000001,
      "lon": 35.1996482000001,
      "label": "מד\"א - ירושלים",
      "text": "",
      "stayTimes": "09:50 - 11:50",
      "t_start": "2020-03-23T07:50:00",
      "t_end": "2020-03-23T09:50:00",
      "link": ""
    },
    {
      "id": 195290,
      "lat": 32.0152498,
      "lon": 34.7567722000001,
      "label": "סופרדוש בת ים - בת ים",
      "text": "",
      "stayTimes": "16:30 - 17:30",
      "t_start": "2020-03-23T14:30:00",
      "t_end": "2020-03-23T15:30:00",
      "link": ""
    },
    {
      "id": 195291,
      "lat": 31.7650299690001,
      "lon": 35.1486071190001,
      "label": "משמרת טיפול נמרץ הדסה - ירושלים",
      "text": "",
      "stayTimes": "08:00 - 16:00",
      "t_start": "2020-03-23T06:00:00",
      "t_end": "2020-03-23T14:00:00",
      "link": ""
    },
    {
      "id": 195292,
      "lat": 31.697788105,
      "lon": 34.575005391,
      "label": "סופר ויקטורי - אשקלון",
      "text": "",
      "stayTimes": "08:30 - 10:00",
      "t_start": "2020-03-23T06:30:00",
      "t_end": "2020-03-23T08:00:00",
      "link": ""
    },
    {
      "id": 195293,
      "lat": 31.697706963,
      "lon": 34.575005391,
      "label": "ויקטורי - אשקלון",
      "text": "",
      "stayTimes": "09:00 - 10:10",
      "t_start": "2020-03-26T07:00:00",
      "t_end": "2020-03-26T08:10:00",
      "link": ""
    },
    {
      "id": 195294,
      "lat": 32.2868611000001,
      "lon": 34.8664061000001,
      "label": "סופר יוחננוף - נתניה",
      "text": "",
      "stayTimes": "13:00 - 14:00",
      "t_start": "2020-03-25T11:00:00",
      "t_end": "2020-03-25T12:00:00",
      "link": ""
    },
    {
      "id": 195295,
      "lat": 32.9682,
      "lon": 35.503158,
      "label": "כללית כנען צפת - צפת",
      "text": "",
      "stayTimes": "10:40 - 11:10",
      "t_start": "2020-03-25T08:40:00",
      "t_end": "2020-03-25T09:10:00",
      "link": ""
    },
    {
      "id": 195296,
      "lat": 32.9605311,
      "lon": 35.4994390000001,
      "label": "סופר מחסני השוק - צפת",
      "text": "",
      "stayTimes": "14:00 - 14:30",
      "t_start": "2020-03-31T12:00:00",
      "t_end": "2020-03-31T12:30:00",
      "link": ""
    },
    {
      "id": 195297,
      "lat": 32.3068328000001,
      "lon": 34.8694745,
      "label": "קופ\"ח כללית - נתניה",
      "text": "",
      "stayTimes": "18:00 - 19:00",
      "t_start": "2020-03-25T16:00:00",
      "t_end": "2020-03-25T17:00:00",
      "link": ""
    },
    {
      "id": 195298,
      "lat": 32.4888435880001,
      "lon": 34.970554421,
      "label": "\"רמי לוי\" מתחם ביג - פרדס חנה-כרכור",
      "text": "",
      "stayTimes": "19:00 - 19:20",
      "t_start": "2020-03-23T17:00:00",
      "t_end": "2020-03-23T17:20:00",
      "link": ""
    },
    {
      "id": 195299,
      "lat": 32.0348409160001,
      "lon": 34.848170958,
      "label": "יוחננוף הגדול - סופר - אור יהודה",
      "text": "",
      "stayTimes": "16:30 - 17:00",
      "t_start": "2020-03-25T14:30:00",
      "t_end": "2020-03-25T15:00:00",
      "link": ""
    },
    {
      "id": 195300,
      "lat": 31.6035606,
      "lon": 34.7589160000001,
      "label": "קופת חולים כללית סניף ג' - קרית גת",
      "text": "",
      "stayTimes": "18:15 - 19:00",
      "t_start": "2020-03-23T16:15:00",
      "t_end": "2020-03-23T17:00:00",
      "link": ""
    },
    {
      "id": 195301,
      "lat": 31.773365368,
      "lon": 35.185650546,
      "label": "בית חולים שערי צדק - ירושלים",
      "text": "",
      "stayTimes": "08:00 - 21:30",
      "t_start": "2020-03-23T06:00:00",
      "t_end": "2020-03-23T19:30:00",
      "link": ""
    },
    {
      "id": 195302,
      "lat": 32.0142516000001,
      "lon": 34.7670197,
      "label": "מוקד מכבי הופיין - חולון",
      "text": "",
      "stayTimes": "20:45 - 22:20",
      "t_start": "2020-03-23T18:45:00",
      "t_end": "2020-03-23T20:20:00",
      "link": ""
    },
    {
      "id": 195303,
      "lat": 32.0142516000001,
      "lon": 34.7670197,
      "label": "מוקד מכבי הופיין - חולון",
      "text": "",
      "stayTimes": "19:40 - 22:30",
      "t_start": "2020-03-24T17:40:00",
      "t_end": "2020-03-24T20:30:00",
      "link": ""
    },
    {
      "id": 195304,
      "lat": 32.0142516000001,
      "lon": 34.7670197,
      "label": "מוקד מכבי הופיים - חולון",
      "text": "",
      "stayTimes": "19:05 - 20:05",
      "t_start": "2020-03-25T17:05:00",
      "t_end": "2020-03-25T18:05:00",
      "link": ""
    },
    {
      "id": 195305,
      "lat": 31.6622786990001,
      "lon": 34.5592685010001,
      "label": "ביח ברזילי - אשקלון",
      "text": "",
      "stayTimes": "09:00 - 10:00",
      "t_start": "2020-03-25T07:00:00",
      "t_end": "2020-03-25T08:00:00",
      "link": ""
    },
    {
      "id": 195306,
      "lat": 31.6744616290001,
      "lon": 34.5583050380001,
      "label": "מכולת שכונתית-רח הטייסים - אשקלון",
      "text": "",
      "stayTimes": "07:30 - 08:00",
      "t_start": "2020-03-25T05:30:00",
      "t_end": "2020-03-25T06:00:00",
      "link": ""
    },
    {
      "id": 195307,
      "lat": 32.086082301,
      "lon": 34.8304487670001,
      "label": "בית מרקחת - בני ברק",
      "text": "",
      "stayTimes": "12:00 - 13:00",
      "t_start": "2020-03-23T10:00:00",
      "t_end": "2020-03-23T11:00:00",
      "link": ""
    },
    {
      "id": 195308,
      "lat": 31.747611239,
      "lon": 34.9933915010001,
      "label": "סופר-פארם, קניון נעמי - בית שמש",
      "text": "",
      "stayTimes": "17:00 - 17:30",
      "t_start": "2020-03-23T15:00:00",
      "t_end": "2020-03-23T15:30:00",
      "link": ""
    },
    {
      "id": 195309,
      "lat": 32.057107,
      "lon": 34.8691424,
      "label": "סופר פארם - גני תקווה",
      "text": "",
      "stayTimes": "09:30 - 09:45",
      "t_start": "2020-03-27T07:30:00",
      "t_end": "2020-03-27T07:45:00",
      "link": ""
    },
    {
      "id": 195310,
      "lat": 31.9359125,
      "lon": 34.8258773000001,
      "label": "מאפיה דרך הלחם, ספר אקספרס, קצביה, מענדניה - באר יעקב",
      "text": "",
      "stayTimes": "11:00 - 12:30",
      "t_start": "2020-03-23T09:00:00",
      "t_end": "2020-03-23T10:30:00",
      "link": ""
    },
    {
      "id": 195311,
      "lat": 31.941866443,
      "lon": 34.833751224,
      "label": "שופרסל, בקניון - באר יעקב",
      "text": "",
      "stayTimes": "10:30 - 10:45",
      "t_start": "2020-03-24T08:30:00",
      "t_end": "2020-03-24T08:45:00",
      "link": ""
    },
    {
      "id": 195312,
      "lat": 32.1046489170001,
      "lon": 34.8118631410001,
      "label": "תחנת בדיקה לקורונה,ברוקח - תל אביב - יפו",
      "text": "",
      "stayTimes": "20:30 - 21:00",
      "t_start": "2020-03-25T18:30:00",
      "t_end": "2020-03-25T19:00:00",
      "link": ""
    },
    {
      "id": 195313,
      "lat": 31.8865552,
      "lon": 35.0182949000001,
      "label": "סופר ברעות- סופר שלי, מרכז מסחרי רעות - מודיעין-מכבים-רעות",
      "text": "",
      "stayTimes": "17:00 - 17:20",
      "t_start": "2020-03-23T15:00:00",
      "t_end": "2020-03-23T15:20:00",
      "link": ""
    },
    {
      "id": 195314,
      "lat": 32.103972238,
      "lon": 34.810706204,
      "label": "בדיקה בתל אביב במתחם של מד\"א - תל אביב - יפו",
      "text": "",
      "stayTimes": "22:45 - 22:55",
      "t_start": "2020-03-25T20:45:00",
      "t_end": "2020-03-25T20:55:00",
      "link": ""
    },
    {
      "id": 195315,
      "lat": 32.087135102,
      "lon": 34.828786721,
      "label": "כולל יוצאי חברון - בני ברק",
      "text": "",
      "stayTimes": "11:00 - 12:30",
      "t_start": "2020-03-24T09:00:00",
      "t_end": "2020-03-24T10:30:00",
      "link": ""
    },
    {
      "id": 195316,
      "lat": 31.79243675,
      "lon": 34.65534726,
      "label": "בית מרקחת קופ\"ח כללית - אשדוד",
      "text": "",
      "stayTimes": "10:00 - 11:00",
      "t_start": "2020-03-23T08:00:00",
      "t_end": "2020-03-23T09:00:00",
      "link": ""
    },
    {
      "id": 195317,
      "lat": 32.098909357,
      "lon": 34.829762456,
      "label": "אושר עד - בני ברק",
      "text": "",
      "stayTimes": "18:45 - 20:00",
      "t_start": "2020-03-23T16:45:00",
      "t_end": "2020-03-23T18:00:00",
      "link": ""
    },
    {
      "id": 195318,
      "lat": 32.0605863850001,
      "lon": 34.776487135,
      "label": "מפעל לליטוש יהלומים - תל אביב - יפו",
      "text": "",
      "stayTimes": "09:30 - 11:30",
      "t_start": "2020-03-24T07:30:00",
      "t_end": "2020-03-24T09:30:00",
      "link": ""
    },
    {
      "id": 195319,
      "lat": 32.0994975,
      "lon": 34.8755340000001,
      "label": "חצי חינם - פתח תקווה",
      "text": "",
      "stayTimes": "12:00 - 12:30",
      "t_start": "2020-03-23T10:00:00",
      "t_end": "2020-03-23T10:30:00",
      "link": ""
    },
    {
      "id": 195320,
      "lat": 31.7789552,
      "lon": 34.6570806,
      "label": "בי\"ח אסותא- חדר ניתוח - אשדוד",
      "text": "",
      "stayTimes": "19:00 - 07:00",
      "t_start": "2020-03-25T17:00:00",
      "t_end": "2020-03-26T05:00:00",
      "link": ""
    },
    {
      "id": 195321,
      "lat": 32.0794196000001,
      "lon": 34.8364418,
      "label": "בית כנסת חסידי סאטמר - בני ברק",
      "text": "",
      "stayTimes": "08:00 - 09:30",
      "t_start": "2020-03-23T06:00:00",
      "t_end": "2020-03-23T07:30:00",
      "link": ""
    },
    {
      "id": 195322,
      "lat": 32.0258672000001,
      "lon": 34.8593382,
      "label": "סופר יש חסד - אור יהודה",
      "text": "",
      "stayTimes": "17:00 - 17:30",
      "t_start": "2020-03-25T15:00:00",
      "t_end": "2020-03-25T15:30:00",
      "link": ""
    },
    {
      "id": 195323,
      "lat": 32.090239926,
      "lon": 34.825733954,
      "label": "ישיבת תפארת בחורים שיקומית - בני ברק",
      "text": "",
      "stayTimes": "08:00 - 12:00",
      "t_start": "2020-03-23T06:00:00",
      "t_end": "2020-03-23T10:00:00",
      "link": ""
    },
    {
      "id": 195324,
      "lat": 31.9478329,
      "lon": 34.9011619,
      "label": "קליניקה פרטית מכבי - לוד",
      "text": "",
      "stayTimes": "08:30 - 11:30",
      "t_start": "2020-03-24T06:30:00",
      "t_end": "2020-03-24T09:30:00",
      "link": ""
    },
    {
      "id": 195325,
      "lat": 31.9220189000001,
      "lon": 34.8587808,
      "label": "מרכז בריאות הילד כללית - רמלה",
      "text": "",
      "stayTimes": "08:00 - 14:30",
      "t_start": "2020-03-23T06:00:00",
      "t_end": "2020-03-23T12:30:00",
      "link": ""
    },
    {
      "id": 195326,
      "lat": 31.9220189000001,
      "lon": 34.8587808,
      "label": "מרכז בריאות הילד - רמלה",
      "text": "",
      "stayTimes": "08:15 - 11:00",
      "t_start": "2020-03-25T06:15:00",
      "t_end": "2020-03-25T09:00:00",
      "link": ""
    },
    {
      "id": 195327,
      "lat": 32.0142516000001,
      "lon": 34.7670197,
      "label": "מוקד מכבי - חולון",
      "text": "",
      "stayTimes": "19:00 - 23:00",
      "t_start": "2020-03-24T17:00:00",
      "t_end": "2020-03-24T21:00:00",
      "link": ""
    },
    {
      "id": 195328,
      "lat": 31.9326186370001,
      "lon": 35.0453525200001,
      "label": "חנות מוצרי סית \"סנטר ליין\" - מודיעין עילית",
      "text": "",
      "stayTimes": "16:30 - 16:50",
      "t_start": "2020-03-24T14:30:00",
      "t_end": "2020-03-24T14:50:00",
      "link": ""
    },
    {
      "id": 195329,
      "lat": 31.931367058,
      "lon": 34.889472229,
      "label": "חנות BOOOM - לוד",
      "text": "",
      "stayTimes": "15:20 - 16:00",
      "t_start": "2020-03-23T13:20:00",
      "t_end": "2020-03-23T14:00:00",
      "link": ""
    },
    {
      "id": 195330,
      "lat": 31.9540566250001,
      "lon": 34.890366369,
      "label": "אושר עד - לוד",
      "text": "",
      "stayTimes": "17:00 - 18:00",
      "t_start": "2020-03-23T15:00:00",
      "t_end": "2020-03-23T16:00:00",
      "link": ""
    },
    {
      "id": 195331,
      "lat": 31.946440017,
      "lon": 34.8978359610001,
      "label": "בית מרקחת מכבי - לוד",
      "text": "",
      "stayTimes": "14:00 - 15:00",
      "t_start": "2020-03-23T12:00:00",
      "t_end": "2020-03-23T13:00:00",
      "link": ""
    },
    {
      "id": 195332,
      "lat": 32.0468261550001,
      "lon": 34.908611948,
      "label": "סופרמרקט יש - בארות יצחק",
      "text": "",
      "stayTimes": "13:45 - 14:30",
      "t_start": "2020-03-23T11:45:00",
      "t_end": "2020-03-23T12:30:00",
      "link": ""
    },
    {
      "id": 195333,
      "lat": 31.926964394,
      "lon": 35.041944619,
      "label": "מרכול  רחוב נתיבות המשפט פינת מסילת יוסף - מודיעין עילית",
      "text": "",
      "stayTimes": "18:50 - 19:10",
      "t_start": "2020-03-26T16:50:00",
      "t_end": "2020-03-26T17:10:00",
      "link": ""
    },
    {
      "id": 195334,
      "lat": 32.7891667000001,
      "lon": 35.535,
      "label": "שופרסל דיל - טבריה",
      "text": "",
      "stayTimes": "21:00 - 21:10",
      "t_start": "2020-03-23T19:00:00",
      "t_end": "2020-03-23T19:10:00",
      "link": ""
    },
    {
      "id": 195335,
      "lat": 31.6629795000001,
      "lon": 34.5766783,
      "label": "קופ\"ח כללית נאות אשקלון - אשקלון",
      "text": "",
      "stayTimes": "07:30 - 13:30",
      "t_start": "2020-03-25T05:30:00",
      "t_end": "2020-03-25T11:30:00",
      "link": ""
    },
    {
      "id": 195336,
      "lat": 31.813560991,
      "lon": 34.6601808670001,
      "label": "רמי לוי - אשדוד",
      "text": "",
      "stayTimes": "10:30 - 12:00",
      "t_start": "2020-03-24T08:30:00",
      "t_end": "2020-03-24T10:00:00",
      "link": ""
    },
    {
      "id": 195337,
      "lat": 31.8079432420001,
      "lon": 34.6573172600001,
      "label": "מחסני בשר - אשדוד",
      "text": "",
      "stayTimes": "10:00 - 10:30",
      "t_start": "2020-03-24T08:00:00",
      "t_end": "2020-03-24T08:30:00",
      "link": ""
    },
    {
      "id": 195338,
      "lat": 32.015268334,
      "lon": 34.756772578,
      "label": "סופר דוש בקניון בת ים - בת ים",
      "text": "",
      "stayTimes": "16:00 - 17:30",
      "t_start": "2020-03-24T14:00:00",
      "t_end": "2020-03-24T15:30:00",
      "link": ""
    },
    {
      "id": 195339,
      "lat": 31.374236604,
      "lon": 35.006553292,
      "label": "סופר מחסני השוק- מיתרים - שמעה",
      "text": "",
      "stayTimes": "12:30 - 13:30",
      "t_start": "2020-03-25T10:30:00",
      "t_end": "2020-03-25T11:30:00",
      "link": ""
    },
    {
      "id": 195340,
      "lat": 31.2433310000001,
      "lon": 34.8125470000001,
      "label": "סופר פארם ביג - באר שבע",
      "text": "",
      "stayTimes": "09:30 - 10:00",
      "t_start": "2020-03-25T07:30:00",
      "t_end": "2020-03-25T08:00:00",
      "link": ""
    },
    {
      "id": 195341,
      "lat": 31.2413889000001,
      "lon": 34.8105556,
      "label": "ACE ביג - באר שבע",
      "text": "",
      "stayTimes": "10:00 - 10:30",
      "t_start": "2020-03-25T08:00:00",
      "t_end": "2020-03-25T08:30:00",
      "link": ""
    },
    {
      "id": 195342,
      "lat": 31.2428483750001,
      "lon": 34.8121199610001,
      "label": "חנות נעמן BIG - באר שבע",
      "text": "",
      "stayTimes": "10:00 - 10:30",
      "t_start": "2020-03-25T08:00:00",
      "t_end": "2020-03-25T08:30:00",
      "link": ""
    },
    {
      "id": 195343,
      "lat": 31.7789552,
      "lon": 34.6570806,
      "label": "מיון ביה\"ח אסותא - אשדוד",
      "text": "",
      "stayTimes": "17:00 - 17:30",
      "t_start": "2020-03-26T15:00:00",
      "t_end": "2020-03-26T15:30:00",
      "link": ""
    },
    {
      "id": 195344,
      "lat": 31.9909974,
      "lon": 34.7607583000001,
      "label": "מאפיית קראמבל - ראשון לציון",
      "text": "",
      "stayTimes": "23:00 - 23:30",
      "t_start": "2020-03-26T21:00:00",
      "t_end": "2020-03-26T21:30:00",
      "link": ""
    },
    {
      "id": 195345,
      "lat": 32.6122728,
      "lon": 35.2882818000001,
      "label": "מאפייה קציר - עפולה",
      "text": "",
      "stayTimes": "08:00 - 09:00",
      "t_start": "2020-03-24T06:00:00",
      "t_end": "2020-03-24T07:00:00",
      "link": ""
    },
    {
      "id": 195346,
      "lat": 32.0862964340001,
      "lon": 34.8348863210001,
      "label": "נתיב החסד - בני ברק",
      "text": "",
      "stayTimes": "11:00 - 12:30",
      "t_start": "2020-03-24T09:00:00",
      "t_end": "2020-03-24T10:30:00",
      "link": ""
    },
    {
      "id": 195347,
      "lat": 32.090743767,
      "lon": 34.832575702,
      "label": "מכירה שכונתית בגינת אבן שפרוט - בני ברק",
      "text": "",
      "stayTimes": "12:00 - 08:00",
      "t_start": "2020-03-25T10:00:00",
      "t_end": "2020-03-22T06:00:00",
      "link": ""
    },
    {
      "id": 195348,
      "lat": 32.0794501020001,
      "lon": 34.815074942,
      "label": "סופר פארם - רמת גן",
      "text": "",
      "stayTimes": "10:30 - 11:00",
      "t_start": "2020-03-25T08:30:00",
      "t_end": "2020-03-25T09:00:00",
      "link": ""
    },
    {
      "id": 195349,
      "lat": 32.076332155,
      "lon": 34.8398897370001,
      "label": "בית כנסת משכנות יעקב - בני ברק",
      "text": "",
      "stayTimes": "23:00 - 23:30",
      "t_start": "2020-03-23T21:00:00",
      "t_end": "2020-03-23T21:30:00",
      "link": ""
    },
    {
      "id": 195350,
      "lat": 32.0788157000001,
      "lon": 34.8400310000001,
      "label": "עזרא ואחווה - בני ברק",
      "text": "",
      "stayTimes": "16:30 - 17:30",
      "t_start": "2020-03-24T14:30:00",
      "t_end": "2020-03-24T15:30:00",
      "link": ""
    },
    {
      "id": 195351,
      "lat": 33.0327904000001,
      "lon": 35.1034588000001,
      "label": "סופרמרקט רמי לוי - נהריה",
      "text": "",
      "stayTimes": "21:00 - 20:00",
      "t_start": "2020-03-23T19:00:00",
      "t_end": "2020-03-23T18:00:00",
      "link": ""
    },
    {
      "id": 195352,
      "lat": 33.0735393000001,
      "lon": 35.138159,
      "label": "מרפאה כללית בצת - בצת",
      "text": "",
      "stayTimes": "08:00 - 16:00",
      "t_start": "2020-03-23T06:00:00",
      "t_end": "2020-03-23T14:00:00",
      "link": ""
    },
    {
      "id": 195353,
      "lat": 33.0728,
      "lon": 35.1430135000001,
      "label": "מרפאה כללית - שלומי",
      "text": "",
      "stayTimes": "10:00 - 10:30",
      "t_start": "2020-03-24T08:00:00",
      "t_end": "2020-03-24T08:30:00",
      "link": ""
    },
    {
      "id": 195354,
      "lat": 33.0741361190001,
      "lon": 35.142915181,
      "label": "קייטנת ילדים במתנס - שלומי",
      "text": "",
      "stayTimes": "08:00 - 08:30",
      "t_start": "2020-03-25T06:00:00",
      "t_end": "2020-03-25T06:30:00",
      "link": ""
    },
    {
      "id": 195355,
      "lat": 31.976393785,
      "lon": 34.8880033460001,
      "label": "מכולת המושב - זיתן",
      "text": "",
      "stayTimes": "08:00 - 08:30",
      "t_start": "2020-03-23T06:00:00",
      "t_end": "2020-03-23T06:30:00",
      "link": ""
    },
    {
      "id": 195356,
      "lat": 32.7885191,
      "lon": 35.528919,
      "label": "קבר רבי עקיבא - טבריה",
      "text": "",
      "stayTimes": "17:00 - 18:30",
      "t_start": "2020-03-23T15:00:00",
      "t_end": "2020-03-23T16:30:00",
      "link": ""
    },
    {
      "id": 195357,
      "lat": 32.0257730000001,
      "lon": 34.90142,
      "label": "שופרסל - יהוד",
      "text": "",
      "stayTimes": "13:15 - 14:15",
      "t_start": "2020-03-27T11:15:00",
      "t_end": "2020-03-27T12:15:00",
      "link": ""
    },
    {
      "id": 195358,
      "lat": 31.777853142,
      "lon": 34.6363561410001,
      "label": "קיוסק בכיכר מגי'ק - אשדוד",
      "text": "",
      "stayTimes": "20:00 - 20:30",
      "t_start": "2020-03-24T18:00:00",
      "t_end": "2020-03-24T18:30:00",
      "link": ""
    },
    {
      "id": 195359,
      "lat": 31.7775212170001,
      "lon": 34.636722267,
      "label": "רמי לוי בשכונה - אשדוד",
      "text": "",
      "stayTimes": "20:15 - 20:40",
      "t_start": "2020-03-24T18:15:00",
      "t_end": "2020-03-24T18:40:00",
      "link": ""
    },
    {
      "id": 195360,
      "lat": 32.0873548000001,
      "lon": 34.8289585000001,
      "label": "בית הכנסת הגדול - בני ברק",
      "text": "",
      "stayTimes": "13:00 - 14:00",
      "t_start": "2020-03-23T11:00:00",
      "t_end": "2020-03-23T12:00:00",
      "link": ""
    },
    {
      "id": 195361,
      "lat": 32.0873548000001,
      "lon": 34.8289585000001,
      "label": "בית הכנסת הגדול - בני ברק",
      "text": "",
      "stayTimes": "09:00 - 11:00",
      "t_start": "2020-03-23T07:00:00",
      "t_end": "2020-03-23T09:00:00",
      "link": ""
    },
    {
      "id": 195362,
      "lat": 32.0873548000001,
      "lon": 34.8289585000001,
      "label": "בית הכנסת הגדול - בני ברק",
      "text": "",
      "stayTimes": "21:00 - 22:00",
      "t_start": "2020-03-23T19:00:00",
      "t_end": "2020-03-23T20:00:00",
      "link": ""
    },
    {
      "id": 195363,
      "lat": 32.086117895,
      "lon": 34.8299881340001,
      "label": "מתיבתא - בני ברק",
      "text": "",
      "stayTimes": "09:00 - 10:00",
      "t_start": "2020-03-23T07:00:00",
      "t_end": "2020-03-23T08:00:00",
      "link": ""
    },
    {
      "id": 195364,
      "lat": 31.9645469370001,
      "lon": 34.7928522510001,
      "label": "בנק מרכנטיל - ראשון לציון",
      "text": "",
      "stayTimes": "12:00 - 13:00",
      "t_start": "2020-03-24T10:00:00",
      "t_end": "2020-03-24T11:00:00",
      "link": ""
    },
    {
      "id": 195365,
      "lat": 32.031392522,
      "lon": 34.8554434000001,
      "label": "סופר סיטי נווה סביון - אור יהודה",
      "text": "",
      "stayTimes": "19:00 - 19:30",
      "t_start": "2020-03-24T17:00:00",
      "t_end": "2020-03-24T17:30:00",
      "link": ""
    },
    {
      "id": 195366,
      "lat": 32.031362458,
      "lon": 34.855545363,
      "label": "מאפיית מן הארץ - אור יהודה",
      "text": "",
      "stayTimes": "11:00 - 11:30",
      "t_start": "2020-03-25T09:00:00",
      "t_end": "2020-03-25T09:30:00",
      "link": ""
    },
    {
      "id": 195367,
      "lat": 32.031388733,
      "lon": 34.85544191,
      "label": "סופר סיטי נווה סביון - אור יהודה",
      "text": "",
      "stayTimes": "16:00 - 16:30",
      "t_start": "2020-03-27T14:00:00",
      "t_end": "2020-03-27T14:30:00",
      "link": ""
    },
    {
      "id": 195368,
      "lat": 32.8303148000001,
      "lon": 34.9774800000001,
      "label": "תחנת דלק אלדור חיפה - חיפה",
      "text": "",
      "stayTimes": "08:00 - 08:00",
      "t_start": "2020-03-23T06:00:00",
      "t_end": "2020-03-23T06:00:00",
      "link": ""
    },
    {
      "id": 195369,
      "lat": 32.7879442,
      "lon": 35.041954882,
      "label": "תחנת דלק חרמש חיפה - חיפה",
      "text": "",
      "stayTimes": "08:00 - 08:00",
      "t_start": "2020-03-23T06:00:00",
      "t_end": "2020-03-23T06:00:00",
      "link": ""
    },
    {
      "id": 195370,
      "lat": 32.8085851390001,
      "lon": 35.0243334580001,
      "label": "תחנת דלק הקישון - חיפה",
      "text": "",
      "stayTimes": "08:00 - 08:00",
      "t_start": "2020-03-23T06:00:00",
      "t_end": "2020-03-23T06:00:00",
      "link": ""
    },
    {
      "id": 195371,
      "lat": 31.691771379,
      "lon": 34.5819073280001,
      "label": "בית מגורים - אשקלון",
      "text": "",
      "stayTimes": "08:00 - 08:00",
      "t_start": "2020-03-23T06:00:00",
      "t_end": "2020-03-23T06:00:00",
      "link": ""
    },
    {
      "id": 195372,
      "lat": 31.6641894000001,
      "lon": 34.5632752000001,
      "label": "סניף ויקטורי ליד בית משפט - אשקלון",
      "text": "",
      "stayTimes": "16:30 - 17:00",
      "t_start": "2020-03-23T14:30:00",
      "t_end": "2020-03-23T15:00:00",
      "link": ""
    },
    {
      "id": 195373,
      "lat": 31.6622785000001,
      "lon": 34.5592871000001,
      "label": "מחלקת משאבי אנוש בית חולים ברזילי - אשקלון",
      "text": "",
      "stayTimes": "15:00 - 17:00",
      "t_start": "2020-03-25T13:00:00",
      "t_end": "2020-03-25T15:00:00",
      "link": ""
    },
    {
      "id": 195374,
      "lat": 31.6622785000001,
      "lon": 34.5592871000001,
      "label": "מכון MRI  בית חולים ברזילי - אשקלון",
      "text": "",
      "stayTimes": "15:00 - 17:00",
      "t_start": "2020-03-25T13:00:00",
      "t_end": "2020-03-25T15:00:00",
      "link": ""
    },
    {
      "id": 195375,
      "lat": 32.0827834,
      "lon": 34.8426542,
      "label": "צרכניה אחיעזר - בני ברק",
      "text": "",
      "stayTimes": "18:40 - 20:00",
      "t_start": "2020-03-25T16:40:00",
      "t_end": "2020-03-25T18:00:00",
      "link": ""
    },
    {
      "id": 195376,
      "lat": 32.0819701,
      "lon": 34.8409268,
      "label": "א.א אורטופדיה - בני ברק",
      "text": "",
      "stayTimes": "12:00 - 13:00",
      "t_start": "2020-03-23T10:00:00",
      "t_end": "2020-03-23T11:00:00",
      "link": ""
    },
    {
      "id": 195377,
      "lat": 31.245803772,
      "lon": 34.7769873840001,
      "label": "קופת חולים כללית ט - באר שבע",
      "text": "",
      "stayTimes": "10:30 - 11:00",
      "t_start": "2020-03-27T08:30:00",
      "t_end": "2020-03-27T09:00:00",
      "link": ""
    },
    {
      "id": 195378,
      "lat": 31.2133285,
      "lon": 34.8110283820001,
      "label": "סופר \"אושר עד\" - באר שבע",
      "text": "",
      "stayTimes": "17:00 - 18:30",
      "t_start": "2020-03-23T15:00:00",
      "t_end": "2020-03-23T16:30:00",
      "link": ""
    },
    {
      "id": 195379,
      "lat": 32.0784483,
      "lon": 34.8394218,
      "label": "בית אבות והדרת פני זקן - בני ברק",
      "text": "",
      "stayTimes": "08:00 - 12:00",
      "t_start": "2020-03-27T06:00:00",
      "t_end": "2020-03-27T10:00:00",
      "link": ""
    },
    {
      "id": 195380,
      "lat": 32.0784483,
      "lon": 34.8394218,
      "label": "בית אבות והדרת פני זקן - בני ברק",
      "text": "",
      "stayTimes": "08:00 - 12:00",
      "t_start": "2020-03-25T06:00:00",
      "t_end": "2020-03-25T10:00:00",
      "link": ""
    },
    {
      "id": 195381,
      "lat": 32.0784483,
      "lon": 34.8394218,
      "label": "בית אבות והדרת פני זקן - בני ברק",
      "text": "",
      "stayTimes": "08:00 - 12:00",
      "t_start": "2020-03-26T06:00:00",
      "t_end": "2020-03-26T10:00:00",
      "link": ""
    },
    {
      "id": 195382,
      "lat": 32.0784483,
      "lon": 34.8394218,
      "label": "בת אבות והדרת פני זקן - בני ברק",
      "text": "",
      "stayTimes": "08:00 - 12:00",
      "t_start": "2020-03-23T06:00:00",
      "t_end": "2020-03-23T10:00:00",
      "link": ""
    },
    {
      "id": 195383,
      "lat": 32.3187235,
      "lon": 34.9340612,
      "label": "חבוש - כפר יונה",
      "text": "",
      "stayTimes": "11:15 - 11:30",
      "t_start": "2020-03-25T09:15:00",
      "t_end": "2020-03-25T09:30:00",
      "link": ""
    },
    {
      "id": 195384,
      "lat": 32.318136183,
      "lon": 34.9344362570001,
      "label": "סופר מגה - כפר יונה",
      "text": "",
      "stayTimes": "11:00 - 11:15",
      "t_start": "2020-03-25T09:00:00",
      "t_end": "2020-03-25T09:15:00",
      "link": ""
    },
    {
      "id": 195385,
      "lat": 32.0859908,
      "lon": 34.8313016000001,
      "label": "מקסיגו - בני ברק",
      "text": "",
      "stayTimes": "20:30 - 21:00",
      "t_start": "2020-03-23T18:30:00",
      "t_end": "2020-03-23T19:00:00",
      "link": ""
    },
    {
      "id": 195386,
      "lat": 32.0972669000001,
      "lon": 34.8379174,
      "label": "בית כנסת זיו יהודה - בני ברק",
      "text": "",
      "stayTimes": "07:10 - 21:00",
      "t_start": "2020-03-23T05:10:00",
      "t_end": "2020-03-23T19:00:00",
      "link": ""
    },
    {
      "id": 195387,
      "lat": 32.0279776880001,
      "lon": 34.8647664000001,
      "label": "קופ\"ח כללית- מרפאת גיורא - אור יהודה",
      "text": "",
      "stayTimes": "16:00 - 16:30",
      "t_start": "2020-03-24T14:00:00",
      "t_end": "2020-03-24T14:30:00",
      "link": ""
    },
    {
      "id": 195388,
      "lat": 32.0989103090001,
      "lon": 34.829733628,
      "label": "אושר עד בני ברק - בני ברק",
      "text": "",
      "stayTimes": "19:00 - 20:00",
      "t_start": "2020-03-24T17:00:00",
      "t_end": "2020-03-24T18:00:00",
      "link": ""
    },
    {
      "id": 195389,
      "lat": 32.0860237000001,
      "lon": 34.8303992,
      "label": "מרפאת מכבי - בני ברק",
      "text": "",
      "stayTimes": "11:00 - 12:00",
      "t_start": "2020-03-24T09:00:00",
      "t_end": "2020-03-24T10:00:00",
      "link": ""
    },
    {
      "id": 195390,
      "lat": 32.027943921,
      "lon": 34.8646902040001,
      "label": "קופת חולים כללית - אור יהודה",
      "text": "",
      "stayTimes": "09:30 - 11:00",
      "t_start": "2020-03-24T07:30:00",
      "t_end": "2020-03-24T09:00:00",
      "link": ""
    },
    {
      "id": 195391,
      "lat": 32.7853938850001,
      "lon": 35.4985358280001,
      "label": "סופר- פארם - טבריה",
      "text": "",
      "stayTimes": "11:00 - 11:05",
      "t_start": "2020-03-24T09:00:00",
      "t_end": "2020-03-24T09:05:00",
      "link": ""
    },
    {
      "id": 195392,
      "lat": 32.0784483,
      "lon": 34.8394218,
      "label": "בית אבות \"והדרת פני זקן\" - בני ברק",
      "text": "",
      "stayTimes": "07:00 - 12:00",
      "t_start": "2020-03-23T05:00:00",
      "t_end": "2020-03-23T10:00:00",
      "link": ""
    },
    {
      "id": 195393,
      "lat": 31.6682664000001,
      "lon": 34.6023671,
      "label": "סופר יינות ביתן- אזה\"ת - אשקלון",
      "text": "",
      "stayTimes": "17:00 - 19:00",
      "t_start": "2020-03-23T15:00:00",
      "t_end": "2020-03-23T17:00:00",
      "link": ""
    },
    {
      "id": 195394,
      "lat": 31.6622785000001,
      "lon": 34.5592871000001,
      "label": "יחידת המחשוב בי\"ח ברזילי - אשקלון",
      "text": "",
      "stayTimes": "08:00 - 17:00",
      "t_start": "2020-03-24T06:00:00",
      "t_end": "2020-03-24T15:00:00",
      "link": ""
    },
    {
      "id": 195395,
      "lat": 31.6622785000001,
      "lon": 34.5592871000001,
      "label": "יחידת המחשוב בי\"ח ברזילי - אשקלון",
      "text": "",
      "stayTimes": "08:00 - 17:00",
      "t_start": "2020-03-23T06:00:00",
      "t_end": "2020-03-23T15:00:00",
      "link": ""
    },
    {
      "id": 195396,
      "lat": 31.662064049,
      "lon": 34.5949142640001,
      "label": "רמי לוי צפון - אשקלון",
      "text": "",
      "stayTimes": "11:00 - 12:00",
      "t_start": "2020-03-23T09:00:00",
      "t_end": "2020-03-23T10:00:00",
      "link": ""
    },
    {
      "id": 195397,
      "lat": 31.6619693000001,
      "lon": 34.55967,
      "label": "מיון ברזילי - אשקלון",
      "text": "",
      "stayTimes": "14:30 - 17:00",
      "t_start": "2020-03-27T12:30:00",
      "t_end": "2020-03-27T15:00:00",
      "link": ""
    },
    {
      "id": 195398,
      "lat": 31.6663264000001,
      "lon": 34.5961589,
      "label": "מוסך האחים - אשקלון",
      "text": "",
      "stayTimes": "08:00 - 15:00",
      "t_start": "2020-03-23T06:00:00",
      "t_end": "2020-03-23T13:00:00",
      "link": ""
    },
    {
      "id": 195399,
      "lat": 32.0279570000001,
      "lon": 34.864768,
      "label": "קופת חולים כללית גיורא - אור יהודה",
      "text": "",
      "stayTimes": "09:30 - 11:00",
      "t_start": "2020-03-23T07:30:00",
      "t_end": "2020-03-23T09:00:00",
      "link": ""
    },
    {
      "id": 195400,
      "lat": 30.6111034,
      "lon": 34.7986178,
      "label": "מכולת \"הסלסלה\" - מצפה רמון",
      "text": "",
      "stayTimes": "12:00 - 13:00",
      "t_start": "2020-03-26T10:00:00",
      "t_end": "2020-03-26T11:00:00",
      "link": ""
    },
    {
      "id": 195401,
      "lat": 31.8111825,
      "lon": 35.2197587000001,
      "label": "קופת חולים כללית - ירושלים",
      "text": "",
      "stayTimes": "09:00 - 12:00",
      "t_start": "2020-03-25T07:00:00",
      "t_end": "2020-03-25T10:00:00",
      "link": ""
    },
    {
      "id": 195402,
      "lat": 31.8122742190001,
      "lon": 35.1952146290001,
      "label": "זול ובגדול קניון רמות. - ירושלים",
      "text": "",
      "stayTimes": "10:00 - 11:00",
      "t_start": "2020-03-26T08:00:00",
      "t_end": "2020-03-26T09:00:00",
      "link": ""
    },
    {
      "id": 195403,
      "lat": 31.7990571390001,
      "lon": 35.2062507960001,
      "label": "פנמיה קרית הילד - ירושלים",
      "text": "",
      "stayTimes": "09:00 - 15:00",
      "t_start": "2020-03-24T07:00:00",
      "t_end": "2020-03-24T13:00:00",
      "link": ""
    },
    {
      "id": 195404,
      "lat": 32.085686722,
      "lon": 34.8422490720001,
      "label": "בית הכנסת קהל חסידים שטיבלך - בני ברק",
      "text": "",
      "stayTimes": "12:45 - 13:15",
      "t_start": "2020-03-23T10:45:00",
      "t_end": "2020-03-23T11:15:00",
      "link": ""
    },
    {
      "id": 195405,
      "lat": 32.0825810640001,
      "lon": 34.842370723,
      "label": "בית הכנסת אשל אברהם - בני ברק",
      "text": "",
      "stayTimes": "08:00 - 10:00",
      "t_start": "2020-03-23T06:00:00",
      "t_end": "2020-03-23T08:00:00",
      "link": ""
    },
    {
      "id": 195406,
      "lat": 32.0827834,
      "lon": 34.8426542,
      "label": "צרכניית גור - בני ברק",
      "text": "",
      "stayTimes": "20:45 - 21:15",
      "t_start": "2020-03-23T18:45:00",
      "t_end": "2020-03-23T19:15:00",
      "link": ""
    },
    {
      "id": 195407,
      "lat": 32.9715689000001,
      "lon": 35.5043578,
      "label": "בנק הפועלים - צפת",
      "text": "",
      "stayTimes": "11:00 - 11:40",
      "t_start": "2020-03-23T09:00:00",
      "t_end": "2020-03-23T09:40:00",
      "link": ""
    },
    {
      "id": 195408,
      "lat": 32.9715941010001,
      "lon": 35.5050279920001,
      "label": "סופר יש שערי העיר - צפת",
      "text": "",
      "stayTimes": "11:40 - 12:10",
      "t_start": "2020-03-23T09:40:00",
      "t_end": "2020-03-23T10:10:00",
      "link": ""
    },
    {
      "id": 195409,
      "lat": 32.1464242870001,
      "lon": 34.8041538000001,
      "label": "\"שופרסל\" סניף גלילות - הרצליה",
      "text": "",
      "stayTimes": "06:00 - 14:30",
      "t_start": "2020-03-27T04:00:00",
      "t_end": "2020-03-27T12:30:00",
      "link": ""
    },
    {
      "id": 195410,
      "lat": 31.9393532,
      "lon": 35.0414396,
      "label": "בית כנסת תורה ותפילה - מודיעין עילית",
      "text": "",
      "stayTimes": "07:30 - 08:40",
      "t_start": "2020-03-23T05:30:00",
      "t_end": "2020-03-23T06:40:00",
      "link": ""
    },
    {
      "id": 195411,
      "lat": 31.991863,
      "lon": 34.7750457000001,
      "label": "ביקור רופא - ראשון לציון",
      "text": "",
      "stayTimes": "21:11 - 22:50",
      "t_start": "2020-03-28T19:11:00",
      "t_end": "2020-03-28T20:50:00",
      "link": ""
    },
    {
      "id": 195412,
      "lat": 32.0069029000001,
      "lon": 34.7508932000001,
      "label": "בית הכנסת אורות התורה - בת ים",
      "text": "",
      "stayTimes": "16:30 - 17:30",
      "t_start": "2020-03-23T14:30:00",
      "t_end": "2020-03-23T15:30:00",
      "link": ""
    },
    {
      "id": 195413,
      "lat": 32.0791613000001,
      "lon": 34.8384143000001,
      "label": "יש חסד - בני ברק",
      "text": "",
      "stayTimes": "22:00 - 22:30",
      "t_start": "2020-03-25T20:00:00",
      "t_end": "2020-03-25T20:30:00",
      "link": ""
    },
    {
      "id": 195414,
      "lat": 32.003632829,
      "lon": 34.8038148690001,
      "label": "חצי חינם - חולון",
      "text": "",
      "stayTimes": "14:30 - 16:30",
      "t_start": "2020-03-25T12:30:00",
      "t_end": "2020-03-25T14:30:00",
      "link": ""
    },
    {
      "id": 195415,
      "lat": 32.018378,
      "lon": 34.770967865,
      "label": "סופרפארם - חולון",
      "text": "",
      "stayTimes": "13:00 - 13:30",
      "t_start": "2020-03-23T11:00:00",
      "t_end": "2020-03-23T11:30:00",
      "link": ""
    },
    {
      "id": 195416,
      "lat": 32.0082967130001,
      "lon": 34.791272909,
      "label": "שופרסל - חולון",
      "text": "",
      "stayTimes": "17:00 - 17:30",
      "t_start": "2020-03-25T15:00:00",
      "t_end": "2020-03-25T15:30:00",
      "link": ""
    },
    {
      "id": 195417,
      "lat": 32.1973029000001,
      "lon": 34.8778576,
      "label": "הום סנטר קניון רננים - רעננה",
      "text": "",
      "stayTimes": "19:00 - 20:00",
      "t_start": "2020-03-26T17:00:00",
      "t_end": "2020-03-26T18:00:00",
      "link": ""
    },
    {
      "id": 195418,
      "lat": 32.1964064000001,
      "lon": 34.8764550000001,
      "label": "פירות גינוסר - רעננה",
      "text": "",
      "stayTimes": "20:00 - 20:30",
      "t_start": "2020-03-26T18:00:00",
      "t_end": "2020-03-26T18:30:00",
      "link": ""
    },
    {
      "id": 195419,
      "lat": 31.6455817,
      "lon": 34.5943259000001,
      "label": "סופר אושר עד - בת הדר",
      "text": "",
      "stayTimes": "19:00 - 21:30",
      "t_start": "2020-03-24T17:00:00",
      "t_end": "2020-03-24T19:30:00",
      "link": ""
    },
    {
      "id": 195420,
      "lat": 31.6697462000001,
      "lon": 34.5790404000001,
      "label": "הבית של חני - אשקלון",
      "text": "",
      "stayTimes": "16:00 - 16:30",
      "t_start": "2020-03-25T14:00:00",
      "t_end": "2020-03-25T14:30:00",
      "link": ""
    },
    {
      "id": 195421,
      "lat": 31.6733361,
      "lon": 34.5760379000001,
      "label": "חודשי השנה- בית - אשקלון",
      "text": "",
      "stayTimes": "09:00 - 11:00",
      "t_start": "2020-03-24T07:00:00",
      "t_end": "2020-03-24T09:00:00",
      "link": ""
    },
    {
      "id": 195422,
      "lat": 31.6629795000001,
      "lon": 34.5766783,
      "label": "קופת חולים נאות אשקלון - אשקלון",
      "text": "",
      "stayTimes": "09:40 - 10:00",
      "t_start": "2020-03-24T07:40:00",
      "t_end": "2020-03-24T08:00:00",
      "link": ""
    },
    {
      "id": 195423,
      "lat": 32.0554890940001,
      "lon": 34.9606203710001,
      "label": "סופר מרקט \"שוק מהדרין\" סניף בן שטח - אלעד",
      "text": "",
      "stayTimes": "08:00 - 16:30",
      "t_start": "2020-03-23T06:00:00",
      "t_end": "2020-03-23T14:30:00",
      "link": ""
    },
    {
      "id": 195424,
      "lat": 32.055256077,
      "lon": 34.9606923480001,
      "label": "סופר מרקט \"שוק מהדרין\" סניף בן שטח - אלעד",
      "text": "",
      "stayTimes": "08:00 - 10:30",
      "t_start": "2020-03-24T06:00:00",
      "t_end": "2020-03-24T08:30:00",
      "link": ""
    },
    {
      "id": 195425,
      "lat": 32.9715689000001,
      "lon": 35.5043578,
      "label": "בנק הפועלים - צפת",
      "text": "",
      "stayTimes": "11:00 - 11:40",
      "t_start": "2020-03-23T09:00:00",
      "t_end": "2020-03-23T09:40:00",
      "link": ""
    },
    {
      "id": 195426,
      "lat": 31.2584512,
      "lon": 34.771347,
      "label": "תיוון \"באר שבע 360\" - באר שבע",
      "text": "",
      "stayTimes": "10:30 - 19:00",
      "t_start": "2020-03-24T08:30:00",
      "t_end": "2020-03-24T17:00:00",
      "link": ""
    },
    {
      "id": 195427,
      "lat": 31.6621588,
      "lon": 34.5788590000001,
      "label": "סופר האחים - אשקלון",
      "text": "",
      "stayTimes": "15:30 - 15:45",
      "t_start": "2020-03-26T13:30:00",
      "t_end": "2020-03-26T13:45:00",
      "link": ""
    },
    {
      "id": 195428,
      "lat": 32.0624029520001,
      "lon": 34.7917720990001,
      "label": "סופר יוחחנוף - תל אביב - יפו",
      "text": "",
      "stayTimes": "20:00 - 21:00",
      "t_start": "2020-03-23T18:00:00",
      "t_end": "2020-03-23T19:00:00",
      "link": ""
    },
    {
      "id": 195429,
      "lat": 32.4490906,
      "lon": 34.9147627,
      "label": "סופר אושר עד באזור התעשייה - חדרה",
      "text": "",
      "stayTimes": "21:00 - 22:30",
      "t_start": "2020-03-23T19:00:00",
      "t_end": "2020-03-23T20:30:00",
      "link": ""
    },
    {
      "id": 195430,
      "lat": 32.7913550000001,
      "lon": 35.032456,
      "label": "בית מרקחת מת\"מ - חיפה",
      "text": "",
      "stayTimes": "17:30 - 18:00",
      "t_start": "2020-03-23T15:30:00",
      "t_end": "2020-03-23T16:00:00",
      "link": ""
    },
    {
      "id": 195431,
      "lat": 32.7830556000001,
      "lon": 34.9594444000001,
      "label": "\"שופרסל\" מת\"מ - חיפה",
      "text": "",
      "stayTimes": "15:30 - 16:30",
      "t_start": "2020-03-23T13:30:00",
      "t_end": "2020-03-23T14:30:00",
      "link": ""
    },
    {
      "id": 195432,
      "lat": 32.5088861,
      "lon": 34.9054839,
      "label": "מאפיית \"אגמי\" - זכרון יעקב",
      "text": "",
      "stayTimes": "08:30 - 10:00",
      "t_start": "2020-03-24T06:30:00",
      "t_end": "2020-03-24T08:00:00",
      "link": ""
    },
    {
      "id": 195433,
      "lat": 32.4492302,
      "lon": 34.9121442000001,
      "label": "מוסך דיזל - חדרה",
      "text": "",
      "stayTimes": "10:00 - 11:00",
      "t_start": "2020-03-23T08:00:00",
      "t_end": "2020-03-23T09:00:00",
      "link": ""
    },
    {
      "id": 195434,
      "lat": 32.1079332,
      "lon": 34.9551265000001,
      "label": "רמי לוי - ראש העין",
      "text": "",
      "stayTimes": "15:00 - 15:30",
      "t_start": "2020-03-23T13:00:00",
      "t_end": "2020-03-23T13:30:00",
      "link": ""
    },
    {
      "id": 195435,
      "lat": 32.066902,
      "lon": 34.803277,
      "label": "חברת ביטוח הפניקס - גבעתיים",
      "text": "",
      "stayTimes": "08:00 - 16:00",
      "t_start": "2020-03-24T06:00:00",
      "t_end": "2020-03-24T14:00:00",
      "link": ""
    },
    {
      "id": 195436,
      "lat": 32.037698784,
      "lon": 34.7761311100001,
      "label": "סופר יוחננוף - חולון",
      "text": "",
      "stayTimes": "11:00 - 12:00",
      "t_start": "2020-03-25T09:00:00",
      "t_end": "2020-03-25T10:00:00",
      "link": ""
    },
    {
      "id": 195437,
      "lat": 32.0562936330001,
      "lon": 34.7697138340001,
      "label": "שופרסל - תל אביב - יפו",
      "text": "",
      "stayTimes": "10:30 - 12:30",
      "t_start": "2020-03-26T08:30:00",
      "t_end": "2020-03-26T10:30:00",
      "link": ""
    },
    {
      "id": 195438,
      "lat": 32.0142516000001,
      "lon": 34.7670197,
      "label": "מוקד מכבי חולון - חולון",
      "text": "",
      "stayTimes": "19:00 - 20:15",
      "t_start": "2020-03-26T17:00:00",
      "t_end": "2020-03-26T18:15:00",
      "link": ""
    },
    {
      "id": 195439,
      "lat": 31.8816816360001,
      "lon": 35.0131298360001,
      "label": "סופר ויקטורי - מודיעין-מכבים-רעות",
      "text": "",
      "stayTimes": "16:30 - 17:10",
      "t_start": "2020-03-24T14:30:00",
      "t_end": "2020-03-24T15:10:00",
      "link": ""
    },
    {
      "id": 195440,
      "lat": 32.2504740460001,
      "lon": 34.9187643180001,
      "label": "מכולת - תל מונד",
      "text": "",
      "stayTimes": "07:30 - 12:00",
      "t_start": "2020-03-23T05:30:00",
      "t_end": "2020-03-23T10:00:00",
      "link": ""
    },
    {
      "id": 195441,
      "lat": 32.2504774060001,
      "lon": 34.9187643180001,
      "label": "מכולת - תל מונד",
      "text": "",
      "stayTimes": "07:30 - 12:00",
      "t_start": "2020-03-24T05:30:00",
      "t_end": "2020-03-24T10:00:00",
      "link": ""
    },
    {
      "id": 195442,
      "lat": 32.0572373150001,
      "lon": 34.869520294,
      "label": "סופר AM/PM אבאבן גבירול 14 תא - תל אביב - יפו",
      "text": "",
      "stayTimes": "19:00 - 21:00",
      "t_start": "2020-03-28T17:00:00",
      "t_end": "2020-03-28T19:00:00",
      "link": ""
    },
    {
      "id": 195443,
      "lat": 32.0699541000001,
      "lon": 34.7829564,
      "label": "טיב טעם - החשמונאים 91 תא - תל אביב - יפו",
      "text": "",
      "stayTimes": "19:30 - 21:30",
      "t_start": "2020-03-29T17:30:00",
      "t_end": "2020-03-29T19:30:00",
      "link": ""
    },
    {
      "id": 195444,
      "lat": 32.0699541000001,
      "lon": 34.7829564,
      "label": "טיב טעם - החשמונאים 91 תא - תל אביב - יפו",
      "text": "",
      "stayTimes": "19:00 - 21:00",
      "t_start": "2020-03-25T17:00:00",
      "t_end": "2020-03-25T19:00:00",
      "link": ""
    },
    {
      "id": 195445,
      "lat": 32.0504172,
      "lon": 34.9504439,
      "label": "מרפאת כללית שמאי - אלעד",
      "text": "",
      "stayTimes": "07:30 - 13:00",
      "t_start": "2020-03-24T05:30:00",
      "t_end": "2020-03-24T11:00:00",
      "link": ""
    },
    {
      "id": 195446,
      "lat": 32.9236277000001,
      "lon": 35.3080387000001,
      "label": "סופרמרקט רמי לוי - כרמיאל",
      "text": "",
      "stayTimes": "20:00 - 21:30",
      "t_start": "2020-03-24T18:00:00",
      "t_end": "2020-03-24T19:30:00",
      "link": ""
    },
    {
      "id": 195447,
      "lat": 32.9206767000001,
      "lon": 35.3109357000001,
      "label": "חנות טמבור כהן - כרמיאל",
      "text": "",
      "stayTimes": "15:30 - 16:00",
      "t_start": "2020-03-25T13:30:00",
      "t_end": "2020-03-25T14:00:00",
      "link": ""
    },
    {
      "id": 195448,
      "lat": 31.6692012,
      "lon": 34.6027083000001,
      "label": "שוק העיר - אשקלון",
      "text": "",
      "stayTimes": "09:15 - 10:15",
      "t_start": "2020-03-25T07:15:00",
      "t_end": "2020-03-25T08:15:00",
      "link": ""
    },
    {
      "id": 195449,
      "lat": 31.9257275940001,
      "lon": 34.8639782770001,
      "label": "שופרסל דיל- קניון עזריאלי - רמלה",
      "text": "",
      "stayTimes": "19:00 - 19:10",
      "t_start": "2020-03-24T17:00:00",
      "t_end": "2020-03-24T17:10:00",
      "link": ""
    },
    {
      "id": 195450,
      "lat": 31.6659504360001,
      "lon": 34.562813997,
      "label": "קונדטוריה לה טורט - אשקלון",
      "text": "",
      "stayTimes": "11:00 - 11:30",
      "t_start": "2020-03-27T09:00:00",
      "t_end": "2020-03-27T09:30:00",
      "link": ""
    },
    {
      "id": 195451,
      "lat": 31.6622785000001,
      "lon": 34.5592871000001,
      "label": "יחידת מחשוב בי\"ח ברזילי - אשקלון",
      "text": "",
      "stayTimes": "08:00 - 18:00",
      "t_start": "2020-03-25T06:00:00",
      "t_end": "2020-03-25T16:00:00",
      "link": ""
    },
    {
      "id": 195452,
      "lat": 31.6622785000001,
      "lon": 34.5592871000001,
      "label": "יחידת המחשוב- בי\"ח ברזילי - אשקלון",
      "text": "",
      "stayTimes": "08:00 - 19:00",
      "t_start": "2020-03-26T06:00:00",
      "t_end": "2020-03-26T17:00:00",
      "link": ""
    },
    {
      "id": 195453,
      "lat": 32.1811562,
      "lon": 34.897049,
      "label": "בי\"ח מאיר- מרפאה לתיירות מרפא, נלקחה בדיקה - כפר סבא",
      "text": "",
      "stayTimes": "13:20 - 13:30",
      "t_start": "2020-03-29T11:20:00",
      "t_end": "2020-03-29T11:30:00",
      "link": ""
    },
    {
      "id": 195454,
      "lat": 32.1823231000001,
      "lon": 34.8954868000001,
      "label": "בי\"ח מאיר- מחלקה פנימית ב'- מחלקת קורונה - כפר סבא",
      "text": "",
      "stayTimes": "08:00 - 16:00",
      "t_start": "2020-03-23T06:00:00",
      "t_end": "2020-03-23T14:00:00",
      "link": ""
    },
    {
      "id": 195455,
      "lat": 32.1823231000001,
      "lon": 34.8954868000001,
      "label": "בי\"ח מאיר- מחלקה פנימית ב'- מחלקת קורונה - כפר סבא",
      "text": "",
      "stayTimes": "08:00 - 16:00",
      "t_start": "2020-03-24T06:00:00",
      "t_end": "2020-03-24T14:00:00",
      "link": ""
    },
    {
      "id": 195456,
      "lat": 32.1817066,
      "lon": 34.8949928000001,
      "label": "בי\"ח מאיר- מיון נשימתי - כפר סבא",
      "text": "",
      "stayTimes": "16:00 - 23:00",
      "t_start": "2020-03-24T14:00:00",
      "t_end": "2020-03-24T21:00:00",
      "link": ""
    },
    {
      "id": 195457,
      "lat": 32.9467363000001,
      "lon": 35.1726051000001,
      "label": "MY BABY - ירכא",
      "text": "",
      "stayTimes": "16:30 - 18:00",
      "t_start": "2020-03-25T14:30:00",
      "t_end": "2020-03-25T16:00:00",
      "link": ""
    },
    {
      "id": 195458,
      "lat": 32.345488,
      "lon": 34.855896,
      "label": "בית חולים לניאדו - נתניה",
      "text": "",
      "stayTimes": "16:00 - 16:30",
      "t_start": "2020-03-26T14:00:00",
      "t_end": "2020-03-26T14:30:00",
      "link": ""
    },
    {
      "id": 195459,
      "lat": 31.6651013000001,
      "lon": 34.5661204,
      "label": "מאוחדת - אשקלון",
      "text": "",
      "stayTimes": "09:20 - 09:30",
      "t_start": "2020-03-29T07:20:00",
      "t_end": "2020-03-29T07:30:00",
      "link": ""
    },
    {
      "id": 195460,
      "lat": 31.9476142,
      "lon": 34.8914086,
      "label": "מוקד טרם - לוד - לוד",
      "text": "",
      "stayTimes": "23:15 - 01:00",
      "t_start": "2020-03-27T21:15:00",
      "t_end": "2020-03-26T23:00:00",
      "link": ""
    },
    {
      "id": 195461,
      "lat": 31.9266720000001,
      "lon": 34.8777440000001,
      "label": "סופר פארם קרית הממשלה רמלה - רמלה",
      "text": "",
      "stayTimes": "11:30 - 13:00",
      "t_start": "2020-03-27T09:30:00",
      "t_end": "2020-03-27T11:00:00",
      "link": ""
    },
    {
      "id": 195462,
      "lat": 31.938457256,
      "lon": 35.0451985980001,
      "label": "בית ספר מעלותבת שבע בקומה א במרפסת הדרומית - מודיעין עילית",
      "text": "",
      "stayTimes": "08:00 - 09:00",
      "t_start": "2020-03-27T06:00:00",
      "t_end": "2020-03-27T07:00:00",
      "link": ""
    },
    {
      "id": 195463,
      "lat": 31.928897905,
      "lon": 35.0271220340001,
      "label": "ישיבת מערבאמכון רובין בחדר המרכזי ומשרדים - מתתיהו",
      "text": "",
      "stayTimes": "14:00 - 16:00",
      "t_start": "2020-03-23T12:00:00",
      "t_end": "2020-03-23T14:00:00",
      "link": ""
    },
    {
      "id": 195464,
      "lat": 32.071789075,
      "lon": 34.841956854,
      "label": "מקווה נווה אחי עזר - בני ברק",
      "text": "",
      "stayTimes": "20:00 - 21:00",
      "t_start": "2020-03-24T18:00:00",
      "t_end": "2020-03-24T19:00:00",
      "link": ""
    },
    {
      "id": 195465,
      "lat": 32.2759974000001,
      "lon": 34.9201281000001,
      "label": "סופר פארם - קדימה-צורן",
      "text": "",
      "stayTimes": "13:55 - 14:55",
      "t_start": "2020-03-26T11:55:00",
      "t_end": "2020-03-26T12:55:00",
      "link": ""
    },
    {
      "id": 195466,
      "lat": 31.805127231,
      "lon": 35.1511342750001,
      "label": "סופר רמי לוי במבשרת ציון - ירושלים",
      "text": "",
      "stayTimes": "12:00 - 13:30",
      "t_start": "2020-03-25T10:00:00",
      "t_end": "2020-03-25T11:30:00",
      "link": ""
    },
    {
      "id": 195467,
      "lat": 32.279969689,
      "lon": 34.8538825140001,
      "label": "קופת חולים כללית - נתניה",
      "text": "",
      "stayTimes": "09:20 - 09:45",
      "t_start": "2020-03-27T07:20:00",
      "t_end": "2020-03-27T07:45:00",
      "link": ""
    },
    {
      "id": 195468,
      "lat": 32.279996033,
      "lon": 34.8538909160001,
      "label": "בית מרחקת קופת חולים כללית - נתניה",
      "text": "",
      "stayTimes": "09:45 - 10:00",
      "t_start": "2020-03-27T07:45:00",
      "t_end": "2020-03-27T08:00:00",
      "link": ""
    },
    {
      "id": 195469,
      "lat": 32.0861055440001,
      "lon": 34.8303790780001,
      "label": "בית מרקחת קופת חולים מכבי - בני ברק",
      "text": "",
      "stayTimes": "18:00 - 19:00",
      "t_start": "2020-03-23T16:00:00",
      "t_end": "2020-03-23T17:00:00",
      "link": ""
    },
    {
      "id": 195470,
      "lat": 32.087111411,
      "lon": 34.8285222100001,
      "label": "חנות דרורי מכשירי כתיבה - בני ברק",
      "text": "",
      "stayTimes": "19:00 - 20:00",
      "t_start": "2020-03-23T17:00:00",
      "t_end": "2020-03-23T18:00:00",
      "link": ""
    },
    {
      "id": 195471,
      "lat": 31.884983436,
      "lon": 34.7387132640001,
      "label": "שופרסל דיל - יבנה",
      "text": "",
      "stayTimes": "09:00 - 10:00",
      "t_start": "2020-03-27T07:00:00",
      "t_end": "2020-03-27T08:00:00",
      "link": ""
    },
    {
      "id": 195472,
      "lat": 32.4418197000001,
      "lon": 34.9130742,
      "label": "קופת חולים כללית דגני חדרה - חדרה",
      "text": "",
      "stayTimes": "13:00 - 14:00",
      "t_start": "2020-03-26T11:00:00",
      "t_end": "2020-03-26T12:00:00",
      "link": ""
    },
    {
      "id": 195473,
      "lat": 32.5689002,
      "lon": 34.9548966,
      "label": "קופת חולים \"כללית\" - זכרון יעקב",
      "text": "",
      "stayTimes": "08:00 - 08:30",
      "t_start": "2020-03-25T06:00:00",
      "t_end": "2020-03-25T06:30:00",
      "link": ""
    },
    {
      "id": 195474,
      "lat": 32.5217420000001,
      "lon": 34.9420900000001,
      "label": "קופת חלוים כללית סניף בינימינה - בנימינה-גבעת עדה",
      "text": "",
      "stayTimes": "08:00 - 10:00",
      "t_start": "2020-03-24T06:00:00",
      "t_end": "2020-03-24T08:00:00",
      "link": ""
    },
    {
      "id": 195475,
      "lat": 32.089508,
      "lon": 34.8177827000001,
      "label": "פרימדונה - רמת גן",
      "text": "",
      "stayTimes": "16:00 - 16:20",
      "t_start": "2020-03-25T14:00:00",
      "t_end": "2020-03-25T14:20:00",
      "link": ""
    },
    {
      "id": 195476,
      "lat": 32.5331886170001,
      "lon": 35.148613787,
      "label": "סופר פארם שכ' עין איברהים אום אל פאחם - אום אל-פחם",
      "text": "",
      "stayTimes": "15:00 - 15:30",
      "t_start": "2020-03-27T13:00:00",
      "t_end": "2020-03-27T13:30:00",
      "link": ""
    },
    {
      "id": 195477,
      "lat": 32.4418197000001,
      "lon": 34.9130742,
      "label": "קופת חולים כללית דגני חדרה - חדרה",
      "text": "",
      "stayTimes": "12:00 - 13:00",
      "t_start": "2020-03-26T10:00:00",
      "t_end": "2020-03-26T11:00:00",
      "link": ""
    },
    {
      "id": 195478,
      "lat": 32.4888730000001,
      "lon": 34.9698490000001,
      "label": "חנות סטוק מתחם \"ביג\" - פרדס חנה-כרכור",
      "text": "",
      "stayTimes": "13:00 - 13:30",
      "t_start": "2020-03-24T11:00:00",
      "t_end": "2020-03-24T11:30:00",
      "link": ""
    },
    {
      "id": 195479,
      "lat": 32.4888486,
      "lon": 34.9705568000001,
      "label": "סופר רמי לוי מתחם \"ביג\" - פרדס חנה-כרכור",
      "text": "",
      "stayTimes": "13:30 - 14:30",
      "t_start": "2020-03-24T11:30:00",
      "t_end": "2020-03-24T12:30:00",
      "link": ""
    },
    {
      "id": 195480,
      "lat": 32.5217420000001,
      "lon": 34.9420900000001,
      "label": "קופת חלוים כללית - בנימינה-גבעת עדה",
      "text": "",
      "stayTimes": "10:00 - 11:00",
      "t_start": "2020-03-26T08:00:00",
      "t_end": "2020-03-26T09:00:00",
      "link": ""
    },
    {
      "id": 195481,
      "lat": 31.7417380270001,
      "lon": 34.994899424,
      "label": "מרפאת כללית - בית שמש",
      "text": "",
      "stayTimes": "08:00 - 08:00",
      "t_start": "2020-03-24T06:00:00",
      "t_end": "2020-03-24T06:00:00",
      "link": ""
    },
    {
      "id": 195482,
      "lat": 32.0872753370001,
      "lon": 34.8304794740001,
      "label": "קופ\"ח לאומית - בני ברק",
      "text": "",
      "stayTimes": "10:30 - 11:30",
      "t_start": "2020-03-23T08:30:00",
      "t_end": "2020-03-23T09:30:00",
      "link": ""
    },
    {
      "id": 195483,
      "lat": 32.0828243,
      "lon": 34.8262474000001,
      "label": "סופר מרקט \" יש בשכונה\" - בני ברק",
      "text": "",
      "stayTimes": "12:00 - 12:30",
      "t_start": "2020-03-27T10:00:00",
      "t_end": "2020-03-27T10:30:00",
      "link": ""
    },
    {
      "id": 195484,
      "lat": 32.1937752000001,
      "lon": 34.9081955,
      "label": "מינימרקט דורון - גן חיים",
      "text": "",
      "stayTimes": "14:00 - 14:20",
      "t_start": "2020-03-25T12:00:00",
      "t_end": "2020-03-25T12:20:00",
      "link": ""
    },
    {
      "id": 195485,
      "lat": 32.174426436,
      "lon": 34.9164132130001,
      "label": "בית מרקחת קופת חולים כללית - כפר סבא",
      "text": "",
      "stayTimes": "14:30 - 15:00",
      "t_start": "2020-03-24T12:30:00",
      "t_end": "2020-03-24T13:00:00",
      "link": ""
    },
    {
      "id": 195486,
      "lat": 32.1982224810001,
      "lon": 34.8903975490001,
      "label": "ויקטורי - כפר סבא",
      "text": "",
      "stayTimes": "15:00 - 15:30",
      "t_start": "2020-03-24T13:00:00",
      "t_end": "2020-03-24T13:30:00",
      "link": ""
    },
    {
      "id": 195487,
      "lat": 32.1018083000001,
      "lon": 34.8298623000001,
      "label": "רמי לוי - בני ברק",
      "text": "",
      "stayTimes": "13:00 - 14:00",
      "t_start": "2020-03-27T11:00:00",
      "t_end": "2020-03-27T12:00:00",
      "link": ""
    },
    {
      "id": 195488,
      "lat": 32.0859514000001,
      "lon": 34.8400424000001,
      "label": "בית כנסת ביאלא - בני ברק",
      "text": "",
      "stayTimes": "21:30 - 23:00",
      "t_start": "2020-03-24T19:30:00",
      "t_end": "2020-03-24T21:00:00",
      "link": ""
    },
    {
      "id": 195489,
      "lat": 32.0781428,
      "lon": 34.8297768,
      "label": "בית כנסת קהל חסידים - בני ברק",
      "text": "",
      "stayTimes": "09:30 - 10:45",
      "t_start": "2020-03-24T07:30:00",
      "t_end": "2020-03-24T08:45:00",
      "link": ""
    },
    {
      "id": 195490,
      "lat": 31.7974363000001,
      "lon": 35.2422844000001,
      "label": "הדסה הר הצופים - ירושלים",
      "text": "",
      "stayTimes": "23:00 - 07:00",
      "t_start": "2020-03-23T21:00:00",
      "t_end": "2020-03-24T05:00:00",
      "link": ""
    },
    {
      "id": 195491,
      "lat": 31.7974363000001,
      "lon": 35.2422844000001,
      "label": "הדסה הר הצופים - ירושלים",
      "text": "",
      "stayTimes": "07:00 - 15:00",
      "t_start": "2020-03-25T05:00:00",
      "t_end": "2020-03-25T13:00:00",
      "link": ""
    },
    {
      "id": 195492,
      "lat": 31.7974363000001,
      "lon": 35.2422844000001,
      "label": "הדסה הר הצופים - ירושלים",
      "text": "",
      "stayTimes": "23:00 - 07:00",
      "t_start": "2020-03-25T21:00:00",
      "t_end": "2020-03-26T05:00:00",
      "link": ""
    },
    {
      "id": 195493,
      "lat": 31.7886425,
      "lon": 35.2185716000001,
      "label": "קופת חולים מאוחדת סניף א-טור - ירושלים",
      "text": "",
      "stayTimes": "16:00 - 16:00",
      "t_start": "2020-03-26T14:00:00",
      "t_end": "2020-03-26T14:00:00",
      "link": ""
    },
    {
      "id": 195494,
      "lat": 32.6695708410001,
      "lon": 35.2374570850001,
      "label": "סופר \"אושר עד\" - מגדל העמק",
      "text": "",
      "stayTimes": "13:00 - 14:00",
      "t_start": "2020-03-25T11:00:00",
      "t_end": "2020-03-25T12:00:00",
      "link": ""
    },
    {
      "id": 195495,
      "lat": 31.7956468,
      "lon": 35.20027,
      "label": "בית כנסת חניכי הישיבות ברוממה - ירושלים",
      "text": "",
      "stayTimes": "08:00 - 20:30",
      "t_start": "2020-03-23T06:00:00",
      "t_end": "2020-03-23T18:30:00",
      "link": ""
    },
    {
      "id": 195496,
      "lat": 32.0258672000001,
      "lon": 34.8593382,
      "label": "סופר יש - אור יהודה",
      "text": "",
      "stayTimes": "18:00 - 18:30",
      "t_start": "2020-03-26T16:00:00",
      "t_end": "2020-03-26T16:30:00",
      "link": ""
    },
    {
      "id": 195497,
      "lat": 31.931375051,
      "lon": 35.0406274050001,
      "label": "מרפאת שיניים- ביודנט - מודיעין עילית",
      "text": "",
      "stayTimes": "11:30 - 18:00",
      "t_start": "2020-03-25T09:30:00",
      "t_end": "2020-03-25T16:00:00",
      "link": ""
    },
    {
      "id": 195498,
      "lat": 32.0860237000001,
      "lon": 34.8303992,
      "label": "מכבי מעבדה - בני ברק",
      "text": "",
      "stayTimes": "11:00 - 12:00",
      "t_start": "2020-03-24T09:00:00",
      "t_end": "2020-03-24T10:00:00",
      "link": ""
    },
    {
      "id": 195499,
      "lat": 32.0883273170001,
      "lon": 34.825256842,
      "label": "טיפת חלב הרצוג - בני ברק",
      "text": "",
      "stayTimes": "12:00 - 12:30",
      "t_start": "2020-03-27T10:00:00",
      "t_end": "2020-03-27T10:30:00",
      "link": ""
    },
    {
      "id": 195500,
      "lat": 32.7086484710001,
      "lon": 35.1729655870001,
      "label": "סופר האחים דוד - רמת ישי",
      "text": "",
      "stayTimes": "06:30 - 15:00",
      "t_start": "2020-03-24T04:30:00",
      "t_end": "2020-03-24T13:00:00",
      "link": ""
    },
    {
      "id": 195501,
      "lat": 32.7087613160001,
      "lon": 35.172962904,
      "label": "סופר האחים דוד - רמת ישי",
      "text": "",
      "stayTimes": "06:00 - 14:30",
      "t_start": "2020-03-25T04:00:00",
      "t_end": "2020-03-25T12:30:00",
      "link": ""
    },
    {
      "id": 195502,
      "lat": 32.707768281,
      "lon": 35.173746109,
      "label": "סופר אחים דוד - רמת ישי",
      "text": "",
      "stayTimes": "06:00 - 15:00",
      "t_start": "2020-03-26T04:00:00",
      "t_end": "2020-03-26T13:00:00",
      "link": ""
    },
    {
      "id": 195503,
      "lat": 32.7078946680001,
      "lon": 35.173445702,
      "label": "סופר האחים דוד - רמת ישי",
      "text": "",
      "stayTimes": "06:00 - 15:43",
      "t_start": "2020-03-29T04:00:00",
      "t_end": "2020-03-29T13:43:00",
      "link": ""
    },
    {
      "id": 195504,
      "lat": 32.708734233,
      "lon": 35.172954857,
      "label": "סופר האחים דוד - רמת ישי",
      "text": "",
      "stayTimes": "13:30 - 18:00",
      "t_start": "2020-03-30T11:30:00",
      "t_end": "2020-03-30T16:00:00",
      "link": ""
    },
    {
      "id": 195505,
      "lat": 31.755914444,
      "lon": 34.990648364,
      "label": "סופר פארם- ביג פשן - בית שמש",
      "text": "",
      "stayTimes": "16:15 - 16:45",
      "t_start": "2020-03-26T14:15:00",
      "t_end": "2020-03-26T14:45:00",
      "link": ""
    },
    {
      "id": 195506,
      "lat": 31.7890354,
      "lon": 34.6644925000001,
      "label": "מכבי פארם ,רובע ז, מרכזון רשבי , אשדוד בין השעות 11:00-11:15 - אשדוד",
      "text": "",
      "stayTimes": "08:00 - 08:00",
      "t_start": "2020-03-29T06:00:00",
      "t_end": "2020-03-29T06:00:00",
      "link": ""
    },
    {
      "id": 195507,
      "lat": 32.6694850420001,
      "lon": 35.2374973180001,
      "label": "אושר עד מגדל העמק - מגדל העמק",
      "text": "",
      "stayTimes": "14:35 - 15:30",
      "t_start": "2020-03-25T12:35:00",
      "t_end": "2020-03-25T13:30:00",
      "link": ""
    },
    {
      "id": 195508,
      "lat": 32.6782684,
      "lon": 35.2433929000001,
      "label": "שופרסל פרץ סנטר מגדל העמק - מגדל העמק",
      "text": "",
      "stayTimes": "13:30 - 14:30",
      "t_start": "2020-03-27T11:30:00",
      "t_end": "2020-03-27T12:30:00",
      "link": ""
    },
    {
      "id": 195509,
      "lat": 32.0891567,
      "lon": 34.8668668,
      "label": "בית חולים בלינסון - פתח תקווה",
      "text": "",
      "stayTimes": "04:00 - 07:00",
      "t_start": "2020-03-29T02:00:00",
      "t_end": "2020-03-29T05:00:00",
      "link": ""
    },
    {
      "id": 195510,
      "lat": 32.0327898580001,
      "lon": 34.8510575890001,
      "label": "יוחננוף - אור יהודה",
      "text": "",
      "stayTimes": "07:00 - 07:30",
      "t_start": "2020-03-27T05:00:00",
      "t_end": "2020-03-27T05:30:00",
      "link": ""
    },
    {
      "id": 195511,
      "lat": 32.1581507000001,
      "lon": 34.8947393,
      "label": "דואר ישראל - הוד השרון",
      "text": "",
      "stayTimes": "12:00 - 12:30",
      "t_start": "2020-03-25T10:00:00",
      "t_end": "2020-03-25T10:30:00",
      "link": ""
    },
    {
      "id": 195512,
      "lat": 32.132119,
      "lon": 34.9019260000001,
      "label": "חצי חינם - הוד השרון",
      "text": "",
      "stayTimes": "10:30 - 11:30",
      "t_start": "2020-03-25T08:30:00",
      "t_end": "2020-03-25T09:30:00",
      "link": ""
    },
    {
      "id": 195513,
      "lat": 32.0878644000001,
      "lon": 34.8597884000001,
      "label": "שופרסל - פתח תקווה",
      "text": "",
      "stayTimes": "09:00 - 10:00",
      "t_start": "2020-03-25T07:00:00",
      "t_end": "2020-03-25T08:00:00",
      "link": ""
    },
    {
      "id": 195514,
      "lat": 32.0786915,
      "lon": 34.8367749000001,
      "label": "בית כנסת לדרמן הרב קנבסקי - בני ברק",
      "text": "",
      "stayTimes": "15:00 - 16:15",
      "t_start": "2020-03-23T13:00:00",
      "t_end": "2020-03-23T14:15:00",
      "link": ""
    },
    {
      "id": 195515,
      "lat": 31.7886091,
      "lon": 35.1983191,
      "label": "עמותת אבוקת אור - ירושלים",
      "text": "",
      "stayTimes": "14:30 - 21:00",
      "t_start": "2020-03-23T12:30:00",
      "t_end": "2020-03-23T19:00:00",
      "link": ""
    },
    {
      "id": 195516,
      "lat": 32.0845015290001,
      "lon": 34.829780268,
      "label": "בית הכנסת ביילא - בני ברק",
      "text": "",
      "stayTimes": "10:00 - 11:00",
      "t_start": "2020-03-24T08:00:00",
      "t_end": "2020-03-24T09:00:00",
      "link": ""
    },
    {
      "id": 195517,
      "lat": 32.1058370000001,
      "lon": 34.8923941,
      "label": "אושר עד - פתח תקווה",
      "text": "",
      "stayTimes": "16:00 - 17:30",
      "t_start": "2020-03-26T14:00:00",
      "t_end": "2020-03-26T15:30:00",
      "link": ""
    },
    {
      "id": 195518,
      "lat": 32.0852239070001,
      "lon": 34.830405565,
      "label": "בית הכנסת מבעלזא - בני ברק",
      "text": "",
      "stayTimes": "17:00 - 17:30",
      "t_start": "2020-03-28T15:00:00",
      "t_end": "2020-03-28T15:30:00",
      "link": ""
    },
    {
      "id": 195519,
      "lat": 32.1122558000001,
      "lon": 34.7959133000001,
      "label": "קניון רמת אביב - תל אביב - יפו",
      "text": "",
      "stayTimes": "15:00 - 23:00",
      "t_start": "2020-03-24T13:00:00",
      "t_end": "2020-03-23T21:00:00",
      "link": ""
    },
    {
      "id": 195520,
      "lat": 32.1122558000001,
      "lon": 34.7959133000001,
      "label": "קניון רמת אביב - תל אביב - יפו",
      "text": "",
      "stayTimes": "14:00 - 15:30",
      "t_start": "2020-03-25T12:00:00",
      "t_end": "2020-03-25T13:30:00",
      "link": ""
    },
    {
      "id": 195521,
      "lat": 32.0900940000001,
      "lon": 34.8282610000001,
      "label": "ישיבה סלבודקה - בני ברק",
      "text": "",
      "stayTimes": "08:00 - 08:00",
      "t_start": "2020-04-21T06:00:00",
      "t_end": "2020-03-23T06:00:00",
      "link": ""
    },
    {
      "id": 195522,
      "lat": 32.060191,
      "lon": 34.816158,
      "label": "מאפיית האחים - גבעתיים",
      "text": "",
      "stayTimes": "07:00 - 08:00",
      "t_start": "2020-03-27T05:00:00",
      "t_end": "2020-03-27T06:00:00",
      "link": ""
    },
    {
      "id": 195523,
      "lat": 32.0605559750001,
      "lon": 34.8161564060001,
      "label": "חוות נעמי - חנות גבינות - גבעתיים",
      "text": "",
      "stayTimes": "08:00 - 09:00",
      "t_start": "2020-03-27T06:00:00",
      "t_end": "2020-03-27T07:00:00",
      "link": ""
    },
    {
      "id": 195524,
      "lat": 31.932267546,
      "lon": 35.0421592930001,
      "label": "בית כנסת קהל חסידים שכונת נאות הפסגה - מודיעין עילית",
      "text": "",
      "stayTimes": "09:15 - 10:40",
      "t_start": "2020-03-25T07:15:00",
      "t_end": "2020-03-25T08:40:00",
      "link": ""
    },
    {
      "id": 195525,
      "lat": 31.9277091000001,
      "lon": 35.0472917000001,
      "label": "בית כנסת המרכז נאות הפסגה - מודיעין עילית",
      "text": "",
      "stayTimes": "13:15 - 14:30",
      "t_start": "2020-03-25T11:15:00",
      "t_end": "2020-03-25T12:30:00",
      "link": ""
    },
    {
      "id": 195526,
      "lat": 31.7811218000001,
      "lon": 35.2198881,
      "label": "בית כנסת קהל חסידים נאות הפסגה - מודיעין עילית",
      "text": "",
      "stayTimes": "09:15 - 10:45",
      "t_start": "2020-03-26T07:15:00",
      "t_end": "2020-03-26T08:45:00",
      "link": ""
    },
    {
      "id": 195527,
      "lat": 32.0871682220001,
      "lon": 34.837182522,
      "label": "בית ספר תלמוד תורה קרולין - בני ברק",
      "text": "",
      "stayTimes": "08:30 - 12:15",
      "t_start": "2020-03-24T06:30:00",
      "t_end": "2020-03-24T10:15:00",
      "link": ""
    },
    {
      "id": 195528,
      "lat": 32.087409559,
      "lon": 34.837251162,
      "label": "בית ספר תלמוד תורה קרולין - בני ברק",
      "text": "",
      "stayTimes": "08:30 - 12:15",
      "t_start": "2020-03-25T06:30:00",
      "t_end": "2020-03-25T10:15:00",
      "link": ""
    },
    {
      "id": 195529,
      "lat": 32.087474205,
      "lon": 34.8368927860001,
      "label": "בית ספר תלמוד תורה קרולין - בני ברק",
      "text": "",
      "stayTimes": "08:30 - 12:15",
      "t_start": "2020-03-26T06:30:00",
      "t_end": "2020-03-26T10:15:00",
      "link": ""
    },
    {
      "id": 195530,
      "lat": 31.7278229,
      "lon": 34.7541390000001,
      "label": "רמי לוי - קרית מלאכי",
      "text": "",
      "stayTimes": "19:30 - 20:30",
      "t_start": "2020-03-24T17:30:00",
      "t_end": "2020-03-24T18:30:00",
      "link": ""
    },
    {
      "id": 195531,
      "lat": 31.7266667000001,
      "lon": 34.7450000000001,
      "label": "חנות ויקטורי - קרית מלאכי",
      "text": "",
      "stayTimes": "18:00 - 19:30",
      "t_start": "2020-03-24T16:00:00",
      "t_end": "2020-03-24T17:30:00",
      "link": ""
    },
    {
      "id": 195532,
      "lat": 32.146410071,
      "lon": 34.804152049,
      "label": "שופר סל צומת גלילות - רמת השרון",
      "text": "",
      "stayTimes": "07:00 - 18:00",
      "t_start": "2020-03-23T05:00:00",
      "t_end": "2020-03-23T16:00:00",
      "link": ""
    },
    {
      "id": 195533,
      "lat": 32.6210762000001,
      "lon": 35.3165964,
      "label": "פנימית ג' העמק עפולה - עפולה",
      "text": "",
      "stayTimes": "16:30 - 17:00",
      "t_start": "2020-03-29T14:30:00",
      "t_end": "2020-03-29T15:00:00",
      "link": ""
    },
    {
      "id": 195534,
      "lat": 32.6119453750001,
      "lon": 35.2901433270001,
      "label": "קופת כללית עומר - עפולה",
      "text": "",
      "stayTimes": "08:10 - 08:15",
      "t_start": "2020-03-29T06:10:00",
      "t_end": "2020-03-29T06:15:00",
      "link": ""
    },
    {
      "id": 195535,
      "lat": 32.6210762000001,
      "lon": 35.3165964,
      "label": "מיון העמק - עפולה",
      "text": "",
      "stayTimes": "08:30 - 16:30",
      "t_start": "2020-03-29T06:30:00",
      "t_end": "2020-03-29T14:30:00",
      "link": ""
    },
    {
      "id": 195536,
      "lat": 32.6034711,
      "lon": 35.2985033000001,
      "label": "רשת ויקטורי - עפולה",
      "text": "",
      "stayTimes": "09:30 - 10:30",
      "t_start": "2020-03-27T07:30:00",
      "t_end": "2020-03-27T08:30:00",
      "link": ""
    },
    {
      "id": 195537,
      "lat": 32.6038847,
      "lon": 35.2930428000001,
      "label": "רמי לוי - עפולה",
      "text": "",
      "stayTimes": "17:00 - 17:30",
      "t_start": "2020-03-25T15:00:00",
      "t_end": "2020-03-25T15:30:00",
      "link": ""
    },
    {
      "id": 195538,
      "lat": 32.6038847,
      "lon": 35.2930428000001,
      "label": "רמי לוי - עפולה",
      "text": "",
      "stayTimes": "23:00 - 23:30",
      "t_start": "2020-03-23T21:00:00",
      "t_end": "2020-03-23T21:30:00",
      "link": ""
    },
    {
      "id": 195539,
      "lat": 32.6066989,
      "lon": 35.2913046,
      "label": "בנק מזרחי טפחות - עפולה",
      "text": "",
      "stayTimes": "08:00 - 15:00",
      "t_start": "2020-03-26T06:00:00",
      "t_end": "2020-03-26T13:00:00",
      "link": ""
    },
    {
      "id": 195540,
      "lat": 32.7044268000001,
      "lon": 35.3185582,
      "label": "אושר עד - נוף הגליל",
      "text": "",
      "stayTimes": "20:30 - 21:30",
      "t_start": "2020-03-24T18:30:00",
      "t_end": "2020-03-24T19:30:00",
      "link": ""
    },
    {
      "id": 195541,
      "lat": 32.7115390000001,
      "lon": 35.3248120000001,
      "label": "עירית נוף הגליל - אריזת אוכל לקשישים - נוף הגליל",
      "text": "",
      "stayTimes": "19:00 - 21:30",
      "t_start": "2020-03-25T17:00:00",
      "t_end": "2020-03-25T19:30:00",
      "link": ""
    },
    {
      "id": 195542,
      "lat": 31.7961974,
      "lon": 34.6658564000001,
      "label": "הנדסת מערכות 6410 אלתא מערכות בע\"מ - אשדוד",
      "text": "",
      "stayTimes": "07:30 - 16:30",
      "t_start": "2020-03-24T05:30:00",
      "t_end": "2020-03-24T14:30:00",
      "link": ""
    },
    {
      "id": 195543,
      "lat": 31.7963021630001,
      "lon": 34.6658926320001,
      "label": "הנדסת מערכות 6410 אלתא - אשדוד",
      "text": "",
      "stayTimes": "07:30 - 16:30",
      "t_start": "2020-03-25T05:30:00",
      "t_end": "2020-03-25T14:30:00",
      "link": ""
    },
    {
      "id": 195544,
      "lat": 31.7961974,
      "lon": 34.6658564000001,
      "label": "הנדסת מערכות 6410 אלתא מערכות בע\"מ - אשדוד",
      "text": "",
      "stayTimes": "07:30 - 16:30",
      "t_start": "2020-03-26T05:30:00",
      "t_end": "2020-03-26T14:30:00",
      "link": ""
    },
    {
      "id": 195545,
      "lat": 31.7961974,
      "lon": 34.6658564000001,
      "label": "הנדסת מערכות 6410- אלתא מערכות בע\"מ - אשדוד",
      "text": "",
      "stayTimes": "07:30 - 16:30",
      "t_start": "2020-03-23T05:30:00",
      "t_end": "2020-03-23T14:30:00",
      "link": ""
    },
    {
      "id": 195546,
      "lat": 31.7811218000001,
      "lon": 35.2198881,
      "label": "בית כנסת קהל חסידים - מודיעין עילית",
      "text": "",
      "stayTimes": "10:15 - 12:00",
      "t_start": "2020-03-28T08:15:00",
      "t_end": "2020-03-28T10:00:00",
      "link": ""
    },
    {
      "id": 195547,
      "lat": 32.2504705000001,
      "lon": 34.9187636,
      "label": "ירקות ופירות אבנר - תל מונד",
      "text": "",
      "stayTimes": "09:00 - 11:00",
      "t_start": "2020-03-26T07:00:00",
      "t_end": "2020-03-26T09:00:00",
      "link": ""
    },
    {
      "id": 195548,
      "lat": 32.2762888,
      "lon": 34.9204034000001,
      "label": "רמי לוי - קדימה-צורן",
      "text": "",
      "stayTimes": "16:00 - 16:30",
      "t_start": "2020-03-24T14:00:00",
      "t_end": "2020-03-24T14:30:00",
      "link": ""
    },
    {
      "id": 195549,
      "lat": 32.085668298,
      "lon": 34.8436910520001,
      "label": "צרכניית נתיב החסד - בני ברק",
      "text": "",
      "stayTimes": "13:45 - 14:00",
      "t_start": "2020-03-24T11:45:00",
      "t_end": "2020-03-24T12:00:00",
      "link": ""
    },
    {
      "id": 195550,
      "lat": 31.618339125,
      "lon": 34.752510682,
      "label": "סופרמרקט \"שפע ברכה\" - קרית גת",
      "text": "",
      "stayTimes": "11:30 - 13:00",
      "t_start": "2020-03-27T09:30:00",
      "t_end": "2020-03-27T11:00:00",
      "link": ""
    },
    {
      "id": 195551,
      "lat": 31.9277091000001,
      "lon": 35.0472917000001,
      "label": "בית כנסת מרכזי נאות הפסגה - מודיעין עילית",
      "text": "",
      "stayTimes": "06:30 - 07:30",
      "t_start": "2020-03-24T04:30:00",
      "t_end": "2020-03-24T05:30:00",
      "link": ""
    },
    {
      "id": 195552,
      "lat": 31.9277091000001,
      "lon": 35.0472917000001,
      "label": "בית כנסת מרכזי נאות הפסגה - מודיעין עילית",
      "text": "",
      "stayTimes": "23:00 - 00:00",
      "t_start": "2020-03-23T21:00:00",
      "t_end": "2020-03-23T22:00:00",
      "link": ""
    },
    {
      "id": 195553,
      "lat": 32.0766759000001,
      "lon": 34.8374473000001,
      "label": "בית כנסת בית הילל - בני ברק",
      "text": "",
      "stayTimes": "08:00 - 09:30",
      "t_start": "2020-03-23T06:00:00",
      "t_end": "2020-03-23T07:30:00",
      "link": ""
    },
    {
      "id": 195554,
      "lat": 32.0831060020001,
      "lon": 34.8380074510001,
      "label": "כולל עמלי תורה - בני ברק",
      "text": "",
      "stayTimes": "10:30 - 13:00",
      "t_start": "2020-03-23T08:30:00",
      "t_end": "2020-03-23T11:00:00",
      "link": ""
    },
    {
      "id": 195555,
      "lat": 32.0831162280001,
      "lon": 34.8379994040001,
      "label": "כולל עמלי תורה - בני ברק",
      "text": "",
      "stayTimes": "17:00 - 19:15",
      "t_start": "2020-03-23T15:00:00",
      "t_end": "2020-03-23T17:15:00",
      "link": ""
    },
    {
      "id": 195556,
      "lat": 32.0831548620001,
      "lon": 34.8380423190001,
      "label": "כולל עמלי תורה - בני ברק",
      "text": "",
      "stayTimes": "10:30 - 13:00",
      "t_start": "2020-03-24T08:30:00",
      "t_end": "2020-03-24T11:00:00",
      "link": ""
    },
    {
      "id": 195557,
      "lat": 32.9034519430001,
      "lon": 35.2804295070001,
      "label": "סופר שלי כרמיאל - כרמיאל",
      "text": "",
      "stayTimes": "14:00 - 15:00",
      "t_start": "2020-03-29T12:00:00",
      "t_end": "2020-03-29T13:00:00",
      "link": ""
    },
    {
      "id": 195558,
      "lat": 33.0078433210001,
      "lon": 35.093028964,
      "label": "הרמיתג סיטי - חנות למשקאות חריפות - נהריה",
      "text": "",
      "stayTimes": "14:00 - 14:15",
      "t_start": "2020-03-26T12:00:00",
      "t_end": "2020-03-26T12:15:00",
      "link": ""
    },
    {
      "id": 195559,
      "lat": 31.7789552,
      "lon": 34.6570806,
      "label": "אסותא - אשדוד",
      "text": "",
      "stayTimes": "12:00 - 22:00",
      "t_start": "2020-03-25T10:00:00",
      "t_end": "2020-03-25T20:00:00",
      "link": ""
    },
    {
      "id": 195560,
      "lat": 31.7789552,
      "lon": 34.6570806,
      "label": "אסותא - אשדוד",
      "text": "",
      "stayTimes": "14:00 - 22:00",
      "t_start": "2020-03-23T12:00:00",
      "t_end": "2020-03-23T20:00:00",
      "link": ""
    },
    {
      "id": 195561,
      "lat": 31.9497471,
      "lon": 34.8903665,
      "label": "סניף חיסכון - לוד",
      "text": "",
      "stayTimes": "08:00 - 08:30",
      "t_start": "2020-03-30T06:00:00",
      "t_end": "2020-03-30T06:30:00",
      "link": ""
    },
    {
      "id": 195562,
      "lat": 31.949744063,
      "lon": 34.890370971,
      "label": "סניף חסכון - לוד",
      "text": "",
      "stayTimes": "10:00 - 10:30",
      "t_start": "2020-03-29T08:00:00",
      "t_end": "2020-03-29T08:30:00",
      "link": ""
    },
    {
      "id": 195563,
      "lat": 31.947623304,
      "lon": 34.8914086,
      "label": "טרם - לוד",
      "text": "",
      "stayTimes": "11:00 - 12:00",
      "t_start": "2020-03-29T09:00:00",
      "t_end": "2020-03-29T10:00:00",
      "link": ""
    },
    {
      "id": 195564,
      "lat": 31.6690993,
      "lon": 34.6028289000001,
      "label": "מקס סטוק - אשקלון",
      "text": "",
      "stayTimes": "12:30 - 13:00",
      "t_start": "2020-03-23T10:30:00",
      "t_end": "2020-03-23T11:00:00",
      "link": ""
    },
    {
      "id": 195565,
      "lat": 31.824144926,
      "lon": 35.237467811,
      "label": "סופר פארם - ירושלים",
      "text": "",
      "stayTimes": "18:00 - 20:00",
      "t_start": "2020-03-24T16:00:00",
      "t_end": "2020-03-24T18:00:00",
      "link": ""
    },
    {
      "id": 195566,
      "lat": 31.7923851190001,
      "lon": 34.8242100000001,
      "label": "מחסני השוק - יד בנימין",
      "text": "",
      "stayTimes": "17:00 - 17:30",
      "t_start": "2020-03-26T15:00:00",
      "t_end": "2020-03-26T15:30:00",
      "link": ""
    },
    {
      "id": 195567,
      "lat": 31.6761465000001,
      "lon": 34.6060997000001,
      "label": "שופרסל-דיל-קוסמוס - אשקלון",
      "text": "",
      "stayTimes": "15:00 - 16:30",
      "t_start": "2020-03-23T13:00:00",
      "t_end": "2020-03-23T14:30:00",
      "link": ""
    },
    {
      "id": 195568,
      "lat": 32.0468299,
      "lon": 34.9085715000001,
      "label": "סופרמרקט יש חסד מתחם פאוור סנטר - בארות יצחק",
      "text": "",
      "stayTimes": "14:00 - 14:30",
      "t_start": "2020-03-27T12:00:00",
      "t_end": "2020-03-27T12:30:00",
      "link": ""
    },
    {
      "id": 195569,
      "lat": 32.0152498,
      "lon": 34.7567722000001,
      "label": "סופר דוש - בת ים",
      "text": "",
      "stayTimes": "11:30 - 12:15",
      "t_start": "2020-03-29T09:30:00",
      "t_end": "2020-03-29T10:15:00",
      "link": ""
    },
    {
      "id": 195570,
      "lat": 31.9328128120001,
      "lon": 35.045095127,
      "label": "צרכניית בר כל - מודיעין עילית",
      "text": "",
      "stayTimes": "09:00 - 10:00",
      "t_start": "2020-03-26T07:00:00",
      "t_end": "2020-03-26T08:00:00",
      "link": ""
    },
    {
      "id": 195571,
      "lat": 31.9336929,
      "lon": 35.0468269,
      "label": "בית כנסת אשכנז - מודיעין עילית",
      "text": "",
      "stayTimes": "07:30 - 09:00",
      "t_start": "2020-03-23T05:30:00",
      "t_end": "2020-03-23T07:00:00",
      "link": ""
    },
    {
      "id": 195572,
      "lat": 30.6124486000001,
      "lon": 34.7972646000001,
      "label": "בית הכנסת בישיבה \"מדברה כעדן\" - מצפה רמון",
      "text": "",
      "stayTimes": "22:30 - 23:00",
      "t_start": "2020-03-23T20:30:00",
      "t_end": "2020-03-23T21:00:00",
      "link": ""
    },
    {
      "id": 195573,
      "lat": 30.6118114560001,
      "lon": 34.7972981090001,
      "label": "למד בישיבה בחלק של עזרת נשים \"מדברה כעדן\" - מצפה רמון",
      "text": "",
      "stayTimes": "10:00 - 14:30",
      "t_start": "2020-03-25T08:00:00",
      "t_end": "2020-03-25T12:30:00",
      "link": ""
    },
    {
      "id": 195574,
      "lat": 30.6118631640001,
      "lon": 34.7973281490001,
      "label": "ישיבה \"מדברה כעדן\" - מצפה רמון",
      "text": "",
      "stayTimes": "23:00 - 23:30",
      "t_start": "2020-03-25T21:00:00",
      "t_end": "2020-03-25T21:30:00",
      "link": ""
    },
    {
      "id": 195575,
      "lat": 30.6117302000001,
      "lon": 34.7973024,
      "label": "יצאו כל בני המשפחה לישיבה \"מדברה כעדן\" - מצפה רמון",
      "text": "",
      "stayTimes": "11:30 - 12:30",
      "t_start": "2020-03-28T09:30:00",
      "t_end": "2020-03-28T10:30:00",
      "link": ""
    },
    {
      "id": 195576,
      "lat": 31.7999452,
      "lon": 34.6624044000001,
      "label": "מוקד טרם - אשדוד",
      "text": "",
      "stayTimes": "01:00 - 02:00",
      "t_start": "2020-03-28T23:00:00",
      "t_end": "2020-03-29T00:00:00",
      "link": ""
    },
    {
      "id": 195577,
      "lat": 31.7999452,
      "lon": 34.6624044000001,
      "label": "מוקד טרם - אשדוד",
      "text": "",
      "stayTimes": "10:30 - 11:05",
      "t_start": "2020-03-29T08:30:00",
      "t_end": "2020-03-29T09:05:00",
      "link": ""
    },
    {
      "id": 195578,
      "lat": 31.9987734000001,
      "lon": 34.7658930000001,
      "label": "בית מרקחת - חולון",
      "text": "",
      "stayTimes": "11:30 - 12:00",
      "t_start": "2020-03-24T09:30:00",
      "t_end": "2020-03-24T10:00:00",
      "link": ""
    },
    {
      "id": 195579,
      "lat": 32.0852792000001,
      "lon": 34.8413,
      "label": "בית כנסת וואסלוי - בני ברק",
      "text": "",
      "stayTimes": "12:15 - 13:00",
      "t_start": "2020-03-25T10:15:00",
      "t_end": "2020-03-25T11:00:00",
      "link": ""
    },
    {
      "id": 195580,
      "lat": 32.0894035000001,
      "lon": 34.8297563,
      "label": "בית ספר בית יעקב - בני ברק",
      "text": "",
      "stayTimes": "06:00 - 07:00",
      "t_start": "2020-03-28T04:00:00",
      "t_end": "2020-03-28T05:00:00",
      "link": ""
    },
    {
      "id": 195581,
      "lat": 31.9189282070001,
      "lon": 34.869699611,
      "label": "יינות ביתן כביש עוקף - רמלה",
      "text": "",
      "stayTimes": "16:00 - 17:30",
      "t_start": "2020-03-23T14:00:00",
      "t_end": "2020-03-23T15:30:00",
      "link": ""
    },
    {
      "id": 195582,
      "lat": 31.9189937570001,
      "lon": 34.869716645,
      "label": "יינות ביתן - רמלה",
      "text": "",
      "stayTimes": "16:00 - 17:00",
      "t_start": "2020-03-24T14:00:00",
      "t_end": "2020-03-24T15:00:00",
      "link": ""
    },
    {
      "id": 195583,
      "lat": 31.7932492,
      "lon": 34.6393739000001,
      "label": "סיטי  מרכז בריאות האשה - אשדוד",
      "text": "",
      "stayTimes": "17:00 - 18:00",
      "t_start": "2020-03-30T15:00:00",
      "t_end": "2020-03-30T16:00:00",
      "link": ""
    },
    {
      "id": 195584,
      "lat": 31.8031798000001,
      "lon": 34.6603225000001,
      "label": "כללית  איזור ג - אשדוד",
      "text": "",
      "stayTimes": "08:00 - 09:00",
      "t_start": "2020-03-25T06:00:00",
      "t_end": "2020-03-25T07:00:00",
      "link": ""
    },
    {
      "id": 195585,
      "lat": 32.096632309,
      "lon": 34.84073449,
      "label": "קופת חולים מאוחדת חדר אחיות - בני ברק",
      "text": "",
      "stayTimes": "12:00 - 12:30",
      "t_start": "2020-03-24T10:00:00",
      "t_end": "2020-03-24T10:30:00",
      "link": ""
    },
    {
      "id": 195586,
      "lat": 31.8142106070001,
      "lon": 34.776410626,
      "label": "מעון \" עלי מוריה\" - גדרה",
      "text": "",
      "stayTimes": "08:00 - 12:00",
      "t_start": "2020-03-25T06:00:00",
      "t_end": "2020-03-25T10:00:00",
      "link": ""
    },
    {
      "id": 195587,
      "lat": 32.2695356470001,
      "lon": 34.888081453,
      "label": "מכולת \"הצרכניה\" - אבן יהודה",
      "text": "",
      "stayTimes": "16:00 - 16:30",
      "t_start": "2020-03-26T14:00:00",
      "t_end": "2020-03-26T14:30:00",
      "link": ""
    },
    {
      "id": 195588,
      "lat": 32.1823231000001,
      "lon": 34.8954868000001,
      "label": "בי\"ח מאיר מח' יולודת ג' - כפר סבא",
      "text": "",
      "stayTimes": "21:30 - 08:30",
      "t_start": "2020-03-23T19:30:00",
      "t_end": "2020-03-24T06:30:00",
      "link": ""
    },
    {
      "id": 195589,
      "lat": 32.1823231000001,
      "lon": 34.8954868000001,
      "label": "בי\"ח מאיר , מח' יולדות ג' - כפר סבא",
      "text": "",
      "stayTimes": "21:30 - 08:30",
      "t_start": "2020-03-24T19:30:00",
      "t_end": "2020-03-25T06:30:00",
      "link": ""
    },
    {
      "id": 195590,
      "lat": 32.2926403000001,
      "lon": 34.8624596000001,
      "label": "רמי לוי - נתניה",
      "text": "",
      "stayTimes": "16:45 - 17:20",
      "t_start": "2020-03-26T14:45:00",
      "t_end": "2020-03-26T15:20:00",
      "link": ""
    },
    {
      "id": 195591,
      "lat": 32.2926403000001,
      "lon": 34.8624596000001,
      "label": "רמי לוי - נתניה",
      "text": "",
      "stayTimes": "12:00 - 13:05",
      "t_start": "2020-03-25T10:00:00",
      "t_end": "2020-03-25T11:05:00",
      "link": ""
    },
    {
      "id": 195592,
      "lat": 32.3205556,
      "lon": 34.8711111000001,
      "label": "ויקטורי - נתניה",
      "text": "",
      "stayTimes": "13:50 - 14:10",
      "t_start": "2020-03-27T11:50:00",
      "t_end": "2020-03-27T12:10:00",
      "link": ""
    },
    {
      "id": 195593,
      "lat": 32.3213949,
      "lon": 34.872713,
      "label": "תחנת דלק \"סדש\" - נתניה",
      "text": "",
      "stayTimes": "14:10 - 14:20",
      "t_start": "2020-03-27T12:10:00",
      "t_end": "2020-03-27T12:20:00",
      "link": ""
    },
    {
      "id": 195594,
      "lat": 31.9304891,
      "lon": 35.038692,
      "label": "חנות \"יש\" - מודיעין עילית",
      "text": "",
      "stayTimes": "21:00 - 22:00",
      "t_start": "2020-03-24T19:00:00",
      "t_end": "2020-03-24T20:00:00",
      "link": ""
    },
    {
      "id": 195595,
      "lat": 31.929614972,
      "lon": 35.0387134580001,
      "label": "חנות \"כלבו בולומנט\" מרכז קסם - מודיעין עילית",
      "text": "",
      "stayTimes": "16:45 - 17:30",
      "t_start": "2020-03-25T14:45:00",
      "t_end": "2020-03-25T15:30:00",
      "link": ""
    },
    {
      "id": 195596,
      "lat": 31.925752517,
      "lon": 35.0405376570001,
      "label": "תפילה במניין - מודיעין עילית",
      "text": "",
      "stayTimes": "12:00 - 12:30",
      "t_start": "2020-03-25T10:00:00",
      "t_end": "2020-03-25T10:30:00",
      "link": ""
    },
    {
      "id": 195597,
      "lat": 31.922300819,
      "lon": 34.8102361430001,
      "label": "סופר פרם - נס ציונה",
      "text": "",
      "stayTimes": "12:00 - 12:30",
      "t_start": "2020-03-26T10:00:00",
      "t_end": "2020-03-26T10:30:00",
      "link": ""
    },
    {
      "id": 195598,
      "lat": 31.9223019,
      "lon": 34.810235,
      "label": "מגה בעיר - נס ציונה",
      "text": "",
      "stayTimes": "13:00 - 13:15",
      "t_start": "2020-03-26T11:00:00",
      "t_end": "2020-03-26T11:15:00",
      "link": ""
    },
    {
      "id": 195599,
      "lat": 31.9918432000001,
      "lon": 34.7726765,
      "label": "אסותא, מכון ממוגרפיה וUS - ראשון לציון",
      "text": "",
      "stayTimes": "08:30 - 09:30",
      "t_start": "2020-03-23T06:30:00",
      "t_end": "2020-03-23T07:30:00",
      "link": ""
    },
    {
      "id": 195600,
      "lat": 31.9843930000001,
      "lon": 34.7824942,
      "label": "מכון דימות מ.א.ר - ראשון לציון",
      "text": "",
      "stayTimes": "13:00 - 13:30",
      "t_start": "2020-03-24T11:00:00",
      "t_end": "2020-03-24T11:30:00",
      "link": ""
    },
    {
      "id": 195601,
      "lat": 31.966236458,
      "lon": 34.8397994380001,
      "label": "סופר פרם, סניף אסף הרופא - ראשון לציון",
      "text": "",
      "stayTimes": "17:30 - 18:00",
      "t_start": "2020-03-25T15:30:00",
      "t_end": "2020-03-25T16:00:00",
      "link": ""
    },
    {
      "id": 195602,
      "lat": 31.9667644,
      "lon": 34.8398698,
      "label": "מיון אסף הרופא - ראשון לציון",
      "text": "",
      "stayTimes": "19:00 - 00:00",
      "t_start": "2020-03-25T17:00:00",
      "t_end": "2020-03-24T22:00:00",
      "link": ""
    },
    {
      "id": 195603,
      "lat": 32.0731231,
      "lon": 34.8394450000001,
      "label": "מינימרקט ציון - בני ברק",
      "text": "",
      "stayTimes": "08:00 - 09:00",
      "t_start": "2020-03-24T06:00:00",
      "t_end": "2020-03-24T07:00:00",
      "link": ""
    },
    {
      "id": 195604,
      "lat": 32.791020406,
      "lon": 34.965063656,
      "label": "בדיקת קורונה - חיפה",
      "text": "",
      "stayTimes": "17:00 - 17:02",
      "t_start": "2020-03-24T15:00:00",
      "t_end": "2020-03-24T15:02:00",
      "link": ""
    },
    {
      "id": 195605,
      "lat": 32.7910993240001,
      "lon": 34.965111936,
      "label": "בדיקת קורונה - חיפה",
      "text": "",
      "stayTimes": "11:00 - 11:02",
      "t_start": "2020-03-30T09:00:00",
      "t_end": "2020-03-30T09:02:00",
      "link": ""
    },
    {
      "id": 195606,
      "lat": 32.081155,
      "lon": 34.8415120000001,
      "label": "מרפאה של ד\"ר הרט רופא ילדים - בני ברק",
      "text": "",
      "stayTimes": "18:30 - 19:00",
      "t_start": "2020-03-23T16:30:00",
      "t_end": "2020-03-23T17:00:00",
      "link": ""
    },
    {
      "id": 195607,
      "lat": 32.1541944000001,
      "lon": 34.8414474000001,
      "label": "פרי וירק אמירים - הרצליה",
      "text": "",
      "stayTimes": "15:15 - 15:30",
      "t_start": "2020-03-26T13:15:00",
      "t_end": "2020-03-26T13:30:00",
      "link": ""
    },
    {
      "id": 195608,
      "lat": 32.1538782000001,
      "lon": 34.8417392000001,
      "label": "מגה בעיר נוה אמירים - הרצליה",
      "text": "",
      "stayTimes": "15:30 - 16:00",
      "t_start": "2020-03-26T13:30:00",
      "t_end": "2020-03-26T14:00:00",
      "link": ""
    },
    {
      "id": 195609,
      "lat": 32.314266769,
      "lon": 34.8734674460001,
      "label": "\"המוזלים\" - נתניה",
      "text": "",
      "stayTimes": "16:00 - 16:20",
      "t_start": "2020-03-25T14:00:00",
      "t_end": "2020-03-25T14:20:00",
      "link": ""
    },
    {
      "id": 195610,
      "lat": 31.7525489000001,
      "lon": 35.2166455,
      "label": "מוסך \"לובינסקי\", סניף תלפיות - ירושלים",
      "text": "",
      "stayTimes": "09:00 - 09:20",
      "t_start": "2020-03-26T07:00:00",
      "t_end": "2020-03-26T07:20:00",
      "link": ""
    },
    {
      "id": 195611,
      "lat": 32.310277092,
      "lon": 34.8718715310001,
      "label": "סופר \"רמי לוי\" - נתניה",
      "text": "",
      "stayTimes": "16:30 - 17:45",
      "t_start": "2020-03-25T14:30:00",
      "t_end": "2020-03-25T15:45:00",
      "link": ""
    },
    {
      "id": 195612,
      "lat": 32.257351984,
      "lon": 34.9205700050001,
      "label": "\"בית המאפה הצועני\" - תל מונד",
      "text": "",
      "stayTimes": "15:00 - 15:30",
      "t_start": "2020-03-25T13:00:00",
      "t_end": "2020-03-25T13:30:00",
      "link": ""
    },
    {
      "id": 195613,
      "lat": 31.397279375,
      "lon": 34.7606234300001,
      "label": "ביוטי סנטר - רהט",
      "text": "",
      "stayTimes": "10:00 - 17:00",
      "t_start": "2020-03-25T08:00:00",
      "t_end": "2020-03-25T15:00:00",
      "link": ""
    },
    {
      "id": 195614,
      "lat": 32.6758634,
      "lon": 35.2386237000001,
      "label": "מעיין 200 סופר מרקט - מגדל העמק",
      "text": "",
      "stayTimes": "11:20 - 11:40",
      "t_start": "2020-03-25T09:20:00",
      "t_end": "2020-03-25T09:40:00",
      "link": ""
    },
    {
      "id": 195615,
      "lat": 32.6759701,
      "lon": 35.2401110000001,
      "label": "קניון לב העמק - מגדל העמק",
      "text": "",
      "stayTimes": "11:40 - 12:10",
      "t_start": "2020-03-25T09:40:00",
      "t_end": "2020-03-25T10:10:00",
      "link": ""
    },
    {
      "id": 195616,
      "lat": 32.522927,
      "lon": 35.323964,
      "label": "קופת חולים כללית - צנדלה",
      "text": "",
      "stayTimes": "14:15 - 14:30",
      "t_start": "2020-03-29T12:15:00",
      "t_end": "2020-03-29T12:30:00",
      "link": ""
    },
    {
      "id": 195617,
      "lat": 31.7905812710001,
      "lon": 35.2018959070001,
      "label": "מוקד משרד הבריאות - ירושלים",
      "text": "",
      "stayTimes": "07:00 - 13:30",
      "t_start": "2020-03-24T05:00:00",
      "t_end": "2020-03-24T11:30:00",
      "link": ""
    },
    {
      "id": 195618,
      "lat": 32.0795895000001,
      "lon": 34.7678729,
      "label": "מלון דן תל אביב (הגיע באמבולנס למלון דן תל אביב). - תל אביב - יפו",
      "text": "",
      "stayTimes": "08:00 - 08:00",
      "t_start": "2020-03-25T06:00:00",
      "t_end": "2020-03-25T06:00:00",
      "link": ""
    },
    {
      "id": 195619,
      "lat": 32.8396807,
      "lon": 35.0819103000001,
      "label": "מכבי מוצקין - קרית מוצקין",
      "text": "",
      "stayTimes": "10:00 - 11:00",
      "t_start": "2020-03-23T08:00:00",
      "t_end": "2020-03-23T09:00:00",
      "link": ""
    },
    {
      "id": 195620,
      "lat": 32.9052622,
      "lon": 35.2999467000001,
      "label": "קופת חולים מאוחדת - כרמיאל",
      "text": "",
      "stayTimes": "08:30 - 09:00",
      "t_start": "2020-03-24T06:30:00",
      "t_end": "2020-03-24T07:00:00",
      "link": ""
    },
    {
      "id": 195621,
      "lat": 32.0883094000001,
      "lon": 34.8338804000001,
      "label": "בית כנסת כתב סופר - בני ברק",
      "text": "",
      "stayTimes": "10:00 - 14:00",
      "t_start": "2020-03-23T08:00:00",
      "t_end": "2020-03-23T12:00:00",
      "link": ""
    },
    {
      "id": 195622,
      "lat": 32.0864339,
      "lon": 34.8324048000001,
      "label": "בית כנסת צאנז - בני ברק",
      "text": "",
      "stayTimes": "08:00 - 08:00",
      "t_start": "2020-03-23T06:00:00",
      "t_end": "2020-03-23T06:00:00",
      "link": ""
    },
    {
      "id": 195623,
      "lat": 32.080451935,
      "lon": 34.7901391990001,
      "label": "מיון איכילוב - תל אביב - יפו",
      "text": "",
      "stayTimes": "16:00 - 21:00",
      "t_start": "2020-03-24T14:00:00",
      "t_end": "2020-03-24T19:00:00",
      "link": ""
    },
    {
      "id": 195624,
      "lat": 32.6764703170001,
      "lon": 35.2416815770001,
      "label": "מרפאה בקופ\"ח מכבי משעול הכרמים 1 - מגדל העמק",
      "text": "",
      "stayTimes": "14:45 - 15:00",
      "t_start": "2020-03-24T12:45:00",
      "t_end": "2020-03-24T13:00:00",
      "link": ""
    },
    {
      "id": 195625,
      "lat": 32.045374,
      "lon": 34.8418686000001,
      "label": "מיון נשים - רמת גן",
      "text": "",
      "stayTimes": "01:00 - 06:00",
      "t_start": "2020-03-24T23:00:00",
      "t_end": "2020-03-25T04:00:00",
      "link": ""
    },
    {
      "id": 195626,
      "lat": 32.078697436,
      "lon": 34.7887927290001,
      "label": "מדא - אשקלון",
      "text": "",
      "stayTimes": "08:00 - 08:00",
      "t_start": "2020-03-25T06:00:00",
      "t_end": "2020-03-25T06:00:00",
      "link": ""
    },
    {
      "id": 195627,
      "lat": 31.6756257530001,
      "lon": 34.5580818010001,
      "label": "הוסטל -דיור מוגן - אשקלון",
      "text": "",
      "stayTimes": "08:00 - 08:00",
      "t_start": "2020-03-25T06:00:00",
      "t_end": "2020-03-25T06:00:00",
      "link": ""
    },
    {
      "id": 195628,
      "lat": 31.7395719670001,
      "lon": 34.992783021,
      "label": "מכולת שפע ברכה - בית שמש",
      "text": "",
      "stayTimes": "09:00 - 10:00",
      "t_start": "2020-03-23T07:00:00",
      "t_end": "2020-03-23T08:00:00",
      "link": ""
    },
    {
      "id": 195629,
      "lat": 31.9309420000001,
      "lon": 35.0398315620001,
      "label": "טרם רפואה דחופה - מודיעין עילית",
      "text": "",
      "stayTimes": "17:50 - 18:30",
      "t_start": "2020-03-30T15:50:00",
      "t_end": "2020-03-30T16:30:00",
      "link": ""
    },
    {
      "id": 195630,
      "lat": 31.930264417,
      "lon": 35.038611476,
      "label": "קופת חולים מכבי- אבני עזר - מודיעין עילית",
      "text": "",
      "stayTimes": "10:00 - 08:00",
      "t_start": "2020-03-30T08:00:00",
      "t_end": "2020-03-30T06:00:00",
      "link": ""
    },
    {
      "id": 195631,
      "lat": 32.0947381,
      "lon": 34.8471161000001,
      "label": "חברת אגוז סוכנויות ביטוח קומה 3 - פתח תקווה",
      "text": "",
      "stayTimes": "12:00 - 19:00",
      "t_start": "2020-03-26T10:00:00",
      "t_end": "2020-03-26T17:00:00",
      "link": ""
    },