{
  "points": [
    {
      "id": 483404,
      "lat": 32.4381675060001,
      "lon": 34.921736131,
      "label": "סופר ויקטורי  קניון חדרה - חדרה",
      "text": "",
      "stayTimes": "20:00 - 21:00",
      "t_start": "2020-04-13T18:00:00",
      "t_end": "2020-04-13T19:00:00",
      "link": ""
    },
    {
      "id": 483405,
      "lat": 32.4855131,
      "lon": 34.9698419000001,
      "label": "מרכז גריאטרי שוהם - פרדס חנה-כרכור",
      "text": "",
      "stayTimes": "07:00 - 15:00",
      "t_start": "2020-04-13T05:00:00",
      "t_end": "2020-04-13T13:00:00",
      "link": ""
    },
    {
      "id": 483406,
      "lat": 31.7839243650001,
      "lon": 35.211389889,
      "label": "שערי הלכה - ירושלים",
      "text": "",
      "stayTimes": "08:00 - 08:30",
      "t_start": "2020-04-13T06:00:00",
      "t_end": "2020-04-13T06:30:00",
      "link": ""
    },
    {
      "id": 483407,
      "lat": 32.097276767,
      "lon": 34.896168312,
      "label": "Yellow - פתח תקווה",
      "text": "",
      "stayTimes": "00:30 - 01:00",
      "t_start": "2020-04-14T22:30:00",
      "t_end": "2020-04-14T23:00:00",
      "link": ""
    },
    {
      "id": 483408,
      "lat": 31.748793311,
      "lon": 34.9910159770001,
      "label": "מד\"א בית שמש - בית שמש",
      "text": "",
      "stayTimes": "15:30 - 23:00",
      "t_start": "2020-04-16T13:30:00",
      "t_end": "2020-04-16T21:00:00",
      "link": ""
    },
    {
      "id": 483409,
      "lat": 31.748793311,
      "lon": 34.9910159770001,
      "label": "מד\"א בית-שמש - בית שמש",
      "text": "",
      "stayTimes": "08:00 - 15:00",
      "t_start": "2020-04-19T06:00:00",
      "t_end": "2020-04-19T13:00:00",
      "link": ""
    },
    {
      "id": 483410,
      "lat": 31.748793311,
      "lon": 34.9910159770001,
      "label": "מד\"א בית שמש - בית שמש",
      "text": "",
      "stayTimes": "08:00 - 15:00",
      "t_start": "2020-04-20T06:00:00",
      "t_end": "2020-04-20T13:00:00",
      "link": ""
    },
    {
      "id": 483411,
      "lat": 32.182045563,
      "lon": 34.89608739,
      "label": "פנימית ג בי\"ח מאיר - כפר סבא",
      "text": "",
      "stayTimes": "07:00 - 19:00",
      "t_start": "2020-04-15T05:00:00",
      "t_end": "2020-04-15T17:00:00",
      "link": ""
    },
    {
      "id": 483412,
      "lat": 32.1550269150001,
      "lon": 34.9536160170001,
      "label": "מרפאה כללית - ג'לג'וליה",
      "text": "",
      "stayTimes": "17:00 - 17:10",
      "t_start": "2020-04-14T15:00:00",
      "t_end": "2020-04-14T15:10:00",
      "link": ""
    },
    {
      "id": 483413,
      "lat": 32.11685601,
      "lon": 34.976999334,
      "label": "מוקד שרות רפואה דחופה - כפר קאסם",
      "text": "",
      "stayTimes": "16:00 - 16:15",
      "t_start": "2020-04-17T14:00:00",
      "t_end": "2020-04-17T14:15:00",
      "link": ""
    },
    {
      "id": 483414,
      "lat": 31.785329443,
      "lon": 35.213897563,
      "label": "תחנת שלם מרחב קדם מחוז ירושלים - ירושלים",
      "text": "",
      "stayTimes": "12:00 - 23:00",
      "t_start": "2020-04-13T10:00:00",
      "t_end": "2020-04-13T21:00:00",
      "link": ""
    },
    {
      "id": 483415,
      "lat": 32.049602749,
      "lon": 34.9535502260001,
      "label": "חנות ירקות - אלעד",
      "text": "",
      "stayTimes": "10:00 - 10:30",
      "t_start": "2020-04-14T08:00:00",
      "t_end": "2020-04-14T08:30:00",
      "link": ""
    },
    {
      "id": 483416,
      "lat": 32.098927535,
      "lon": 34.829715252,
      "label": "אושר עד - בני ברק",
      "text": "",
      "stayTimes": "08:00 - 08:30",
      "t_start": "2020-04-14T06:00:00",
      "t_end": "2020-04-14T06:30:00",
      "link": ""
    },
    {
      "id": 483417,
      "lat": 31.788221164,
      "lon": 35.220505142,
      "label": "סופר זול ובגדול - ירושלים",
      "text": "",
      "stayTimes": "10:00 - 12:00",
      "t_start": "2020-04-14T08:00:00",
      "t_end": "2020-04-14T10:00:00",
      "link": ""
    },
    {
      "id": 483418,
      "lat": 31.788221164,
      "lon": 35.220505142,
      "label": "סופר זול ובגדול - ירושלים",
      "text": "",
      "stayTimes": "10:00 - 13:00",
      "t_start": "2020-04-13T08:00:00",
      "t_end": "2020-04-13T11:00:00",
      "link": ""
    },
    {
      "id": 483419,
      "lat": 32.4746736180001,
      "lon": 34.9978632830001,
      "label": "שופרסל \"שלי\" אחוזה ירוקה כרכור - פרדס חנה-כרכור",
      "text": "",
      "stayTimes": "09:00 - 10:00",
      "t_start": "2020-04-17T07:00:00",
      "t_end": "2020-04-17T08:00:00",
      "link": ""
    },
    {
      "id": 483420,
      "lat": 31.7884694700001,
      "lon": 35.205537007,
      "label": "טרם - ירושלים",
      "text": "",
      "stayTimes": "15:00 - 23:59",
      "t_start": "2020-04-20T13:00:00",
      "t_end": "2020-04-20T21:59:00",
      "link": ""
    },
    {
      "id": 483421,
      "lat": 32.0798922610001,
      "lon": 34.9024021450001,
      "label": "סופר \"שופרסל דיל\" - פתח תקווה",
      "text": "",
      "stayTimes": "11:00 - 12:00",
      "t_start": "2020-04-16T09:00:00",
      "t_end": "2020-04-16T10:00:00",
      "link": ""
    },
    {
      "id": 483422,
      "lat": 32.4704617,
      "lon": 35.0387773,
      "label": "שופרסל דיל חריש - חריש",
      "text": "",
      "stayTimes": "12:30 - 13:30",
      "t_start": "2020-04-17T10:30:00",
      "t_end": "2020-04-17T11:30:00",
      "link": ""
    },
    {
      "id": 483423,
      "lat": 32.4705928000001,
      "lon": 35.0391716,
      "label": "סופר פארם חריש - חריש",
      "text": "",
      "stayTimes": "13:30 - 13:45",
      "t_start": "2020-04-17T11:30:00",
      "t_end": "2020-04-17T11:45:00",
      "link": ""
    },
    {
      "id": 483424,
      "lat": 32.0860474580001,
      "lon": 34.832200765,
      "label": "אופטיקה 280 - בני ברק",
      "text": "",
      "stayTimes": "14:00 - 14:40",
      "t_start": "2020-04-20T12:00:00",
      "t_end": "2020-04-20T12:40:00",
      "link": ""
    },
    {
      "id": 483425,
      "lat": 32.4746736180001,
      "lon": 34.9978632830001,
      "label": "שופרסל \"שלי \" סניף פרדס חנה - פרדס חנה-כרכור",
      "text": "",
      "stayTimes": "11:30 - 11:45",
      "t_start": "2020-04-17T09:30:00",
      "t_end": "2020-04-17T09:45:00",
      "link": ""
    },
    {
      "id": 483426,
      "lat": 31.4159425080001,
      "lon": 34.579142615,
      "label": "מאפיית אוחיון - נתיבות",
      "text": "",
      "stayTimes": "20:30 - 21:00",
      "t_start": "2020-04-16T18:30:00",
      "t_end": "2020-04-16T19:00:00",
      "link": ""
    },
    {
      "id": 483427,
      "lat": 31.416068571,
      "lon": 34.5790315040001,
      "label": "מאפיית אוחיון - נתיבות",
      "text": "",
      "stayTimes": "21:00 - 21:30",
      "t_start": "2020-04-18T19:00:00",
      "t_end": "2020-04-18T19:30:00",
      "link": ""
    },
    {
      "id": 483428,
      "lat": 31.817951475,
      "lon": 35.199893156,
      "label": "\"סופר מרזיב\" שירת הים - ירושלים",
      "text": "",
      "stayTimes": "12:00 - 13:00",
      "t_start": "2020-04-13T10:00:00",
      "t_end": "2020-04-13T11:00:00",
      "link": ""
    },
    {
      "id": 483429,
      "lat": 31.7512059050001,
      "lon": 35.18655062,
      "label": "סופר פארם קניון מלחה - ירושלים",
      "text": "",
      "stayTimes": "15:30 - 16:00",
      "t_start": "2020-04-13T13:30:00",
      "t_end": "2020-04-13T14:00:00",
      "link": ""
    },
    {
      "id": 483430,
      "lat": 31.7488410980001,
      "lon": 35.2109615050001,
      "label": "יוחננוף - ירושלים",
      "text": "",
      "stayTimes": "21:00 - 22:00",
      "t_start": "2020-04-16T19:00:00",
      "t_end": "2020-04-16T20:00:00",
      "link": ""
    },
    {
      "id": 483431,
      "lat": 32.470720903,
      "lon": 35.038988143,
      "label": "יין בעיר חריש - חריש",
      "text": "",
      "stayTimes": "13:45 - 14:00",
      "t_start": "2020-04-17T11:45:00",
      "t_end": "2020-04-17T12:00:00",
      "link": ""
    },
    {
      "id": 483432,
      "lat": 31.7051188,
      "lon": 35.1168587000001,
      "label": "סופר יש חסד - ביתר עילית",
      "text": "",
      "stayTimes": "11:30 - 12:00",
      "t_start": "2020-04-13T09:30:00",
      "t_end": "2020-04-13T10:00:00",
      "link": ""
    },
    {
      "id": 483433,
      "lat": 32.0879306000001,
      "lon": 34.8567575000001,
      "label": "רמי לוי - פתח תקווה",
      "text": "",
      "stayTimes": "10:00 - 11:00",
      "t_start": "2020-04-16T08:00:00",
      "t_end": "2020-04-16T09:00:00",
      "link": ""
    },
    {
      "id": 483434,
      "lat": 31.7852588000001,
      "lon": 35.1830189,
      "label": "אושר עד גבעת שאול - ירושלים",
      "text": "",
      "stayTimes": "11:00 - 12:00",
      "t_start": "2020-04-22T09:00:00",
      "t_end": "2020-04-22T10:00:00",
      "link": ""
    },
    {
      "id": 483435,
      "lat": 31.6654723890001,
      "lon": 34.562808182,
      "label": "מרפאת שיניים אפרת - אשקלון",
      "text": "",
      "stayTimes": "10:30 - 12:30",
      "t_start": "2020-04-21T08:30:00",
      "t_end": "2020-04-21T10:30:00",
      "link": ""
    },
    {
      "id": 483436,
      "lat": 31.2543245000001,
      "lon": 34.7916569000001,
      "label": "הירקניה של דוד - באר שבע",
      "text": "",
      "stayTimes": "09:00 - 10:30",
      "t_start": "2020-04-17T07:00:00",
      "t_end": "2020-04-17T08:30:00",
      "link": ""
    },
    {
      "id": 483437,
      "lat": 32.090821981,
      "lon": 34.8388174410001,
      "label": "סופר יש חסד - בני ברק",
      "text": "",
      "stayTimes": "19:00 - 20:00",
      "t_start": "2020-04-13T17:00:00",
      "t_end": "2020-04-13T18:00:00",
      "link": ""
    },
    {
      "id": 483438,
      "lat": 31.9272982360001,
      "lon": 35.0383409300001,
      "label": "יש חסד - מודיעין עילית",
      "text": "",
      "stayTimes": "00:00 - 00:30",
      "t_start": "2020-04-16T22:00:00",
      "t_end": "2020-04-16T22:30:00",
      "link": ""
    },
    {
      "id": 483439,
      "lat": 32.8428574000001,
      "lon": 35.1641175,
      "label": "אל  משהדאוי  סופרמרקט - טמרה",
      "text": "",
      "stayTimes": "15:30 - 16:00",
      "t_start": "2020-04-20T13:30:00",
      "t_end": "2020-04-20T14:00:00",
      "link": ""
    },
    {
      "id": 483440,
      "lat": 31.2656951230001,
      "lon": 34.7633655970001,
      "label": "סופר דיל - באר שבע",
      "text": "",
      "stayTimes": "11:00 - 11:30",
      "t_start": "2020-04-14T09:00:00",
      "t_end": "2020-04-14T09:30:00",
      "link": ""
    },
    {
      "id": 483441,
      "lat": 32.181293979,
      "lon": 34.8952400370001,
      "label": "בית חולים מאיר מחלקת אורטופדיה - כפר סבא",
      "text": "",
      "stayTimes": "08:00 - 08:30",
      "t_start": "2020-04-17T06:00:00",
      "t_end": "2020-04-17T06:30:00",
      "link": ""
    },
    {
      "id": 483442,
      "lat": 32.1812576560001,
      "lon": 34.895211427,
      "label": "בית חולים מאיר מח' אורטופדיה - כפר סבא",
      "text": "",
      "stayTimes": "12:00 - 12:30",
      "t_start": "2020-04-17T10:00:00",
      "t_end": "2020-04-17T10:30:00",
      "link": ""
    },
    {
      "id": 483443,
      "lat": 32.1812394950001,
      "lon": 34.8952758,
      "label": "בית חולים מאיר מח' אורטופדיה - כפר סבא",
      "text": "",
      "stayTimes": "08:00 - 08:30",
      "t_start": "2020-04-18T06:00:00",
      "t_end": "2020-04-18T06:30:00",
      "link": ""
    },
    {
      "id": 483444,
      "lat": 32.1810270340001,
      "lon": 34.8948060590001,
      "label": "בית חולים מאיר מח' אורטופדיה - כפר סבא",
      "text": "",
      "stayTimes": "12:00 - 12:30",
      "t_start": "2020-04-18T10:00:00",
      "t_end": "2020-04-18T10:30:00",
      "link": ""
    },
    {
      "id": 483445,
      "lat": 32.181275817,
      "lon": 34.8952293080001,
      "label": "בית חולים מאיר מח' אורטופדיה - כפר סבא",
      "text": "",
      "stayTimes": "08:00 - 08:30",
      "t_start": "2020-04-19T06:00:00",
      "t_end": "2020-04-19T06:30:00",
      "link": ""
    },
    {
      "id": 483446,
      "lat": 32.181275817,
      "lon": 34.8952328840001,
      "label": "בית חולים מאיר מח' אורטופדיה - כפר סבא",
      "text": "",
      "stayTimes": "12:00 - 12:30",
      "t_start": "2020-04-19T10:00:00",
      "t_end": "2020-04-19T10:30:00",
      "link": ""
    },
    {
      "id": 483447,
      "lat": 32.181266737,
      "lon": 34.895215003,
      "label": "בית חולים מאיר מח' אורטופדיה - כפר סבא",
      "text": "",
      "stayTimes": "08:00 - 08:30",
      "t_start": "2020-04-20T06:00:00",
      "t_end": "2020-04-20T06:30:00",
      "link": ""
    },
    {
      "id": 483448,
      "lat": 32.1812637100001,
      "lon": 34.8952507650001,
      "label": "בית חולים מאיר מח' אורטופדיה - כפר סבא",
      "text": "",
      "stayTimes": "12:00 - 12:30",
      "t_start": "2020-04-20T10:00:00",
      "t_end": "2020-04-20T10:30:00",
      "link": ""
    },
    {
      "id": 483449,
      "lat": 31.607740259,
      "lon": 34.7593345600001,
      "label": "החייל האלמוני 6, קרית גת",
      "text": "",
      "stayTimes": "11:00 - 13:00",
      "t_start": "2020-04-21T09:00:00",
      "t_end": "2020-04-21T11:00:00",
      "link": ""
    },
    {
      "id": 483450,
      "lat": 32.0193588000001,
      "lon": 34.9614117,
      "label": "יקביי הכרמל - שוהם",
      "text": "",
      "stayTimes": "14:00 - 16:30",
      "t_start": "2020-04-21T12:00:00",
      "t_end": "2020-04-21T14:30:00",
      "link": ""
    },
    {
      "id": 483451,
      "lat": 31.416792851,
      "lon": 34.571979212,
      "label": "אלי זול  (חנות ממתקים) - נתיבות",
      "text": "",
      "stayTimes": "14:00 - 14:30",
      "t_start": "2020-04-13T12:00:00",
      "t_end": "2020-04-13T12:30:00",
      "link": ""
    },
    {
      "id": 483452,
      "lat": 32.9173842220001,
      "lon": 35.250529106,
      "label": "תחנת דלק YELLOW מג'ד אל כרום - מג'ד אל-כרום",
      "text": "",
      "stayTimes": "06:00 - 14:00",
      "t_start": "2020-04-14T04:00:00",
      "t_end": "2020-04-14T12:00:00",
      "link": ""
    },
    {
      "id": 483453,
      "lat": 32.9173842220001,
      "lon": 35.250529106,
      "label": "תחנת דלק YELLOW - מג'ד אל-כרום",
      "text": "",
      "stayTimes": "10:00 - 23:00",
      "t_start": "2020-04-15T08:00:00",
      "t_end": "2020-04-15T21:00:00",
      "link": ""
    },
    {
      "id": 483454,
      "lat": 32.9173842220001,
      "lon": 35.250529106,
      "label": "תחנת דלק YELLOW - מג'ד אל-כרום",
      "text": "",
      "stayTimes": "12:00 - 14:00",
      "t_start": "2020-04-18T10:00:00",
      "t_end": "2020-04-18T12:00:00",
      "link": ""
    },
    {
      "id": 483455,
      "lat": 31.7674248810001,
      "lon": 35.295225841,
      "label": "טרם מעלה אדומים - מעלה אדומים",
      "text": "",
      "stayTimes": "16:00 - 16:30",
      "t_start": "2020-04-14T14:00:00",
      "t_end": "2020-04-14T14:30:00",
      "link": ""
    },
    {
      "id": 483456,
      "lat": 32.047602512,
      "lon": 34.9560923880001,
      "label": "קופת חולים לאומית - אלעד",
      "text": "",
      "stayTimes": "08:00 - 08:30",
      "t_start": "2020-04-19T06:00:00",
      "t_end": "2020-04-19T06:30:00",
      "link": ""
    },
    {
      "id": 483457,
      "lat": 31.934637566,
      "lon": 35.0423227520001,
      "label": "סופרמרקט \"בר כל\" - מודיעין עילית",
      "text": "",
      "stayTimes": "20:00 - 21:00",
      "t_start": "2020-04-19T18:00:00",
      "t_end": "2020-04-19T19:00:00",
      "link": ""
    },
    {
      "id": 483458,
      "lat": 31.9302372230001,
      "lon": 35.038582725,
      "label": "סופר מרקט \"יש\" - מודיעין עילית",
      "text": "",
      "stayTimes": "10:00 - 10:30",
      "t_start": "2020-04-16T08:00:00",
      "t_end": "2020-04-16T08:30:00",
      "link": ""
    },
    {
      "id": 483459,
      "lat": 32.0900685,
      "lon": 34.867923326,
      "label": "בית חולים בלינסון - פתח תקווה",
      "text": "",
      "stayTimes": "20:30 - 21:00",
      "t_start": "2020-04-18T18:30:00",
      "t_end": "2020-04-18T19:00:00",
      "link": ""
    },
    {
      "id": 483460,
      "lat": 32.088662105,
      "lon": 34.889573473,
      "label": "מרפאה לאומית - פתח תקווה",
      "text": "",
      "stayTimes": "09:40 - 09:50",
      "t_start": "2020-04-13T07:40:00",
      "t_end": "2020-04-13T07:50:00",
      "link": ""
    },
    {
      "id": 483461,
      "lat": 32.088662105,
      "lon": 34.889573473,
      "label": "מרפאה לאומית - פתח תקווה",
      "text": "",
      "stayTimes": "09:50 - 10:00",
      "t_start": "2020-04-13T07:50:00",
      "t_end": "2020-04-13T08:00:00",
      "link": ""
    },
    {
      "id": 483462,
      "lat": 33.0063472950001,
      "lon": 35.0976566780001,
      "label": "זוגלובק - שלומי",
      "text": "",
      "stayTimes": "06:00 - 17:00",
      "t_start": "2020-04-13T04:00:00",
      "t_end": "2020-04-13T15:00:00",
      "link": ""
    },
    {
      "id": 483463,
      "lat": 33.0063472950001,
      "lon": 35.0976566780001,
      "label": "זוגלובאק - שלומי",
      "text": "",
      "stayTimes": "06:00 - 17:00",
      "t_start": "2020-04-16T04:00:00",
      "t_end": "2020-04-16T15:00:00",
      "link": ""
    },
    {
      "id": 483464,
      "lat": 31.7884481940001,
      "lon": 35.207115382,
      "label": "בית אגד מרפאה - מאוחדת - ירושלים",
      "text": "",
      "stayTimes": "11:00 - 12:00",
      "t_start": "2020-04-19T09:00:00",
      "t_end": "2020-04-19T10:00:00",
      "link": ""
    },
    {
      "id": 483465,
      "lat": 33.0197082020001,
      "lon": 35.2828309440001,
      "label": "זול סטוק - מעלות-תרשיחא",
      "text": "",
      "stayTimes": "17:30 - 17:35",
      "t_start": "2020-04-19T15:30:00",
      "t_end": "2020-04-19T15:35:00",
      "link": ""
    },
    {
      "id": 483466,
      "lat": 32.952275382,
      "lon": 35.178511498,
      "label": "הום סנטר - ירכא",
      "text": "",
      "stayTimes": "10:00 - 11:30",
      "t_start": "2020-04-17T08:00:00",
      "t_end": "2020-04-17T09:30:00",
      "link": ""
    },
    {
      "id": 483467,
      "lat": 32.1847524660001,
      "lon": 34.8967412600001,
      "label": "מוניות הורדים - כפר סבא",
      "text": "",
      "stayTimes": "10:00 - 13:00",
      "t_start": "2020-04-18T08:00:00",
      "t_end": "2020-04-18T11:00:00",
      "link": ""
    },
    {
      "id": 483468,
      "lat": 32.2697890000001,
      "lon": 35.017976,
      "label": "מרכז רפואי אלראזי כביש 26 טייבה - טייבה",
      "text": "",
      "stayTimes": "20:45 - 21:10",
      "t_start": "2020-04-14T18:45:00",
      "t_end": "2020-04-14T19:10:00",
      "link": ""
    },
    {
      "id": 483469,
      "lat": 32.9243927000001,
      "lon": 35.2769814000001,
      "label": "קניון דבאח - דייר אל-אסד",
      "text": "",
      "stayTimes": "12:00 - 20:00",
      "t_start": "2020-04-13T10:00:00",
      "t_end": "2020-04-13T18:00:00",
      "link": ""
    },
    {
      "id": 483470,
      "lat": 32.9243927000001,
      "lon": 35.2769814000001,
      "label": "קניון דבאח - דייר אל-אסד",
      "text": "",
      "stayTimes": "08:00 - 15:30",
      "t_start": "2020-04-16T06:00:00",
      "t_end": "2020-04-16T13:30:00",
      "link": ""
    },
    {
      "id": 483471,
      "lat": 31.416792851,
      "lon": 34.571979212,
      "label": "חנות ממתקים אלי זול - נתיבות",
      "text": "",
      "stayTimes": "13:30 - 14:30",
      "t_start": "2020-04-14T11:30:00",
      "t_end": "2020-04-14T12:30:00",
      "link": ""
    },
    {
      "id": 483472,
      "lat": 31.8084865750001,
      "lon": 35.1985345690001,
      "label": "קופ\"ח לאומית - ירושלים",
      "text": "",
      "stayTimes": "08:00 - 20:30",
      "t_start": "2020-04-20T06:00:00",
      "t_end": "2020-04-20T18:30:00",
      "link": ""
    },
    {
      "id": 483473,
      "lat": 32.066217646,
      "lon": 34.8287757260001,
      "label": "סופר סל שלי - רמת גן",
      "text": "",
      "stayTimes": "11:45 - 12:15",
      "t_start": "2020-04-19T09:45:00",
      "t_end": "2020-04-19T10:15:00",
      "link": ""
    },
    {
      "id": 483474,
      "lat": 31.7884694700001,
      "lon": 35.205537007,
      "label": "טרם שערי העיר - ירושלים",
      "text": "",
      "stayTimes": "03:00 - 06:00",
      "t_start": "2020-04-22T01:00:00",
      "t_end": "2020-04-22T04:00:00",
      "link": ""
    },
    {
      "id": 483475,
      "lat": 31.6928544,
      "lon": 35.1096686000001,
      "label": "חסד לאלפים רמות - ירושלים",
      "text": "",
      "stayTimes": "10:00 - 10:30",
      "t_start": "2020-04-22T08:00:00",
      "t_end": "2020-04-22T08:30:00",
      "link": ""
    },
    {
      "id": 483476,
      "lat": 31.7884373910001,
      "lon": 35.2064509310001,
      "label": "מעיין 2000 - ירושלים",
      "text": "",
      "stayTimes": "12:00 - 12:30",
      "t_start": "2020-04-17T10:00:00",
      "t_end": "2020-04-17T10:30:00",
      "link": ""
    },
    {
      "id": 483477,
      "lat": 31.7921554440001,
      "lon": 35.2047189260001,
      "label": "שערי רווחה - ירושלים",
      "text": "",
      "stayTimes": "18:00 - 18:30",
      "t_start": "2020-04-20T16:00:00",
      "t_end": "2020-04-20T16:30:00",
      "link": ""
    },
    {
      "id": 483478,
      "lat": 32.1681408000001,
      "lon": 34.8421635,
      "label": "הוד מרקט - הרצליה",
      "text": "",
      "stayTimes": "11:30 - 12:00",
      "t_start": "2020-04-22T09:30:00",
      "t_end": "2020-04-22T10:00:00",
      "link": ""
    },
    {
      "id": 483479,
      "lat": 32.008773428,
      "lon": 34.778331404,
      "label": "יינות ביתן - חולון",
      "text": "",
      "stayTimes": "18:30 - 19:00",
      "t_start": "2020-04-13T16:30:00",
      "t_end": "2020-04-13T17:00:00",
      "link": ""
    },
    {
      "id": 483480,
      "lat": 31.7997442980001,
      "lon": 34.6623996050001,
      "label": "יש חסד - אשדוד",
      "text": "",
      "stayTimes": "12:00 - 12:30",
      "t_start": "2020-04-21T10:00:00",
      "t_end": "2020-04-21T10:30:00",
      "link": ""
    },
    {
      "id": 483481,
      "lat": 32.9223311590001,
      "lon": 35.071718494,
      "label": "מכולת ג'ארחי - עכו",
      "text": "",
      "stayTimes": "16:00 - 17:00",
      "t_start": "2020-04-17T14:00:00",
      "t_end": "2020-04-17T15:00:00",
      "link": ""
    },
    {
      "id": 483482,
      "lat": 32.9223773140001,
      "lon": 35.071742634,
      "label": "מכולת ג'ארחי - עכו",
      "text": "",
      "stayTimes": "16:00 - 17:30",
      "t_start": "2020-04-21T14:00:00",
      "t_end": "2020-04-21T15:30:00",
      "link": ""
    },
    {
      "id": 483483,
      "lat": 31.7511387440001,
      "lon": 35.215422888,
      "label": "רמי לוי - ירושלים",
      "text": "",
      "stayTimes": "16:00 - 18:00",
      "t_start": "2020-04-22T14:00:00",
      "t_end": "2020-04-22T16:00:00",
      "link": ""
    },
    {
      "id": 483484,
      "lat": 32.922368308,
      "lon": 35.0715629260001,
      "label": "שלון חומרי בנין - עכו",
      "text": "",
      "stayTimes": "12:00 - 18:00",
      "t_start": "2020-04-23T10:00:00",
      "t_end": "2020-04-23T16:00:00",
      "link": ""
    },
    {
      "id": 483485,
      "lat": 32.9223671830001,
      "lon": 35.071564267,
      "label": "שלון חומרי בניין - עכו",
      "text": "",
      "stayTimes": "12:00 - 20:00",
      "t_start": "2020-04-22T10:00:00",
      "t_end": "2020-04-22T18:00:00",
      "link": ""
    },
    {
      "id": 483486,
      "lat": 31.7662681210001,
      "lon": 35.1478980860001,
      "label": "סניף סופר פארם בקניון של הדסה עין כרם - ירושלים",
      "text": "",
      "stayTimes": "13:00 - 13:20",
      "t_start": "2020-04-21T11:00:00",
      "t_end": "2020-04-21T11:20:00",
      "link": ""
    },
    {
      "id": 483487,
      "lat": 32.0525778960001,
      "lon": 34.9511771420001,
      "label": "יש חסד - אלעד",
      "text": "",
      "stayTimes": "22:00 - 23:00",
      "t_start": "2020-04-19T20:00:00",
      "t_end": "2020-04-19T21:00:00",
      "link": ""
    },
    {
      "id": 483488,
      "lat": 31.766297766,
      "lon": 35.1478960750001,
      "label": "סניף סופר פארם בקניון של הדסה עין כרם - ירושלים",
      "text": "",
      "stayTimes": "09:00 - 09:10",
      "t_start": "2020-04-20T07:00:00",
      "t_end": "2020-04-20T07:10:00",
      "link": ""
    },
    {
      "id": 483489,
      "lat": 31.3976681,
      "lon": 34.7562129,
      "label": "שופר סל - רהט",
      "text": "",
      "stayTimes": "08:00 - 08:30",
      "t_start": "2020-04-19T06:00:00",
      "t_end": "2020-04-19T06:30:00",
      "link": ""
    },
    {
      "id": 483490,
      "lat": 31.396469,
      "lon": 34.757193,
      "label": "קופח לאומיחת - רהט",
      "text": "",
      "stayTimes": "16:00 - 16:30",
      "t_start": "2020-04-21T14:00:00",
      "t_end": "2020-04-21T14:30:00",
      "link": ""
    },
    {
      "id": 483491,
      "lat": 31.3182278,
      "lon": 34.6253776,
      "label": "שופרסל - אופקים",
      "text": "",
      "stayTimes": "08:00 - 11:00",
      "t_start": "2020-04-15T06:00:00",
      "t_end": "2020-04-15T09:00:00",
      "link": ""
    },
    {
      "id": 483492,
      "lat": 31.3182278,
      "lon": 34.6253776,
      "label": "שופר סל - אופקים",
      "text": "",
      "stayTimes": "18:30 - 22:00",
      "t_start": "2020-04-16T16:30:00",
      "t_end": "2020-04-16T20:00:00",
      "link": ""
    },
    {
      "id": 483493,
      "lat": 31.7144626350001,
      "lon": 34.9904344030001,
      "label": "שוק מהדרין - בית שמש",
      "text": "",
      "stayTimes": "21:30 - 22:00",
      "t_start": "2020-04-15T19:30:00",
      "t_end": "2020-04-15T20:00:00",
      "link": ""
    },
    {
      "id": 483494,
      "lat": 32.098620264,
      "lon": 34.839771022,
      "label": "נתיב החסד - בני ברק",
      "text": "",
      "stayTimes": "18:30 - 21:00",
      "t_start": "2020-04-23T16:30:00",
      "t_end": "2020-04-23T19:00:00",
      "link": ""
    },
    {
      "id": 483495,
      "lat": 31.9398782000001,
      "lon": 35.0464255000001,
      "label": "\"ברכל\" נתיבות המשפט מודיעין עילית - מודיעין עילית",
      "text": "",
      "stayTimes": "15:00 - 16:30",
      "t_start": "2020-04-13T13:00:00",
      "t_end": "2020-04-13T14:30:00",
      "link": ""
    },
    {
      "id": 483496,
      "lat": 32.090821981,
      "lon": 34.8388174410001,
      "label": "סופר מרקט \"יש\" - בני ברק",
      "text": "",
      "stayTimes": "07:30 - 08:30",
      "t_start": "2020-04-22T05:30:00",
      "t_end": "2020-04-22T06:30:00",
      "link": ""
    },
    {
      "id": 483497,
      "lat": 31.9302824420001,
      "lon": 35.0386059690001,
      "label": "יש חסד - מודיעין עילית",
      "text": "",
      "stayTimes": "07:50 - 14:30",
      "t_start": "2020-04-14T05:50:00",
      "t_end": "2020-04-14T12:30:00",
      "link": ""
    },
    {
      "id": 483498,
      "lat": 31.9302824420001,
      "lon": 35.0386059690001,
      "label": "יש חסד - מודיעין עילית",
      "text": "",
      "stayTimes": "08:00 - 15:40",
      "t_start": "2020-04-24T06:00:00",
      "t_end": "2020-04-24T13:40:00",
      "link": ""
    },
    {
      "id": 483499,
      "lat": 31.9302824420001,
      "lon": 35.0386059690001,
      "label": "יש חסד - מודיעין עילית",
      "text": "",
      "stayTimes": "07:30 - 14:45",
      "t_start": "2020-04-17T05:30:00",
      "t_end": "2020-04-17T12:45:00",
      "link": ""
    },
    {
      "id": 483500,
      "lat": 31.9302824420001,
      "lon": 35.0386059690001,
      "label": "יש חסד - מודיעין עילית",
      "text": "",
      "stayTimes": "12:00 - 20:30",
      "t_start": "2020-04-19T10:00:00",
      "t_end": "2020-04-19T18:30:00",
      "link": ""
    },
    {
      "id": 483501,
      "lat": 31.9302824420001,
      "lon": 35.0386059690001,
      "label": "יש חסד - מודיעין עילית",
      "text": "",
      "stayTimes": "14:00 - 20:00",
      "t_start": "2020-04-20T12:00:00",
      "t_end": "2020-04-20T18:00:00",
      "link": ""
    },
    {
      "id": 483502,
      "lat": 31.9302824420001,
      "lon": 35.0386059690001,
      "label": "יש חסד - מודיעין עילית",
      "text": "",
      "stayTimes": "07:30 - 16:00",
      "t_start": "2020-04-21T05:30:00",
      "t_end": "2020-04-21T14:00:00",
      "link": ""
    },
    {
      "id": 483503,
      "lat": 31.72654185,
      "lon": 34.7450478210001,
      "label": "ויקטורי - קרית מלאכי",
      "text": "",
      "stayTimes": "17:30 - 18:00",
      "t_start": "2020-04-21T15:30:00",
      "t_end": "2020-04-21T16:00:00",
      "link": ""
    },
    {
      "id": 483504,
      "lat": 32.1168797080001,
      "lon": 34.976998929,
      "label": "מרכז שר'פ - כפר קאסם",
      "text": "",
      "stayTimes": "19:30 - 20:00",
      "t_start": "2020-04-19T17:30:00",
      "t_end": "2020-04-19T18:00:00",
      "link": ""
    },
    {
      "id": 483505,
      "lat": 32.9235495,
      "lon": 35.3140916,
      "label": "מפעל דבאח לעופות כרמיאל - כרמיאל",
      "text": "",
      "stayTimes": "08:00 - 16:00",
      "t_start": "2020-04-13T06:00:00",
      "t_end": "2020-04-13T14:00:00",
      "link": ""
    },
    {
      "id": 483506,
      "lat": 31.2391248480001,
      "lon": 34.769202066,
      "label": "ברכת כוהנים בית מאפה - באר שבע",
      "text": "",
      "stayTimes": "10:00 - 10:30",
      "t_start": "2020-04-17T08:00:00",
      "t_end": "2020-04-17T08:30:00",
      "link": ""
    },
    {
      "id": 483507,
      "lat": 31.8006962640001,
      "lon": 34.641055894,
      "label": "בוטיק הפיתה - אשדוד",
      "text": "",
      "stayTimes": "04:30 - 14:30",
      "t_start": "2020-04-16T02:30:00",
      "t_end": "2020-04-16T12:30:00",
      "link": ""
    },
    {
      "id": 483508,
      "lat": 31.8006962640001,
      "lon": 34.641055894,
      "label": "בוטיק הפיתה - אשדוד",
      "text": "",
      "stayTimes": "04:30 - 14:30",
      "t_start": "2020-04-17T02:30:00",
      "t_end": "2020-04-17T12:30:00",
      "link": ""
    },
    {
      "id": 483509,
      "lat": 31.8006962640001,
      "lon": 34.641055894,
      "label": "בוטיק הפיתה - אשדוד",
      "text": "",
      "stayTimes": "04:00 - 14:00",
      "t_start": "2020-04-19T02:00:00",
      "t_end": "2020-04-19T12:00:00",
      "link": ""
    },
    {
      "id": 483510,
      "lat": 31.8006962640001,
      "lon": 34.641055894,
      "label": "בוטיק הפיתה - אשדוד",
      "text": "",
      "stayTimes": "04:00 - 14:00",
      "t_start": "2020-04-20T02:00:00",
      "t_end": "2020-04-20T12:00:00",
      "link": ""
    },
    {
      "id": 483511,
      "lat": 31.8006962640001,
      "lon": 34.641055894,
      "label": "בוטיק הפיתה - אשדוד",
      "text": "",
      "stayTimes": "04:00 - 14:00",
      "t_start": "2020-04-21T02:00:00",
      "t_end": "2020-04-21T12:00:00",
      "link": ""
    },
    {
      "id": 483512,
      "lat": 31.8006962640001,
      "lon": 34.641055894,
      "label": "בוטיק הפיתה - אשדוד",
      "text": "",
      "stayTimes": "04:30 - 14:00",
      "t_start": "2020-04-22T02:30:00",
      "t_end": "2020-04-22T12:00:00",
      "link": ""
    },
    {
      "id": 483513,
      "lat": 32.952925355,
      "lon": 35.182686812,
      "label": "מולה נוף ירכא - ירכא",
      "text": "",
      "stayTimes": "08:00 - 08:30",
      "t_start": "2020-04-24T06:00:00",
      "t_end": "2020-04-24T06:30:00",
      "link": ""
    },
    {
      "id": 483514,
      "lat": 29.5576985710001,
      "lon": 34.951990596,
      "label": "בית החולים יוספטל מיון כללי - אילת",
      "text": "",
      "stayTimes": "18:00 - 19:00",
      "t_start": "2020-04-18T16:00:00",
      "t_end": "2020-04-18T17:00:00",
      "link": ""
    },
    {
      "id": 483515,
      "lat": 29.5571977220001,
      "lon": 34.9451359890001,
      "label": "קופת חולים מרפאת אופיר - אילת",
      "text": "",
      "stayTimes": "08:00 - 08:30",
      "t_start": "2020-04-20T06:00:00",
      "t_end": "2020-04-20T06:30:00",
      "link": ""
    },
    {
      "id": 483516,
      "lat": 29.5697508000001,
      "lon": 34.9572891,
      "label": "פרי ארצנו - אילת",
      "text": "",
      "stayTimes": "17:30 - 18:00",
      "t_start": "2020-04-21T15:30:00",
      "t_end": "2020-04-21T16:00:00",
      "link": ""
    },
    {
      "id": 483517,
      "lat": 33.0072517340001,
      "lon": 35.0927102630001,
      "label": "סופר פארם סניף געתון - נהריה",
      "text": "",
      "stayTimes": "12:00 - 12:15",
      "t_start": "2020-04-24T10:00:00",
      "t_end": "2020-04-24T10:15:00",
      "link": ""
    },
    {
      "id": 483518,
      "lat": 31.7797643640001,
      "lon": 34.6283885460001,
      "label": "בוטיק הפיתה - אשדוד",
      "text": "",
      "stayTimes": "07:30 - 20:00",
      "t_start": "2020-04-16T05:30:00",
      "t_end": "2020-04-16T18:00:00",
      "link": ""
    },
    {
      "id": 483519,
      "lat": 31.7797643640001,
      "lon": 34.6283885460001,
      "label": "בוטיק הפיתה - אשדוד",
      "text": "",
      "stayTimes": "07:00 - 16:00",
      "t_start": "2020-04-17T05:00:00",
      "t_end": "2020-04-17T14:00:00",
      "link": ""
    },
    {
      "id": 483520,
      "lat": 31.7797643640001,
      "lon": 34.6283885460001,
      "label": "בוטיק הפיתה - אשדוד",
      "text": "",
      "stayTimes": "06:00 - 13:30",
      "t_start": "2020-04-19T04:00:00",
      "t_end": "2020-04-19T11:30:00",
      "link": ""
    },
    {
      "id": 483521,
      "lat": 31.7797643640001,
      "lon": 34.6283885460001,
      "label": "בוטיק הפיתה - אשדוד",
      "text": "",
      "stayTimes": "12:30 - 20:00",
      "t_start": "2020-04-20T10:30:00",
      "t_end": "2020-04-20T18:00:00",
      "link": ""
    },
    {
      "id": 483522,
      "lat": 31.7797643640001,
      "lon": 34.6283885460001,
      "label": "בוטיק הפיתה - אשדוד",
      "text": "",
      "stayTimes": "12:30 - 20:00",
      "t_start": "2020-04-21T10:30:00",
      "t_end": "2020-04-21T18:00:00",
      "link": ""
    },
    {
      "id": 483523,
      "lat": 31.7797643640001,
      "lon": 34.6283885460001,
      "label": "בוטיק הפיתה - אשדוד",
      "text": "",
      "stayTimes": "12:30 - 20:00",
      "t_start": "2020-04-22T10:30:00",
      "t_end": "2020-04-22T18:00:00",
      "link": ""
    },
    {
      "id": 483524,
      "lat": 31.7504101000001,
      "lon": 35.2095757000001,
      "label": "רמי לוי האומן - ירושלים",
      "text": "",
      "stayTimes": "10:00 - 11:00",
      "t_start": "2020-04-19T08:00:00",
      "t_end": "2020-04-19T09:00:00",
      "link": ""
    },
    {
      "id": 483525,
      "lat": 31.7880877580001,
      "lon": 35.1871089590001,
      "label": "סופר \"יש\" - ירושלים",
      "text": "",
      "stayTimes": "13:30 - 15:00",
      "t_start": "2020-04-16T11:30:00",
      "t_end": "2020-04-16T13:00:00",
      "link": ""
    },
    {
      "id": 483526,
      "lat": 31.9398782000001,
      "lon": 35.0464255000001,
      "label": "סופרמרקט ברכל - מודיעין עילית",
      "text": "",
      "stayTimes": "20:00 - 21:00",
      "t_start": "2020-04-19T18:00:00",
      "t_end": "2020-04-19T19:00:00",
      "link": ""
    },
    {
      "id": 483527,
      "lat": 32.8117458,
      "lon": 35.0038105,
      "label": "חנות מפעם- שוק הפשפשים - חיפה",
      "text": "",
      "stayTimes": "09:00 - 14:00",
      "t_start": "2020-04-21T07:00:00",
      "t_end": "2020-04-21T12:00:00",
      "link": ""
    },
    {
      "id": 483528,
      "lat": 31.2576980000001,
      "lon": 34.7681700000001,
      "label": "דואר - קניון שאול המלך - באר שבע",
      "text": "",
      "stayTimes": "12:30 - 15:30",
      "t_start": "2020-04-21T10:30:00",
      "t_end": "2020-04-21T13:30:00",
      "link": ""
    },
    {
      "id": 483529,
      "lat": 31.245815979,
      "lon": 34.776824193,
      "label": "קופ\"ח כללית ט' - באר שבע",
      "text": "",
      "stayTimes": "10:00 - 11:00",
      "t_start": "2020-04-19T08:00:00",
      "t_end": "2020-04-19T09:00:00",
      "link": ""
    },
    {
      "id": 483530,
      "lat": 32.9235965020001,
      "lon": 35.314118432,
      "label": "מפעל באסם דבאח - כרמיאל",
      "text": "",
      "stayTimes": "08:00 - 15:30",
      "t_start": "2020-04-13T06:00:00",
      "t_end": "2020-04-13T13:30:00",
      "link": ""
    },
    {
      "id": 483531,
      "lat": 32.0865883170001,
      "lon": 34.8820112180001,
      "label": "סופר יש - פתח תקווה",
      "text": "",
      "stayTimes": "00:00 - 00:01",
      "t_start": "2020-04-12T22:00:00",
      "t_end": "2020-04-12T22:01:00",
      "link": ""
    },
    {
      "id": 483532,
      "lat": 32.0865883170001,
      "lon": 34.8820112180001,
      "label": "סופר יש - פתח תקווה",
      "text": "",
      "stayTimes": "00:00 - 00:01",
      "t_start": "2020-04-13T22:00:00",
      "t_end": "2020-04-13T22:01:00",
      "link": ""
    },
    {
      "id": 483533,
      "lat": 32.0865883170001,
      "lon": 34.8820112180001,
      "label": "סופר יש - פתח תקווה",
      "text": "",
      "stayTimes": "21:00 - 22:00",
      "t_start": "2020-04-15T19:00:00",
      "t_end": "2020-04-15T20:00:00",
      "link": ""
    },
    {
      "id": 483534,
      "lat": 32.6038847,
      "lon": 35.2930428000001,
      "label": "רמי לוי - עפולה",
      "text": "",
      "stayTimes": "12:00 - 13:00",
      "t_start": "2020-04-24T10:00:00",
      "t_end": "2020-04-24T11:00:00",
      "link": ""
    },
    {
      "id": 483535,
      "lat": 32.60272173,
      "lon": 35.2899566950001,
      "label": "בית כנסת - עפולה",
      "text": "",
      "stayTimes": "17:30 - 18:00",
      "t_start": "2020-04-24T15:30:00",
      "t_end": "2020-04-24T16:00:00",
      "link": ""
    },
    {
      "id": 483536,
      "lat": 31.377415,
      "lon": 34.736324,
      "label": "מתחם 5 קניות - רהט",
      "text": "",
      "stayTimes": "20:00 - 22:30",
      "t_start": "2020-04-21T18:00:00",
      "t_end": "2020-04-21T20:30:00",
      "link": ""
    },
    {
      "id": 483537,
      "lat": 32.0865883170001,
      "lon": 34.8820112180001,
      "label": "סופר יש - פתח תקווה",
      "text": "",
      "stayTimes": "00:00 - 00:01",
      "t_start": "2020-04-15T22:00:00",
      "t_end": "2020-04-15T22:01:00",
      "link": ""
    },
    {
      "id": 483538,
      "lat": 32.0525778960001,
      "lon": 34.9511771420001,
      "label": "סופר יש - אלעד",
      "text": "",
      "stayTimes": "08:00 - 08:30",
      "t_start": "2020-04-16T06:00:00",
      "t_end": "2020-04-16T06:30:00",
      "link": ""
    },
    {
      "id": 483539,
      "lat": 32.8897325820001,
      "lon": 35.238637537,
      "label": "מאפיית אלעין - שעב",
      "text": "",
      "stayTimes": "08:00 - 08:30",
      "t_start": "2020-04-19T06:00:00",
      "t_end": "2020-04-19T06:30:00",
      "link": ""
    },
    {
      "id": 483540,
      "lat": 32.9246137850001,
      "lon": 35.312351177,
      "label": "נפרומור כרמיאל - כרמיאל",
      "text": "",
      "stayTimes": "08:00 - 12:00",
      "t_start": "2020-04-23T06:00:00",
      "t_end": "2020-04-23T10:00:00",
      "link": ""
    },
    {
      "id": 483541,
      "lat": 32.8603543510001,
      "lon": 35.3057840210001,
      "label": "משתלת סחנין מול בנק מרכנטיל - סח'נין",
      "text": "",
      "stayTimes": "15:00 - 15:30",
      "t_start": "2020-04-20T13:00:00",
      "t_end": "2020-04-20T13:30:00",
      "link": ""
    },
    {
      "id": 483542,
      "lat": 31.7997442980001,
      "lon": 34.6623996050001,
      "label": "יש חסד - אשדוד",
      "text": "",
      "stayTimes": "15:00 - 16:00",
      "t_start": "2020-04-22T13:00:00",
      "t_end": "2020-04-22T14:00:00",
      "link": ""
    },
    {
      "id": 483543,
      "lat": 31.7997442980001,
      "lon": 34.6623996050001,
      "label": "יש חסד - אשדוד",
      "text": "",
      "stayTimes": "21:00 - 22:00",
      "t_start": "2020-04-19T19:00:00",
      "t_end": "2020-04-19T20:00:00",
      "link": ""
    },
    {
      "id": 483544,
      "lat": 31.7998053000001,
      "lon": 34.6519699,
      "label": "בית אבות אשדוד - אשדוד",
      "text": "",
      "stayTimes": "08:00 - 08:30",
      "t_start": "2020-04-21T06:00:00",
      "t_end": "2020-04-21T06:30:00",
      "link": ""
    },
    {
      "id": 483545,
      "lat": 32.6738158000001,
      "lon": 35.2351289000001,
      "label": "ביס' חטיבה מגדל אור - מגדל העמק",
      "text": "",
      "stayTimes": "09:00 - 11:00",
      "t_start": "2020-04-20T07:00:00",
      "t_end": "2020-04-20T09:00:00",
      "link": ""
    },
    {
      "id": 483546,
      "lat": 31.814293956,
      "lon": 34.7764854500001,
      "label": "מעון מוריה - גדרה",
      "text": "",
      "stayTimes": "08:00 - 14:00",
      "t_start": "2020-04-13T06:00:00",
      "t_end": "2020-04-13T12:00:00",
      "link": ""
    },
    {
      "id": 483547,
      "lat": 31.814293956,
      "lon": 34.7764854500001,
      "label": "מעון מוריה - גדרה",
      "text": "",
      "stayTimes": "08:00 - 14:00",
      "t_start": "2020-04-14T06:00:00",
      "t_end": "2020-04-14T12:00:00",
      "link": ""
    },
    {
      "id": 483548,
      "lat": 32.0865883170001,
      "lon": 34.8820112180001,
      "label": "סופר יש - פתח תקווה",
      "text": "",
      "stayTimes": "00:00 - 00:01",
      "t_start": "2020-04-16T22:00:00",
      "t_end": "2020-04-16T22:01:00",
      "link": ""
    },
    {
      "id": 483549,
      "lat": 32.0865883170001,
      "lon": 34.8820112180001,
      "label": "סופר יש - פתח תקווה",
      "text": "",
      "stayTimes": "00:00 - 00:01",
      "t_start": "2020-04-18T22:00:00",
      "t_end": "2020-04-18T22:01:00",
      "link": ""
    },
    {
      "id": 483550,
      "lat": 32.0865883170001,
      "lon": 34.8820112180001,
      "label": "סופר יש - פתח תקווה",
      "text": "",
      "stayTimes": "00:00 - 00:01",
      "t_start": "2020-04-19T22:00:00",
      "t_end": "2020-04-19T22:01:00",
      "link": ""
    },
    {
      "id": 483551,
      "lat": 32.0865883170001,
      "lon": 34.8820112180001,
      "label": "סופר יש - פתח תקווה",
      "text": "",
      "stayTimes": "00:00 - 00:01",
      "t_start": "2020-04-20T22:00:00",
      "t_end": "2020-04-20T22:01:00",
      "link": ""
    },
    {
      "id": 483552,
      "lat": 32.0865883170001,
      "lon": 34.8820112180001,
      "label": "סופר יש - פתח תקווה",
      "text": "",
      "stayTimes": "00:00 - 00:01",
      "t_start": "2020-04-21T22:00:00",
      "t_end": "2020-04-21T22:01:00",
      "link": ""
    },
    {
      "id": 483553,
      "lat": 32.0865883170001,
      "lon": 34.8820112180001,
      "label": "סופר יש - פתח תקווה",
      "text": "",
      "stayTimes": "00:00 - 00:01",
      "t_start": "2020-04-22T22:00:00",
      "t_end": "2020-04-22T22:01:00",
      "link": ""
    },
    {
      "id": 483554,
      "lat": 32.0865883170001,
      "lon": 34.8820112180001,
      "label": "סופר יש - פתח תקווה",
      "text": "",
      "stayTimes": "11:00 - 11:40",
      "t_start": "2020-04-24T09:00:00",
      "t_end": "2020-04-24T09:40:00",
      "link": ""
    },
    {
      "id": 483555,
      "lat": 32.07702062,
      "lon": 34.85419662,
      "label": "סופר פארם - גבעת שמואל",
      "text": "",
      "stayTimes": "11:00 - 11:15",
      "t_start": "2020-04-17T09:00:00",
      "t_end": "2020-04-17T09:15:00",
      "link": ""
    },
    {
      "id": 483556,
      "lat": 32.0751450000001,
      "lon": 34.854613,
      "label": "סופר חביב - גבעת שמואל",
      "text": "",
      "stayTimes": "11:00 - 11:30",
      "t_start": "2020-04-16T09:00:00",
      "t_end": "2020-04-16T09:30:00",
      "link": ""
    },
    {
      "id": 483557,
      "lat": 32.087737739,
      "lon": 34.881144862,
      "label": "סופר פארם - פתח תקווה",
      "text": "",
      "stayTimes": "11:40 - 12:15",
      "t_start": "2020-04-24T09:40:00",
      "t_end": "2020-04-24T10:15:00",
      "link": ""
    },
    {
      "id": 483558,
      "lat": 32.852242431,
      "lon": 35.20116899,
      "label": "הבית האיטלקי חנות רהיטים - טמרה",
      "text": "",
      "stayTimes": "19:00 - 20:00",
      "t_start": "2020-04-20T17:00:00",
      "t_end": "2020-04-20T18:00:00",
      "link": ""
    },
    {
      "id": 483559,
      "lat": 31.9258448000001,
      "lon": 35.0439081000001,
      "label": "סופר \" בר כל\" נתיבות המשפט 64 - מודיעין עילית",
      "text": "",
      "stayTimes": "07:30 - 08:00",
      "t_start": "2020-04-24T05:30:00",
      "t_end": "2020-04-24T06:00:00",
      "link": ""
    },
    {
      "id": 483560,
      "lat": 31.9398782000001,
      "lon": 35.0464255000001,
      "label": "חנות ברכול - מודיעין עילית",
      "text": "",
      "stayTimes": "08:00 - 09:00",
      "t_start": "2020-04-13T06:00:00",
      "t_end": "2020-04-13T07:00:00",
      "link": ""
    },
    {
      "id": 483561,
      "lat": 31.9398782000001,
      "lon": 35.0464255000001,
      "label": "חנות ברכול - מודיעין עילית",
      "text": "",
      "stayTimes": "07:30 - 08:15",
      "t_start": "2020-04-14T05:30:00",
      "t_end": "2020-04-14T06:15:00",
      "link": ""
    },
    {
      "id": 483562,
      "lat": 32.1059981940001,
      "lon": 34.9388189900001,
      "label": "יינות ביתן - ראש העין",
      "text": "",
      "stayTimes": "07:30 - 08:30",
      "t_start": "2020-04-17T05:30:00",
      "t_end": "2020-04-17T06:30:00",
      "link": ""
    },
    {
      "id": 483563,
      "lat": 31.7365867,
      "lon": 34.7521718,
      "label": "חברת נטו קרית מלאכי - קרית מלאכי",
      "text": "",
      "stayTimes": "00:00 - 15:00",
      "t_start": "2020-04-13T22:00:00",
      "t_end": "2020-04-14T13:00:00",
      "link": ""
    },
    {
      "id": 483564,
      "lat": 31.7365867,
      "lon": 34.7521718,
      "label": "חברת נטו קרית מלאכי - קרית מלאכי",
      "text": "",
      "stayTimes": "00:00 - 15:00",
      "t_start": "2020-04-14T22:00:00",
      "t_end": "2020-04-15T13:00:00",
      "link": ""
    },
    {
      "id": 483565,
      "lat": 31.7365867,
      "lon": 34.7521718,
      "label": "חברת נטו קריית מלאכי - קרית מלאכי",
      "text": "",
      "stayTimes": "00:00 - 15:00",
      "t_start": "2020-04-15T22:00:00",
      "t_end": "2020-04-16T13:00:00",
      "link": ""
    },
    {
      "id": 483566,
      "lat": 31.7365867,
      "lon": 34.7521718,
      "label": "חברת נטו קרית מלאכי - קרית מלאכי",
      "text": "",
      "stayTimes": "00:00 - 15:00",
      "t_start": "2020-04-18T22:00:00",
      "t_end": "2020-04-19T13:00:00",
      "link": ""
    },
    {
      "id": 483567,
      "lat": 31.296262396,
      "lon": 34.927918606,
      "label": "קופת חולים כללית - חורה",
      "text": "",
      "stayTimes": "08:30 - 09:00",
      "t_start": "2020-04-23T06:30:00",
      "t_end": "2020-04-23T07:00:00",
      "link": ""
    },
    {
      "id": 483568,
      "lat": 32.783842238,
      "lon": 35.019843892,
      "label": "בית אבות  מעון הרופא - חיפה",
      "text": "",
      "stayTimes": "01:00 - 07:30",
      "t_start": "2020-04-20T23:00:00",
      "t_end": "2020-04-21T05:30:00",
      "link": ""
    },
    {
      "id": 483569,
      "lat": 32.0859816380001,
      "lon": 34.8394351330001,
      "label": "יש חסד - בני ברק",
      "text": "",
      "stayTimes": "21:30 - 22:30",
      "t_start": "2020-04-21T19:30:00",
      "t_end": "2020-04-21T20:30:00",
      "link": ""
    },
    {
      "id": 483570,
      "lat": 32.6587434250001,
      "lon": 35.1090300910001,
      "label": "מרפאת קופח כללית - הנוריות - יקנעם עילית",
      "text": "",
      "stayTimes": "10:00 - 10:40",
      "t_start": "2020-04-21T08:00:00",
      "t_end": "2020-04-21T08:40:00",
      "link": ""
    },
    {
      "id": 483571,
      "lat": 32.256608,
      "lon": 34.91846,
      "label": "מעון חברת נעורים - תל מונד",
      "text": "",
      "stayTimes": "07:00 - 21:00",
      "t_start": "2020-04-16T05:00:00",
      "t_end": "2020-04-16T19:00:00",
      "link": ""
    },
    {
      "id": 483572,
      "lat": 32.256608,
      "lon": 34.91846,
      "label": "מעון חברת נעורים - תל מונד",
      "text": "",
      "stayTimes": "07:00 - 14:00",
      "t_start": "2020-04-17T05:00:00",
      "t_end": "2020-04-17T12:00:00",
      "link": ""
    },
    {
      "id": 483573,
      "lat": 32.256608,
      "lon": 34.91846,
      "label": "מעון חברת נעורים - תל מונד",
      "text": "",
      "stayTimes": "14:00 - 21:00",
      "t_start": "2020-04-20T12:00:00",
      "t_end": "2020-04-20T19:00:00",
      "link": ""
    },
    {
      "id": 483574,
      "lat": 32.2826063730001,
      "lon": 34.9087456990001,
      "label": "משטרת שדות קדימה - קדימה-צורן",
      "text": "",
      "stayTimes": "11:00 - 17:30",
      "t_start": "2020-04-22T09:00:00",
      "t_end": "2020-04-22T15:30:00",
      "link": ""
    },
    {
      "id": 483575,
      "lat": 31.814293956,
      "lon": 34.7764854500001,
      "label": "מעון מוריה - גדרה",
      "text": "",
      "stayTimes": "08:00 - 14:00",
      "t_start": "2020-04-15T06:00:00",
      "t_end": "2020-04-15T12:00:00",
      "link": ""
    },
    {
      "id": 483576,
      "lat": 32.103574462,
      "lon": 34.834644,
      "label": "חלמיש חנות ריצוף - בני ברק",
      "text": "",
      "stayTimes": "11:30 - 13:00",
      "t_start": "2020-04-24T09:30:00",
      "t_end": "2020-04-24T11:00:00",
      "link": ""
    },
    {
      "id": 483577,
      "lat": 32.098060515,
      "lon": 34.825575814,
      "label": "פרפקט ליין - רמת גן",
      "text": "",
      "stayTimes": "10:00 - 11:30",
      "t_start": "2020-04-24T08:00:00",
      "t_end": "2020-04-24T09:30:00",
      "link": ""
    },
    {
      "id": 483578,
      "lat": 32.0628766900001,
      "lon": 34.780424113,
      "label": "משרד רו\"ח \"BDO\" - תל אביב - יפו",
      "text": "",
      "stayTimes": "10:00 - 18:00",
      "t_start": "2020-04-19T08:00:00",
      "t_end": "2020-04-19T16:00:00",
      "link": ""
    },
    {
      "id": 483579,
      "lat": 31.7741936,
      "lon": 35.1753018000001,
      "label": "יד ושם - ירושלים",
      "text": "",
      "stayTimes": "17:00 - 18:00",
      "t_start": "2020-04-22T15:00:00",
      "t_end": "2020-04-22T16:00:00",
      "link": ""
    },
    {
      "id": 483580,
      "lat": 31.785044661,
      "lon": 35.174665213,
      "label": "טיפת חלב - ירושלים",
      "text": "",
      "stayTimes": "09:30 - 10:00",
      "t_start": "2020-04-19T07:30:00",
      "t_end": "2020-04-19T08:00:00",
      "link": ""
    },
    {
      "id": 483581,
      "lat": 33.018336,
      "lon": 35.0921828,
      "label": "סופרמרקט חוף הדקל - נהריה",
      "text": "",
      "stayTimes": "16:00 - 17:00",
      "t_start": "2020-04-25T14:00:00",
      "t_end": "2020-04-25T15:00:00",
      "link": ""
    },
    {
      "id": 483582,
      "lat": 31.814293956,
      "lon": 34.7764854500001,
      "label": "מעון מוריה - גדרה",
      "text": "",
      "stayTimes": "08:00 - 14:00",
      "t_start": "2020-04-16T06:00:00",
      "t_end": "2020-04-16T12:00:00",
      "link": ""
    },
    {
      "id": 483583,
      "lat": 31.814293956,
      "lon": 34.7764854500001,
      "label": "מעון מוריה - גדרה",
      "text": "",
      "stayTimes": "08:00 - 14:00",
      "t_start": "2020-04-17T06:00:00",
      "t_end": "2020-04-17T12:00:00",
      "link": ""
    },
    {
      "id": 483584,
      "lat": 31.814293956,
      "lon": 34.7764854500001,
      "label": "מעון מוריה - גדרה",
      "text": "",
      "stayTimes": "08:00 - 14:00",
      "t_start": "2020-04-18T06:00:00",
      "t_end": "2020-04-18T12:00:00",
      "link": ""
    },
    {
      "id": 483585,
      "lat": 31.814293956,
      "lon": 34.7764854500001,
      "label": "מעון מוריה - גדרה",
      "text": "",
      "stayTimes": "08:00 - 14:00",
      "t_start": "2020-04-19T06:00:00",
      "t_end": "2020-04-19T12:00:00",
      "link": ""
    },
    {
      "id": 483586,
      "lat": 31.814293956,
      "lon": 34.7764854500001,
      "label": "מעון מוריה - גדרה",
      "text": "",
      "stayTimes": "08:00 - 14:00",
      "t_start": "2020-04-20T06:00:00",
      "t_end": "2020-04-20T12:00:00",
      "link": ""
    },
    {
      "id": 483587,
      "lat": 31.814293956,
      "lon": 34.7764854500001,
      "label": "מעון מוריה - גדרה",
      "text": "",
      "stayTimes": "08:00 - 14:00",
      "t_start": "2020-04-21T06:00:00",
      "t_end": "2020-04-21T12:00:00",
      "link": ""
    },
    {
      "id": 483588,
      "lat": 31.814293956,
      "lon": 34.7764854500001,
      "label": "מעון מוריה - גדרה",
      "text": "",
      "stayTimes": "08:00 - 14:00",
      "t_start": "2020-04-22T06:00:00",
      "t_end": "2020-04-22T12:00:00",
      "link": ""
    },
    {
      "id": 483589,
      "lat": 31.9398782000001,
      "lon": 35.0464255000001,
      "label": "ברכול מסילת יוסף - מודיעין עילית",
      "text": "",
      "stayTimes": "16:00 - 17:00",
      "t_start": "2020-04-19T14:00:00",
      "t_end": "2020-04-19T15:00:00",
      "link": ""
    },
    {
      "id": 483590,
      "lat": 32.0871815630001,
      "lon": 34.8816455100001,
      "label": "בנק לאומי - פתח תקווה",
      "text": "",
      "stayTimes": "08:30 - 09:00",
      "t_start": "2020-04-26T06:30:00",
      "t_end": "2020-04-26T07:00:00",
      "link": ""
    },
    {
      "id": 483591,
      "lat": 32.0994975,
      "lon": 34.8755340000001,
      "label": "חצי חינם - פתח תקווה",
      "text": "",
      "stayTimes": "16:00 - 18:00",
      "t_start": "2020-04-22T14:00:00",
      "t_end": "2020-04-22T16:00:00",
      "link": ""
    },
    {
      "id": 483592,
      "lat": 31.9291810400001,
      "lon": 35.0446982980001,
      "label": "סופר \" בר כל\" נתיבות המשפט - מודיעין עילית",
      "text": "",
      "stayTimes": "07:00 - 07:30",
      "t_start": "2020-04-21T05:00:00",
      "t_end": "2020-04-21T05:30:00",
      "link": ""
    },
    {
      "id": 483593,
      "lat": 31.416792851,
      "lon": 34.571979212,
      "label": "אלי זול - נתיבות",
      "text": "",
      "stayTimes": "20:00 - 22:00",
      "t_start": "2020-04-22T18:00:00",
      "t_end": "2020-04-22T20:00:00",
      "link": ""
    },
    {
      "id": 483594,
      "lat": 31.6897848,
      "lon": 34.5711191,
      "label": "סופר דוידי - אשקלון",
      "text": "",
      "stayTimes": "09:30 - 10:00",
      "t_start": "2020-04-20T07:30:00",
      "t_end": "2020-04-20T08:00:00",
      "link": ""
    },
    {
      "id": 483595,
      "lat": 31.6592920000001,
      "lon": 34.557485,
      "label": "עגנון ש\"י 22, אשקלון",
      "text": "",
      "stayTimes": "08:00 - 08:30",
      "t_start": "2020-04-13T06:00:00",
      "t_end": "2020-04-13T06:30:00",
      "link": ""
    },
    {
      "id": 483596,
      "lat": 31.42669033,
      "lon": 34.5882351330001,
      "label": "סופר צרכניית מדשן - נתיבות",
      "text": "",
      "stayTimes": "09:00 - 09:30",
      "t_start": "2020-04-20T07:00:00",
      "t_end": "2020-04-20T07:30:00",
      "link": ""
    },
    {
      "id": 483597,
      "lat": 31.9398782000001,
      "lon": 35.0464255000001,
      "label": "בר כל - מודיעין עילית",
      "text": "",
      "stayTimes": "16:00 - 17:00",
      "t_start": "2020-04-21T14:00:00",
      "t_end": "2020-04-21T15:00:00",
      "link": ""
    },
    {
      "id": 483598,
      "lat": 31.7841080920001,
      "lon": 34.6528039030001,
      "label": "אסותא כלניות, מכון MRI - אשדוד",
      "text": "",
      "stayTimes": "10:30 - 12:30",
      "t_start": "2020-04-24T08:30:00",
      "t_end": "2020-04-24T10:30:00",
      "link": ""
    },
    {
      "id": 483599,
      "lat": 31.800139432,
      "lon": 34.664177399,
      "label": "קופ\"ח לאומית אזור ג' - אשדוד",
      "text": "",
      "stayTimes": "09:30 - 12:00",
      "t_start": "2020-04-13T07:30:00",
      "t_end": "2020-04-13T10:00:00",
      "link": ""
    },
    {
      "id": 483600,
      "lat": 31.7792102970001,
      "lon": 34.655953246,
      "label": "בה\"ח אסותא במיון - אשדוד",
      "text": "",
      "stayTimes": "12:00 - 22:00",
      "t_start": "2020-04-20T10:00:00",
      "t_end": "2020-04-20T20:00:00",
      "link": ""
    },
    {
      "id": 483601,
      "lat": 31.296262396,
      "lon": 34.927918606,
      "label": "קופת חולים - חורה",
      "text": "",
      "stayTimes": "08:00 - 08:30",
      "t_start": "2020-04-26T06:00:00",
      "t_end": "2020-04-26T06:30:00",
      "link": ""
    },
    {
      "id": 483602,
      "lat": 31.2450719,
      "lon": 34.7955749000001,
      "label": "סניף דואר המרכזי שד רגר רחוב הנשיאים - באר שבע",
      "text": "",
      "stayTimes": "11:00 - 13:30",
      "t_start": "2020-04-22T09:00:00",
      "t_end": "2020-04-22T11:30:00",
      "link": ""
    },
    {
      "id": 483603,
      "lat": 31.3003944000001,
      "lon": 34.935686,
      "label": "מרפאת שירותי בריאות כללית חורה. - חורה",
      "text": "",
      "stayTimes": "14:00 - 15:00",
      "t_start": "2020-04-26T12:00:00",
      "t_end": "2020-04-26T13:00:00",
      "link": ""
    },
    {
      "id": 483604,
      "lat": 32.8564491000001,
      "lon": 35.1787834,
      "label": "סופר פארם סניף טמרה - טמרה",
      "text": "",
      "stayTimes": "16:30 - 17:00",
      "t_start": "2020-04-23T14:30:00",
      "t_end": "2020-04-23T15:00:00",
      "link": ""
    },
    {
      "id": 483605,
      "lat": 31.6731153320001,
      "lon": 34.568535766,
      "label": "סופר - אשקלון",
      "text": "",
      "stayTimes": "16:30 - 17:00",
      "t_start": "2020-04-14T14:30:00",
      "t_end": "2020-04-14T15:00:00",
      "link": ""
    },
    {
      "id": 483606,
      "lat": 31.4173985,
      "lon": 34.6148693000001,
      "label": "סופר רמי לוי - נתיבות",
      "text": "",
      "stayTimes": "13:00 - 13:30",
      "t_start": "2020-04-13T11:00:00",
      "t_end": "2020-04-13T11:30:00",
      "link": ""
    },
    {
      "id": 483607,
      "lat": 32.9469460930001,
      "lon": 35.174164638,
      "label": "מרכז המזון - ירכא",
      "text": "",
      "stayTimes": "20:30 - 22:30",
      "t_start": "2020-04-13T18:30:00",
      "t_end": "2020-04-13T20:30:00",
      "link": ""
    },
    {
      "id": 483608,
      "lat": 31.8135049000001,
      "lon": 34.6500062000001,
      "label": "בית הדר - אשדוד",
      "text": "",
      "stayTimes": "08:00 - 08:30",
      "t_start": "2020-04-15T06:00:00",
      "t_end": "2020-04-15T06:30:00",
      "link": ""
    },
    {
      "id": 483609,
      "lat": 32.6486540000001,
      "lon": 35.288241,
      "label": "בית אבות אור העמק - מזרע",
      "text": "",
      "stayTimes": "07:10 - 14:00",
      "t_start": "2020-04-14T05:10:00",
      "t_end": "2020-04-14T12:00:00",
      "link": ""
    },
    {
      "id": 483610,
      "lat": 32.6486540000001,
      "lon": 35.288241,
      "label": "בית אבות אור העמק - מזרע",
      "text": "",
      "stayTimes": "17:30 - 20:00",
      "t_start": "2020-04-13T15:30:00",
      "t_end": "2020-04-13T18:00:00",
      "link": ""
    },
    {
      "id": 483611,
      "lat": 32.9469460930001,
      "lon": 35.174164638,
      "label": "מרכז המזון -מרכזה - ירכא",
      "text": "",
      "stayTimes": "10:00 - 10:30",
      "t_start": "2020-04-22T08:00:00",
      "t_end": "2020-04-22T08:30:00",
      "link": ""
    },
    {
      "id": 483612,
      "lat": 31.3952914000001,
      "lon": 34.7594843000001,
      "label": "דואר - רהט",
      "text": "",
      "stayTimes": "10:00 - 11:00",
      "t_start": "2020-04-19T08:00:00",
      "t_end": "2020-04-19T09:00:00",
      "link": ""
    },
    {
      "id": 483613,
      "lat": 32.6494422000001,
      "lon": 35.2905623,
      "label": "טיב טעם - מזרע",
      "text": "",
      "stayTimes": "09:00 - 09:30",
      "t_start": "2020-04-14T07:00:00",
      "t_end": "2020-04-14T07:30:00",
      "link": ""
    },
    {
      "id": 483614,
      "lat": 32.6036544460001,
      "lon": 35.2960462290001,
      "label": "מקלות וניל - עפולה",
      "text": "",
      "stayTimes": "07:30 - 07:40",
      "t_start": "2020-04-16T05:30:00",
      "t_end": "2020-04-16T05:40:00",
      "link": ""
    },
    {
      "id": 483615,
      "lat": 32.6486540000001,
      "lon": 35.288241,
      "label": "בית אבות אור העמק - מזרע",
      "text": "",
      "stayTimes": "08:00 - 17:00",
      "t_start": "2020-04-16T06:00:00",
      "t_end": "2020-04-16T15:00:00",
      "link": ""
    },
    {
      "id": 483616,
      "lat": 31.814293956,
      "lon": 34.7764854500001,
      "label": "מעון מוריה - גדרה",
      "text": "",
      "stayTimes": "05:30 - 14:30",
      "t_start": "2020-04-13T03:30:00",
      "t_end": "2020-04-13T12:30:00",
      "link": ""
    },
    {
      "id": 483617,
      "lat": 31.814293956,
      "lon": 34.7764854500001,
      "label": "מעון מוריה - גדרה",
      "text": "",
      "stayTimes": "05:30 - 12:00",
      "t_start": "2020-04-14T03:30:00",
      "t_end": "2020-04-14T10:00:00",
      "link": ""
    },
    {
      "id": 483618,
      "lat": 32.6486540000001,
      "lon": 35.288241,
      "label": "בית אבות אור העמק - מזרע",
      "text": "",
      "stayTimes": "17:00 - 22:00",
      "t_start": "2020-04-17T15:00:00",
      "t_end": "2020-04-17T20:00:00",
      "link": ""
    },
    {
      "id": 483619,
      "lat": 32.3220808740001,
      "lon": 34.8715314300001,
      "label": "רמי לוי - נתניה",
      "text": "",
      "stayTimes": "17:30 - 18:30",
      "t_start": "2020-04-13T15:30:00",
      "t_end": "2020-04-13T16:30:00",
      "link": ""
    },
    {
      "id": 483620,
      "lat": 32.6486540000001,
      "lon": 35.288241,
      "label": "בית אבות אור העמק - מזרע",
      "text": "",
      "stayTimes": "07:00 - 10:30",
      "t_start": "2020-04-17T05:00:00",
      "t_end": "2020-04-17T08:30:00",
      "link": ""
    },
    {
      "id": 483621,
      "lat": 32.0346381780001,
      "lon": 34.8494226020001,
      "label": "סופרפארם אור יהודה - אור יהודה",
      "text": "",
      "stayTimes": "16:30 - 17:00",
      "t_start": "2020-04-13T14:30:00",
      "t_end": "2020-04-13T15:00:00",
      "link": ""
    },
    {
      "id": 483622,
      "lat": 31.792264,
      "lon": 35.2132807,
      "label": "בית מדרש \"גור\"- מניין תפילה - ירושלים",
      "text": "",
      "stayTimes": "08:00 - 16:00",
      "t_start": "2020-04-13T06:00:00",
      "t_end": "2020-04-13T14:00:00",
      "link": ""
    },
    {
      "id": 483623,
      "lat": 32.0360309000001,
      "lon": 34.7627074000001,
      "label": "ב\"ח וולפסון - חולון",
      "text": "",
      "stayTimes": "07:00 - 19:00",
      "t_start": "2020-04-13T05:00:00",
      "t_end": "2020-04-13T17:00:00",
      "link": ""
    },
    {
      "id": 483624,
      "lat": 31.6802015000001,
      "lon": 34.5695303000001,
      "label": "בית כנסת אך טוב וחסד - אשקלון",
      "text": "",
      "stayTimes": "17:00 - 19:00",
      "t_start": "2020-04-14T15:00:00",
      "t_end": "2020-04-14T17:00:00",
      "link": ""
    },
    {
      "id": 483625,
      "lat": 32.3220773940001,
      "lon": 34.8714982010001,
      "label": "רמי לוי אזור תעשיה ישן - נתניה",
      "text": "",
      "stayTimes": "17:00 - 18:30",
      "t_start": "2020-04-13T15:00:00",
      "t_end": "2020-04-13T16:30:00",
      "link": ""
    },
    {
      "id": 483626,
      "lat": 32.048760551,
      "lon": 34.8427634340001,
      "label": "מחלקת יולדות תל השומר - רמת גן",
      "text": "",
      "stayTimes": "08:00 - 23:30",
      "t_start": "2020-04-13T06:00:00",
      "t_end": "2020-04-13T21:30:00",
      "link": ""
    },
    {
      "id": 483627,
      "lat": 31.315558878,
      "lon": 34.6206675030001,
      "label": "מכבי אופקים מתחם קורונה - אופקים",
      "text": "",
      "stayTimes": "08:00 - 08:30",
      "t_start": "2020-04-13T06:00:00",
      "t_end": "2020-04-13T06:30:00",
      "link": ""
    },
    {
      "id": 483628,
      "lat": 31.6584985000001,
      "lon": 34.5694202,
      "label": "סופר יעל - אשקלון",
      "text": "",
      "stayTimes": "12:00 - 14:00",
      "t_start": "2020-04-14T10:00:00",
      "t_end": "2020-04-14T12:00:00",
      "link": ""
    },
    {
      "id": 483629,
      "lat": 32.0897515830001,
      "lon": 34.8670658130001,
      "label": "חדר מיון בלינסון - פתח תקווה",
      "text": "",
      "stayTimes": "12:00 - 21:30",
      "t_start": "2020-04-13T10:00:00",
      "t_end": "2020-04-13T19:30:00",
      "link": ""
    },
    {
      "id": 483630,
      "lat": 32.0885211360001,
      "lon": 34.869083776,
      "label": "מגה בעיר - פתח תקווה",
      "text": "",
      "stayTimes": "15:00 - 15:10",
      "t_start": "2020-04-14T13:00:00",
      "t_end": "2020-04-14T13:10:00",
      "link": ""
    },
    {
      "id": 483631,
      "lat": 31.8135049000001,
      "lon": 34.6500062000001,
      "label": "בית הדר - אשדוד",
      "text": "",
      "stayTimes": "00:00 - 23:30",
      "t_start": "2020-04-12T22:00:00",
      "t_end": "2020-04-13T21:30:00",
      "link": ""
    },
    {
      "id": 483632,
      "lat": 31.296262396,
      "lon": 34.927918606,
      "label": "קופת חולים - חורה",
      "text": "",
      "stayTimes": "11:00 - 13:00",
      "t_start": "2020-04-22T09:00:00",
      "t_end": "2020-04-22T11:00:00",
      "link": ""
    },
    {
      "id": 483633,
      "lat": 31.6108987960001,
      "lon": 34.764898445,
      "label": "קופת חולים כללית ב - קרית גת",
      "text": "",
      "stayTimes": "07:30 - 09:30",
      "t_start": "2020-04-13T05:30:00",
      "t_end": "2020-04-13T07:30:00",
      "link": ""
    },
    {
      "id": 483634,
      "lat": 31.9328630000001,
      "lon": 34.8887540000001,
      "label": "סופר פארם קניון רמלוד - רמלה",
      "text": "",
      "stayTimes": "15:45 - 16:45",
      "t_start": "2020-04-13T13:45:00",
      "t_end": "2020-04-13T14:45:00",
      "link": ""
    },
    {
      "id": 483635,
      "lat": 32.3221211650001,
      "lon": 34.87151949,
      "label": "רמי לוי - נתניה",
      "text": "",
      "stayTimes": "17:30 - 18:30",
      "t_start": "2020-04-13T15:30:00",
      "t_end": "2020-04-13T16:30:00",
      "link": ""
    },
    {
      "id": 483636,
      "lat": 32.322080881,
      "lon": 34.8715195010001,
      "label": "רמי לוי - נתניה",
      "text": "",
      "stayTimes": "17:30 - 18:30",
      "t_start": "2020-04-13T15:30:00",
      "t_end": "2020-04-13T16:30:00",
      "link": ""
    },
    {
      "id": 483637,
      "lat": 32.6486540000001,
      "lon": 35.288241,
      "label": "בית אבות אור העמק - מזרע",
      "text": "",
      "stayTimes": "12:30 - 15:40",
      "t_start": "2020-04-17T10:30:00",
      "t_end": "2020-04-17T13:40:00",
      "link": ""
    },
    {
      "id": 483638,
      "lat": 32.3255974950001,
      "lon": 34.8607513850001,
      "label": "סופר פארם קניון השרון - נתניה",
      "text": "",
      "stayTimes": "20:30 - 21:00",
      "t_start": "2020-04-13T18:30:00",
      "t_end": "2020-04-13T19:00:00",
      "link": ""
    },
    {
      "id": 483639,
      "lat": 31.8135049000001,
      "lon": 34.6500062000001,
      "label": "בית הדר - אשדוד",
      "text": "",
      "stayTimes": "00:00 - 23:30",
      "t_start": "2020-04-12T22:00:00",
      "t_end": "2020-04-13T21:30:00",
      "link": ""
    },
    {
      "id": 483640,
      "lat": 31.8030403000001,
      "lon": 35.2161090000001,
      "label": "מעון הורים שומרי החומות - ירושלים",
      "text": "",
      "stayTimes": "07:00 - 16:00",
      "t_start": "2020-04-13T05:00:00",
      "t_end": "2020-04-13T14:00:00",
      "link": ""
    },
    {
      "id": 483641,
      "lat": 31.9911338060001,
      "lon": 34.7607513570001,
      "label": "אושר עד - ראשון לציון",
      "text": "",
      "stayTimes": "21:00 - 22:00",
      "t_start": "2020-04-13T19:00:00",
      "t_end": "2020-04-13T20:00:00",
      "link": ""
    },
    {
      "id": 483642,
      "lat": 32.0891032000001,
      "lon": 34.8380488,
      "label": "שפע ברכת השם - בני ברק",
      "text": "",
      "stayTimes": "16:00 - 16:30",
      "t_start": "2020-04-13T14:00:00",
      "t_end": "2020-04-13T14:30:00",
      "link": ""
    },
    {
      "id": 483643,
      "lat": 32.1028236000001,
      "lon": 34.8361701000001,
      "label": "שופרסל - בני ברק",
      "text": "",
      "stayTimes": "14:30 - 15:45",
      "t_start": "2020-04-13T12:30:00",
      "t_end": "2020-04-13T13:45:00",
      "link": ""
    },
    {
      "id": 483644,
      "lat": 31.675718885,
      "lon": 34.558126859,
      "label": "דיור מוגן \"זהבית\" - אשקלון",
      "text": "",
      "stayTimes": "08:00 - 08:30",
      "t_start": "2020-04-16T06:00:00",
      "t_end": "2020-04-16T06:30:00",
      "link": ""
    },
    {
      "id": 483645,
      "lat": 31.9090748,
      "lon": 34.7988794,
      "label": "בית אבות נווה עמית רחובות - רחובות",
      "text": "",
      "stayTimes": "07:00 - 17:00",
      "t_start": "2020-04-14T05:00:00",
      "t_end": "2020-04-14T15:00:00",
      "link": ""
    },
    {
      "id": 483646,
      "lat": 31.9044489090001,
      "lon": 34.8119173950001,
      "label": "מכולת פינחסוב - רחובות",
      "text": "",
      "stayTimes": "12:30 - 12:40",
      "t_start": "2020-04-14T10:30:00",
      "t_end": "2020-04-14T10:40:00",
      "link": ""
    },
    {
      "id": 483647,
      "lat": 31.8030403000001,
      "lon": 35.2161090000001,
      "label": "מעון הורים שומרי החומות - ירושלים",
      "text": "",
      "stayTimes": "00:00 - 07:00",
      "t_start": "2020-04-12T22:00:00",
      "t_end": "2020-04-13T05:00:00",
      "link": ""
    },
    {
      "id": 483648,
      "lat": 31.6757736690001,
      "lon": 34.5581590460001,
      "label": "דיור מוגן זהבית - אשקלון",
      "text": "",
      "stayTimes": "08:00 - 08:30",
      "t_start": "2020-04-16T06:00:00",
      "t_end": "2020-04-16T06:30:00",
      "link": ""
    },
    {
      "id": 483649,
      "lat": 32.048746506,
      "lon": 34.8427672490001,
      "label": "בית חולים שיבא מעון יולדות - רמת גן",
      "text": "",
      "stayTimes": "12:00 - 17:00",
      "t_start": "2020-04-15T10:00:00",
      "t_end": "2020-04-15T15:00:00",
      "link": ""
    },
    {
      "id": 483650,
      "lat": 31.9347997570001,
      "lon": 35.0422293330001,
      "label": "סופר ברכול - מודיעין עילית",
      "text": "",
      "stayTimes": "13:30 - 14:00",
      "t_start": "2020-04-14T11:30:00",
      "t_end": "2020-04-14T12:00:00",
      "link": ""
    },
    {
      "id": 483651,
      "lat": 31.8135049000001,
      "lon": 34.6500062000001,
      "label": "בית הדר, מחלקת מונשמים ג' - אשדוד",
      "text": "",
      "stayTimes": "10:30 - 11:00",
      "t_start": "2020-04-14T08:30:00",
      "t_end": "2020-04-14T09:00:00",
      "link": ""
    },
    {
      "id": 483652,
      "lat": 31.6743269340001,
      "lon": 34.5583682710001,
      "label": "סופר הטייסים - אשקלון",
      "text": "",
      "stayTimes": "11:00 - 11:30",
      "t_start": "2020-04-16T09:00:00",
      "t_end": "2020-04-16T09:30:00",
      "link": ""
    },
    {
      "id": 483653,
      "lat": 31.668080349,
      "lon": 34.557433486,
      "label": "סיטי רחמים - אשקלון",
      "text": "",
      "stayTimes": "11:30 - 12:30",
      "t_start": "2020-04-13T09:30:00",
      "t_end": "2020-04-13T10:30:00",
      "link": ""
    },
    {
      "id": 483654,
      "lat": 31.788231066,
      "lon": 35.2212232360001,
      "label": "חנות זול בגדול - ירושלים",
      "text": "",
      "stayTimes": "15:00 - 15:30",
      "t_start": "2020-04-13T13:00:00",
      "t_end": "2020-04-13T13:30:00",
      "link": ""
    },
    {
      "id": 483655,
      "lat": 31.6577452000001,
      "lon": 34.5884741,
      "label": "טיב טעם - אשקלון",
      "text": "",
      "stayTimes": "14:30 - 15:30",
      "t_start": "2020-04-15T12:30:00",
      "t_end": "2020-04-15T13:30:00",
      "link": ""
    },
    {
      "id": 483656,
      "lat": 31.6743269340001,
      "lon": 34.5583682710001,
      "label": "חנות אוכל טייסים - אשקלון",
      "text": "",
      "stayTimes": "13:00 - 13:30",
      "t_start": "2020-04-15T11:00:00",
      "t_end": "2020-04-15T11:30:00",
      "link": ""
    },
    {
      "id": 483657,
      "lat": 31.6757736690001,
      "lon": 34.558126859,
      "label": "דיור מוגן זהבית - אשקלון",
      "text": "",
      "stayTimes": "08:00 - 23:30",
      "t_start": "2020-04-15T06:00:00",
      "t_end": "2020-04-15T21:30:00",
      "link": ""
    },
    {
      "id": 483658,
      "lat": 31.8161982450001,
      "lon": 35.1913211400001,
      "label": "סופר נוח - ירושלים",
      "text": "",
      "stayTimes": "10:00 - 10:30",
      "t_start": "2020-04-13T08:00:00",
      "t_end": "2020-04-13T08:30:00",
      "link": ""
    },
    {
      "id": 483659,
      "lat": 31.8162614660001,
      "lon": 35.2026989140001,
      "label": "קופת חולים כללית רמות א - ירושלים",
      "text": "",
      "stayTimes": "11:00 - 11:30",
      "t_start": "2020-04-13T09:00:00",
      "t_end": "2020-04-13T09:30:00",
      "link": ""
    },
    {
      "id": 483660,
      "lat": 31.746205118,
      "lon": 34.9999872510001,
      "label": "זול ובגדול - בית שמש",
      "text": "",
      "stayTimes": "11:00 - 11:30",
      "t_start": "2020-04-16T09:00:00",
      "t_end": "2020-04-16T09:30:00",
      "link": ""
    },
    {
      "id": 483661,
      "lat": 31.7855956670001,
      "lon": 35.2256001110001,
      "label": "מרפאת מאוחדת - ירושלים",
      "text": "",
      "stayTimes": "13:00 - 13:30",
      "t_start": "2020-04-13T11:00:00",
      "t_end": "2020-04-13T11:30:00",
      "link": ""
    },
    {
      "id": 483662,
      "lat": 31.786257753,
      "lon": 35.1836297,
      "label": "מוסך מאפיית \"ברמן\" - ירושלים",
      "text": "",
      "stayTimes": "07:30 - 16:30",
      "t_start": "2020-04-16T05:30:00",
      "t_end": "2020-04-16T14:30:00",
      "link": ""
    },
    {
      "id": 483663,
      "lat": 31.793497605,
      "lon": 35.205474683,
      "label": "בית אבות גני אורה - ירושלים",
      "text": "",
      "stayTimes": "08:00 - 08:30",
      "t_start": "2020-04-15T06:00:00",
      "t_end": "2020-04-15T06:30:00",
      "link": ""
    },
    {
      "id": 483664,
      "lat": 32.6486540000001,
      "lon": 35.288241,
      "label": "בית אבות אור העמק - מזרע",
      "text": "",
      "stayTimes": "07:15 - 17:30",
      "t_start": "2020-04-13T05:15:00",
      "t_end": "2020-04-13T15:30:00",
      "link": ""
    },
    {
      "id": 483665,
      "lat": 32.9198531220001,
      "lon": 35.092241195,
      "label": "סופרמרקט ויקטורי - עכו",
      "text": "",
      "stayTimes": "17:00 - 18:00",
      "t_start": "2020-04-13T15:00:00",
      "t_end": "2020-04-13T16:00:00",
      "link": ""
    },
    {
      "id": 483666,
      "lat": 32.0790865270001,
      "lon": 34.840483497,
      "label": "סופר \"יש חסד \" - בני ברק",
      "text": "",
      "stayTimes": "18:00 - 19:00",
      "t_start": "2020-04-14T16:00:00",
      "t_end": "2020-04-14T17:00:00",
      "link": ""
    },
    {
      "id": 483667,
      "lat": 31.894559746,
      "lon": 34.8040664160001,
      "label": "רמז מרכז מקצועי קופ\"ח כללית - רחובות",
      "text": "",
      "stayTimes": "08:00 - 08:30",
      "t_start": "2020-04-13T06:00:00",
      "t_end": "2020-04-13T06:30:00",
      "link": ""
    },
    {
      "id": 483668,
      "lat": 32.9345874040001,
      "lon": 35.268433067,
      "label": "חצר קניון דבאח - דייר אל-אסד",
      "text": "",
      "stayTimes": "13:30 - 14:30",
      "t_start": "2020-04-14T11:30:00",
      "t_end": "2020-04-14T12:30:00",
      "link": ""
    },
    {
      "id": 483669,
      "lat": 31.789385764,
      "lon": 34.6649219500001,
      "label": "סופר נתיב החסד - אשדוד",
      "text": "",
      "stayTimes": "12:30 - 13:30",
      "t_start": "2020-04-13T10:30:00",
      "t_end": "2020-04-13T11:30:00",
      "link": ""
    },
    {
      "id": 483670,
      "lat": 31.7849069870001,
      "lon": 34.659511062,
      "label": "יינות ביתן - אשדוד",
      "text": "",
      "stayTimes": "08:00 - 09:00",
      "t_start": "2020-04-13T06:00:00",
      "t_end": "2020-04-13T07:00:00",
      "link": ""
    },
    {
      "id": 483671,
      "lat": 32.0852925070001,
      "lon": 34.8116566630001,
      "label": "סופרסל שלי בקניון - רמת גן",
      "text": "",
      "stayTimes": "15:30 - 15:40",
      "t_start": "2020-04-14T13:30:00",
      "t_end": "2020-04-14T13:40:00",
      "link": ""
    },
    {
      "id": 483672,
      "lat": 32.621038034,
      "lon": 35.3165950600001,
      "label": "בית חולים עפולה , מחלקת טיפול נמרץ - עפולה",
      "text": "",
      "stayTimes": "08:00 - 08:30",
      "t_start": "2020-04-14T06:00:00",
      "t_end": "2020-04-14T06:30:00",
      "link": ""
    },
    {
      "id": 483673,
      "lat": 31.3733931,
      "lon": 34.8092845,
      "label": "מחסני השוק להבים - להבים",
      "text": "",
      "stayTimes": "11:00 - 11:30",
      "t_start": "2020-04-16T09:00:00",
      "t_end": "2020-04-16T09:30:00",
      "link": ""
    },
    {
      "id": 483674,
      "lat": 31.7949201380001,
      "lon": 34.6399715370001,
      "label": "סופרפארם - אשדוד",
      "text": "",
      "stayTimes": "20:30 - 21:00",
      "t_start": "2020-04-14T18:30:00",
      "t_end": "2020-04-14T19:00:00",
      "link": ""
    },
    {
      "id": 483675,
      "lat": 32.1823231000001,
      "lon": 34.8954868000001,
      "label": "בי\"ח מאיר- יחידה זיהומולוגית - כפר סבא",
      "text": "",
      "stayTimes": "08:30 - 09:00",
      "t_start": "2020-04-17T06:30:00",
      "t_end": "2020-04-17T07:00:00",
      "link": ""
    },
    {
      "id": 483676,
      "lat": 32.1841665000001,
      "lon": 34.8531795000001,
      "label": "סופר פארם - רעננה",
      "text": "",
      "stayTimes": "18:15 - 18:30",
      "t_start": "2020-04-16T16:15:00",
      "t_end": "2020-04-16T16:30:00",
      "link": ""
    },
    {
      "id": 483677,
      "lat": 32.1836543000001,
      "lon": 34.8530601000001,
      "label": "טיב טעם - רעננה",
      "text": "",
      "stayTimes": "19:00 - 19:30",
      "t_start": "2020-04-16T17:00:00",
      "t_end": "2020-04-16T17:30:00",
      "link": ""
    },
    {
      "id": 483678,
      "lat": 32.189621749,
      "lon": 34.854761931,
      "label": "עמנואל - רעננה",
      "text": "",
      "stayTimes": "15:00 - 15:15",
      "t_start": "2020-04-14T13:00:00",
      "t_end": "2020-04-14T13:15:00",
      "link": ""
    },
    {
      "id": 483679,
      "lat": 32.986226855,
      "lon": 35.0958594580001,
      "label": "שוק פייסל הגדול - מזרעה",
      "text": "",
      "stayTimes": "16:00 - 18:00",
      "t_start": "2020-04-13T14:00:00",
      "t_end": "2020-04-13T16:00:00",
      "link": ""
    },
    {
      "id": 483680,
      "lat": 32.986226855,
      "lon": 35.0958594580001,
      "label": "שוק פייסל הגדול - מזרעה",
      "text": "",
      "stayTimes": "16:00 - 18:00",
      "t_start": "2020-04-13T14:00:00",
      "t_end": "2020-04-13T16:00:00",
      "link": ""
    },
    {
      "id": 483681,
      "lat": 31.2700671310001,
      "lon": 34.796756788,
      "label": "מגה בעיר - באר שבע",
      "text": "",
      "stayTimes": "12:00 - 14:00",
      "t_start": "2020-04-13T10:00:00",
      "t_end": "2020-04-13T12:00:00",
      "link": ""
    },
    {
      "id": 483682,
      "lat": 31.2700671310001,
      "lon": 34.796756788,
      "label": "מכולת הכוכב - באר שבע",
      "text": "",
      "stayTimes": "12:00 - 13:00",
      "t_start": "2020-04-14T10:00:00",
      "t_end": "2020-04-14T11:00:00",
      "link": ""
    },
    {
      "id": 483683,
      "lat": 32.1810270340001,
      "lon": 34.8948060590001,
      "label": "מיון בית חולים מאיר - כפר סבא",
      "text": "",
      "stayTimes": "20:00 - 23:30",
      "t_start": "2020-04-13T18:00:00",
      "t_end": "2020-04-13T21:30:00",
      "link": ""
    },
    {
      "id": 483684,
      "lat": 32.09055499,
      "lon": 34.867065283,
      "label": "מיון בית חולים בלינסון - פתח תקווה",
      "text": "",
      "stayTimes": "13:00 - 23:30",
      "t_start": "2020-04-16T11:00:00",
      "t_end": "2020-04-16T21:30:00",
      "link": ""
    },
    {
      "id": 483685,
      "lat": 31.7949197,
      "lon": 34.6399758000001,
      "label": "סופר פארם - אשדוד",
      "text": "",
      "stayTimes": "20:30 - 21:00",
      "t_start": "2020-04-14T18:30:00",
      "t_end": "2020-04-14T19:00:00",
      "link": ""
    },
    {
      "id": 483686,
      "lat": 32.232983893,
      "lon": 34.9755923590001,
      "label": "\"ירקות ממדוח\" - טירה",
      "text": "",
      "stayTimes": "09:30 - 09:40",
      "t_start": "2020-04-17T07:30:00",
      "t_end": "2020-04-17T07:40:00",
      "link": ""
    },
    {
      "id": 483687,
      "lat": 32.924240438,
      "lon": 35.2767429360001,
      "label": "סופרמרקט- דבאח ובניו - דייר אל-אסד",
      "text": "",
      "stayTimes": "08:00 - 15:30",
      "t_start": "2020-04-14T06:00:00",
      "t_end": "2020-04-14T13:30:00",
      "link": ""
    },
    {
      "id": 483688,
      "lat": 32.9238802100001,
      "lon": 35.277418852,
      "label": "סופרמרקט- דאבאח ובניו - דייר אל-אסד",
      "text": "",
      "stayTimes": "15:00 - 20:30",
      "t_start": "2020-04-15T13:00:00",
      "t_end": "2020-04-15T18:30:00",
      "link": ""
    },
    {
      "id": 483689,
      "lat": 32.9230336680001,
      "lon": 35.27955389,
      "label": "סופרמרקט- דבאח ובניו - דייר אל-אסד",
      "text": "",
      "stayTimes": "12:30 - 21:00",
      "t_start": "2020-04-16T10:30:00",
      "t_end": "2020-04-16T19:00:00",
      "link": ""
    },
    {
      "id": 483690,
      "lat": 32.9244025410001,
      "lon": 35.276978969,
      "label": "סופרמרקט- דבאח ובניו - דייר אל-אסד",
      "text": "",
      "stayTimes": "15:00 - 18:00",
      "t_start": "2020-04-17T13:00:00",
      "t_end": "2020-04-17T16:00:00",
      "link": ""
    },
    {
      "id": 483691,
      "lat": 31.7135938260001,
      "lon": 34.9981497320001,
      "label": "בסט סופר - בית שמש",
      "text": "",
      "stayTimes": "21:30 - 22:30",
      "t_start": "2020-04-15T19:30:00",
      "t_end": "2020-04-15T20:30:00",
      "link": ""
    },
    {
      "id": 483692,
      "lat": 31.801014567,
      "lon": 34.647436731,
      "label": "בית מרקחת \"לאומית\" - אשדוד",
      "text": "",
      "stayTimes": "11:00 - 12:00",
      "t_start": "2020-04-13T09:00:00",
      "t_end": "2020-04-13T10:00:00",
      "link": ""
    },
    {
      "id": 483693,
      "lat": 32.1823231000001,
      "lon": 34.8954868000001,
      "label": "בי\"ח מאיר- מחלקה פנימית ד' - כפר סבא",
      "text": "",
      "stayTimes": "07:00 - 19:00",
      "t_start": "2020-04-15T05:00:00",
      "t_end": "2020-04-15T17:00:00",
      "link": ""
    },
    {
      "id": 483694,
      "lat": 32.028290579,
      "lon": 34.7483266520001,
      "label": "בי\"ח שיקומי בית בלב - בת ים",
      "text": "",
      "stayTimes": "10:00 - 11:00",
      "t_start": "2020-04-17T08:00:00",
      "t_end": "2020-04-17T09:00:00",
      "link": ""
    },
    {
      "id": 483695,
      "lat": 32.181691662,
      "lon": 34.8960960370001,
      "label": "רשת BE פארם - כפר סבא",
      "text": "",
      "stayTimes": "09:05 - 09:10",
      "t_start": "2020-04-17T07:05:00",
      "t_end": "2020-04-17T07:10:00",
      "link": ""
    },
    {
      "id": 483696,
      "lat": 32.9235495,
      "lon": 35.3140916,
      "label": "מפעל דבאח בכרמיאל - כרמיאל",
      "text": "",
      "stayTimes": "07:00 - 18:00",
      "t_start": "2020-04-15T05:00:00",
      "t_end": "2020-04-15T16:00:00",
      "link": ""
    },
    {
      "id": 483697,
      "lat": 31.8153024150001,
      "lon": 35.2149615700001,
      "label": "הוסטל הלב והמעין רמת שלמה - ירושלים",
      "text": "",
      "stayTimes": "13:30 - 21:30",
      "t_start": "2020-04-16T11:30:00",
      "t_end": "2020-04-16T19:30:00",
      "link": ""
    },
    {
      "id": 483698,
      "lat": 32.182385713,
      "lon": 34.895502509,
      "label": "מיון נשימתי בי\"ח מאיר - כפר סבא",
      "text": "",
      "stayTimes": "18:30 - 23:59",
      "t_start": "2020-04-18T16:30:00",
      "t_end": "2020-04-18T21:59:00",
      "link": ""
    },
    {
      "id": 483699,
      "lat": 31.6928544,
      "lon": 35.1096686000001,
      "label": "חסד לאלפים - ביתר עילית",
      "text": "",
      "stayTimes": "02:00 - 03:00",
      "t_start": "2020-04-16T00:00:00",
      "t_end": "2020-04-16T01:00:00",
      "link": ""
    },
    {
      "id": 483700,
      "lat": 31.41472,
      "lon": 34.578362,
      "label": "בית כנסת קול יעקוב - נתיבות",
      "text": "",
      "stayTimes": "13:00 - 15:30",
      "t_start": "2020-04-16T11:00:00",
      "t_end": "2020-04-16T13:30:00",
      "link": ""
    },
    {
      "id": 483701,
      "lat": 32.0756564980001,
      "lon": 34.8363558280001,
      "label": "סופר ברכה - בני ברק",
      "text": "",
      "stayTimes": "11:00 - 11:30",
      "t_start": "2020-04-14T09:00:00",
      "t_end": "2020-04-14T09:30:00",
      "link": ""
    },
    {
      "id": 483702,
      "lat": 32.057107,
      "lon": 34.8691424,
      "label": "בית מרקחת סופר פארם גבעת סביון - גני תקווה",
      "text": "",
      "stayTimes": "12:15 - 13:00",
      "t_start": "2020-04-14T10:15:00",
      "t_end": "2020-04-14T11:00:00",
      "link": ""
    },
    {
      "id": 483703,
      "lat": 32.0295718300001,
      "lon": 34.845199742,
      "label": "קופ\"ח כללית - אור יהודה",
      "text": "",
      "stayTimes": "10:00 - 12:00",
      "t_start": "2020-04-16T08:00:00",
      "t_end": "2020-04-16T10:00:00",
      "link": ""
    },
    {
      "id": 483704,
      "lat": 32.0862216,
      "lon": 34.8530480000001,
      "label": "סופר ברקת - גבעת שמואל",
      "text": "",
      "stayTimes": "12:00 - 13:00",
      "t_start": "2020-04-17T10:00:00",
      "t_end": "2020-04-17T11:00:00",
      "link": ""
    },
    {
      "id": 483705,
      "lat": 31.697211822,
      "lon": 35.120860248,
      "label": "סופר שפע חיים - ביתר עילית",
      "text": "",
      "stayTimes": "09:00 - 11:00",
      "t_start": "2020-04-16T07:00:00",
      "t_end": "2020-04-16T09:00:00",
      "link": ""
    },
    {
      "id": 483706,
      "lat": 32.6413986200001,
      "lon": 35.3596814090001,
      "label": "\"יכין\" אלון תבור, מחלקת ירקות - עפולה",
      "text": "",
      "stayTimes": "06:30 - 10:30",
      "t_start": "2020-04-16T04:30:00",
      "t_end": "2020-04-16T08:30:00",
      "link": ""
    },
    {
      "id": 483707,
      "lat": 32.621038034,
      "lon": 35.3165950600001,
      "label": "מיון ביח' העמק - עפולה",
      "text": "",
      "stayTimes": "10:30 - 11:30",
      "t_start": "2020-04-16T08:30:00",
      "t_end": "2020-04-16T09:30:00",
      "link": ""
    },
    {
      "id": 483708,
      "lat": 32.0129061690001,
      "lon": 34.804263658,
      "label": "מפעל מוצרי נייר דפניר - חולון",
      "text": "",
      "stayTimes": "08:00 - 08:30",
      "t_start": "2020-04-13T06:00:00",
      "t_end": "2020-04-13T06:30:00",
      "link": ""
    },
    {
      "id": 483709,
      "lat": 31.7841080920001,
      "lon": 34.6528039030001,
      "label": "אסותא כלניות - אשדוד",
      "text": "",
      "stayTimes": "12:00 - 14:00",
      "t_start": "2020-04-14T10:00:00",
      "t_end": "2020-04-14T12:00:00",
      "link": ""
    },
    {
      "id": 483710,
      "lat": 32.7130058700001,
      "lon": 35.3357284310001,
      "label": "מרכאזה - נוף הגליל",
      "text": "",
      "stayTimes": "12:30 - 13:45",
      "t_start": "2020-04-16T10:30:00",
      "t_end": "2020-04-16T11:45:00",
      "link": ""
    },
    {
      "id": 483711,
      "lat": 31.791654571,
      "lon": 34.668152578,
      "label": "סופר נתיב החסד - אשדוד",
      "text": "",
      "stayTimes": "09:30 - 10:30",
      "t_start": "2020-04-13T07:30:00",
      "t_end": "2020-04-13T08:30:00",
      "link": ""
    },
    {
      "id": 483712,
      "lat": 31.792128765,
      "lon": 34.667103534,
      "label": "סופר נתיב החסד - אשדוד",
      "text": "",
      "stayTimes": "09:30 - 10:30",
      "t_start": "2020-04-15T07:30:00",
      "t_end": "2020-04-15T08:30:00",
      "link": ""
    },
    {
      "id": 483713,
      "lat": 31.7921053800001,
      "lon": 34.667089359,
      "label": "סופר נתיב החסד - אשדוד",
      "text": "",
      "stayTimes": "09:30 - 10:30",
      "t_start": "2020-04-16T07:30:00",
      "t_end": "2020-04-16T08:30:00",
      "link": ""
    },
    {
      "id": 483714,
      "lat": 32.0999678970001,
      "lon": 34.8952338130001,
      "label": "שופרסל דיל - פתח תקווה",
      "text": "",
      "stayTimes": "08:00 - 08:30",
      "t_start": "2020-04-16T06:00:00",
      "t_end": "2020-04-16T06:30:00",
      "link": ""
    },
    {
      "id": 483715,
      "lat": 32.0999678970001,
      "lon": 34.8952338130001,
      "label": "שופרסל דיל - פתח תקווה",
      "text": "",
      "stayTimes": "08:00 - 08:30",
      "t_start": "2020-04-14T06:00:00",
      "t_end": "2020-04-14T06:30:00",
      "link": ""
    },
    {
      "id": 483716,
      "lat": 31.4213816120001,
      "lon": 34.600072927,
      "label": "פיצוחי דני - נתיבות",
      "text": "",
      "stayTimes": "15:00 - 15:30",
      "t_start": "2020-04-14T13:00:00",
      "t_end": "2020-04-14T13:30:00",
      "link": ""
    },
    {
      "id": 483717,
      "lat": 32.6933943000001,
      "lon": 35.3034068000001,
      "label": "משהדאוי קינג סטור - נוף הגליל",
      "text": "",
      "stayTimes": "14:00 - 14:45",
      "t_start": "2020-04-16T12:00:00",
      "t_end": "2020-04-16T12:45:00",
      "link": ""
    },
    {
      "id": 483718,
      "lat": 32.0256611360001,
      "lon": 34.7573726840001,
      "label": "בית חולים אברבנל - בת ים",
      "text": "",
      "stayTimes": "00:00 - 23:59",
      "t_start": "2020-04-12T22:00:00",
      "t_end": "2020-04-13T21:59:00",
      "link": ""
    },
    {
      "id": 483719,
      "lat": 32.0256611360001,
      "lon": 34.7573726840001,
      "label": "בית חולים אברבנל - בת ים",
      "text": "",
      "stayTimes": "00:00 - 23:59",
      "t_start": "2020-04-13T22:00:00",
      "t_end": "2020-04-14T21:59:00",
      "link": ""
    },
    {
      "id": 483720,
      "lat": 32.0256611360001,
      "lon": 34.7573726840001,
      "label": "בית חולים אברבנל - בת ים",
      "text": "",
      "stayTimes": "00:00 - 23:59",
      "t_start": "2020-04-14T22:00:00",
      "t_end": "2020-04-15T21:59:00",
      "link": ""
    },
    {
      "id": 483721,
      "lat": 32.0256611360001,
      "lon": 34.7573726840001,
      "label": "בית חולים אברבנל - בת ים",
      "text": "",
      "stayTimes": "00:00 - 23:59",
      "t_start": "2020-04-15T22:00:00",
      "t_end": "2020-04-16T21:59:00",
      "link": ""
    },
    {
      "id": 483722,
      "lat": 32.0481437330001,
      "lon": 34.8442158660001,
      "label": "בית חולים שיבא,פנימית א - רמת גן",
      "text": "",
      "stayTimes": "00:00 - 07:30",
      "t_start": "2020-04-14T22:00:00",
      "t_end": "2020-04-15T05:30:00",
      "link": ""
    },
    {
      "id": 483723,
      "lat": 32.0482594110001,
      "lon": 34.843937505,
      "label": "בית חולים שיבא,פנימית א - רמת גן",
      "text": "",
      "stayTimes": "07:00 - 19:30",
      "t_start": "2020-04-16T05:00:00",
      "t_end": "2020-04-16T17:30:00",
      "link": ""
    },
    {
      "id": 483724,
      "lat": 32.0482649940001,
      "lon": 34.8439179160001,
      "label": "בית חולים שיבא,פנימית א - רמת גן",
      "text": "",
      "stayTimes": "19:00 - 23:59",
      "t_start": "2020-04-17T17:00:00",
      "t_end": "2020-04-17T21:59:00",
      "link": ""
    },
    {
      "id": 483725,
      "lat": 32.0482649960001,
      "lon": 34.8439345130001,
      "label": "בית חולים שיבא,פנימית א - רמת גן",
      "text": "",
      "stayTimes": "00:00 - 07:30",
      "t_start": "2020-04-17T22:00:00",
      "t_end": "2020-04-18T05:30:00",
      "link": ""
    },
    {
      "id": 483726,
      "lat": 31.7880137970001,
      "lon": 34.6440177630001,
      "label": "מרפאה בבית פרימאק - אשדוד",
      "text": "",
      "stayTimes": "17:30 - 18:30",
      "t_start": "2020-04-16T15:30:00",
      "t_end": "2020-04-16T16:30:00",
      "link": ""
    },
    {
      "id": 483727,
      "lat": 32.986226855,
      "lon": 35.0958594580001,
      "label": "שוק פייסל  מזרעה - מזרעה",
      "text": "",
      "stayTimes": "16:00 - 18:00",
      "t_start": "2020-04-13T14:00:00",
      "t_end": "2020-04-13T16:00:00",
      "link": ""
    },
    {
      "id": 483728,
      "lat": 32.1024538980001,
      "lon": 34.896089196,
      "label": "פלאפון - פתח תקווה",
      "text": "",
      "stayTimes": "09:15 - 09:30",
      "t_start": "2020-04-17T07:15:00",
      "t_end": "2020-04-17T07:30:00",
      "link": ""
    },
    {
      "id": 483729,
      "lat": 32.083765934,
      "lon": 34.8073842680001,
      "label": "MF MOBILE - רמת גן",
      "text": "",
      "stayTimes": "06:00 - 10:00",
      "t_start": "2020-04-16T04:00:00",
      "t_end": "2020-04-16T08:00:00",
      "link": ""
    },
    {
      "id": 483730,
      "lat": 32.0835023160001,
      "lon": 34.8072072420001,
      "label": "MF MOBILE - רמת גן",
      "text": "",
      "stayTimes": "11:00 - 13:00",
      "t_start": "2020-04-16T09:00:00",
      "t_end": "2020-04-16T11:00:00",
      "link": ""
    },
    {
      "id": 483731,
      "lat": 32.621038034,
      "lon": 35.3165950600001,
      "label": "מח' אורולוגית ביח' העמק - עפולה",
      "text": "",
      "stayTimes": "08:00 - 23:30",
      "t_start": "2020-04-16T06:00:00",
      "t_end": "2020-04-16T21:30:00",
      "link": ""
    },
    {
      "id": 483732,
      "lat": 32.621038034,
      "lon": 35.3165950600001,
      "label": "מח' אורולוגית ביח' העמק - עפולה",
      "text": "",
      "stayTimes": "08:00 - 23:30",
      "t_start": "2020-04-17T06:00:00",
      "t_end": "2020-04-17T21:30:00",
      "link": ""
    },
    {
      "id": 483733,
      "lat": 32.621038034,
      "lon": 35.3165950600001,
      "label": "מח' אורולוגית ביח' העמק - עפולה",
      "text": "",
      "stayTimes": "08:00 - 23:30",
      "t_start": "2020-04-18T06:00:00",
      "t_end": "2020-04-18T21:30:00",
      "link": ""
    },
    {
      "id": 483734,
      "lat": 32.621038034,
      "lon": 35.3165950600001,
      "label": "מיון פנימי ביח' העמק - עפולה",
      "text": "",
      "stayTimes": "17:30 - 23:59",
      "t_start": "2020-04-16T15:30:00",
      "t_end": "2020-04-16T21:59:00",
      "link": ""
    },
    {
      "id": 483735,
      "lat": 32.621038034,
      "lon": 35.3165950600001,
      "label": "מיון פנימי ביח' העמק - עפולה",
      "text": "",
      "stayTimes": "00:00 - 23:30",
      "t_start": "2020-04-16T22:00:00",
      "t_end": "2020-04-17T21:30:00",
      "link": ""
    },
    {
      "id": 483736,
      "lat": 31.9374902430001,
      "lon": 35.043191828,
      "label": "מכולת ברכת הרשבי - מודיעין עילית",
      "text": "",
      "stayTimes": "10:00 - 10:45",
      "t_start": "2020-04-13T08:00:00",
      "t_end": "2020-04-13T08:45:00",
      "link": ""
    },
    {
      "id": 483737,
      "lat": 32.0452360780001,
      "lon": 34.842521306,
      "label": "מיון תל השומר - רמת גן",
      "text": "",
      "stayTimes": "08:00 - 10:30",
      "t_start": "2020-04-20T06:00:00",
      "t_end": "2020-04-20T08:30:00",
      "link": ""
    },
    {
      "id": 483738,
      "lat": 32.7130058700001,
      "lon": 35.3357284310001,
      "label": "מרכאזה - נוף הגליל",
      "text": "",
      "stayTimes": "14:00 - 16:00",
      "t_start": "2020-04-14T12:00:00",
      "t_end": "2020-04-14T14:00:00",
      "link": ""
    },
    {
      "id": 483739,
      "lat": 32.621038034,
      "lon": 35.3165950600001,
      "label": "מח' אורולוגית ביח' העמק - עפולה",
      "text": "",
      "stayTimes": "08:00 - 23:30",
      "t_start": "2020-04-13T06:00:00",
      "t_end": "2020-04-13T21:30:00",
      "link": ""
    },
    {
      "id": 483740,
      "lat": 32.621038034,
      "lon": 35.3165950600001,
      "label": "מח' אורולוגית ביח' העמק - עפולה",
      "text": "",
      "stayTimes": "08:00 - 23:30",
      "t_start": "2020-04-14T06:00:00",
      "t_end": "2020-04-14T21:30:00",
      "link": ""
    },
    {
      "id": 483741,
      "lat": 32.621038034,
      "lon": 35.3165950600001,
      "label": "מח' אורולוגית ביח' העמק - עפולה",
      "text": "",
      "stayTimes": "08:00 - 23:30",
      "t_start": "2020-04-15T06:00:00",
      "t_end": "2020-04-15T21:30:00",
      "link": ""
    },
    {
      "id": 483742,
      "lat": 31.6928544,
      "lon": 35.1096686000001,
      "label": "חסד לאלפים - ביתר עילית",
      "text": "",
      "stayTimes": "02:00 - 03:00",
      "t_start": "2020-04-16T00:00:00",
      "t_end": "2020-04-16T01:00:00",
      "link": ""
    },
    {
      "id": 483743,
      "lat": 31.6904939,
      "lon": 35.1084599000001,
      "label": "שפע ברכת ה' - ביתר עילית",
      "text": "",
      "stayTimes": "10:00 - 11:30",
      "t_start": "2020-04-14T08:00:00",
      "t_end": "2020-04-14T09:30:00",
      "link": ""
    },
    {
      "id": 483744,
      "lat": 32.9235793720001,
      "lon": 35.314100136,
      "label": "באסם דאבח בע\"מ - כרמיאל",
      "text": "",
      "stayTimes": "07:00 - 17:00",
      "t_start": "2020-04-13T05:00:00",
      "t_end": "2020-04-13T15:00:00",
      "link": ""
    },
    {
      "id": 483745,
      "lat": 32.642628013,
      "lon": 35.0918972360001,
      "label": "שופרסל ביג - יקנעם עילית",
      "text": "",
      "stayTimes": "09:00 - 10:00",
      "t_start": "2020-04-17T07:00:00",
      "t_end": "2020-04-17T08:00:00",
      "link": ""
    },
    {
      "id": 483746,
      "lat": 32.7338385,
      "lon": 35.1403368000001,
      "label": "מוסך רכב, ח'אלד זובידאת - בסמת טבעון",
      "text": "",
      "stayTimes": "14:00 - 14:30",
      "t_start": "2020-04-17T12:00:00",
      "t_end": "2020-04-17T12:30:00",
      "link": ""
    },
    {
      "id": 483747,
      "lat": 32.0484680760001,
      "lon": 34.8434910710001,
      "label": "בית חולים שיבא,פנימית א - רמת גן",
      "text": "",
      "stayTimes": "07:00 - 19:00",
      "t_start": "2020-04-13T05:00:00",
      "t_end": "2020-04-13T17:00:00",
      "link": ""
    },
    {
      "id": 483748,
      "lat": 32.0484680760001,
      "lon": 34.8434910710001,
      "label": "בית חולים שיבא,פנימית א - רמת גן",
      "text": "",
      "stayTimes": "19:00 - 23:59",
      "t_start": "2020-04-14T17:00:00",
      "t_end": "2020-04-14T21:59:00",
      "link": ""
    },
    {
      "id": 483749,
      "lat": 31.2135308480001,
      "lon": 34.8110135210001,
      "label": "סופר אושר עד - באר שבע",
      "text": "",
      "stayTimes": "08:00 - 08:30",
      "t_start": "2020-04-17T06:00:00",
      "t_end": "2020-04-17T06:30:00",
      "link": ""
    },
    {
      "id": 483750,
      "lat": 32.0484680760001,
      "lon": 34.8434910710001,
      "label": "בית חולים שיבא,פנימית א - רמת גן",
      "text": "",
      "stayTimes": "07:00 - 19:00",
      "t_start": "2020-04-16T05:00:00",
      "t_end": "2020-04-16T17:00:00",
      "link": ""
    },
    {
      "id": 483751,
      "lat": 32.0484680760001,
      "lon": 34.8434910710001,
      "label": "בית חולים שיבא,פנימית א - רמת גן",
      "text": "",
      "stayTimes": "07:00 - 19:00",
      "t_start": "2020-04-19T05:00:00",
      "t_end": "2020-04-19T17:00:00",
      "link": ""
    },
    {
      "id": 483752,
      "lat": 32.0484680760001,
      "lon": 34.8434910710001,
      "label": "בית חולים שיבא,פנימית א - רמת גן",
      "text": "",
      "stayTimes": "07:00 - 19:00",
      "t_start": "2020-04-13T05:00:00",
      "t_end": "2020-04-13T17:00:00",
      "link": ""
    },
    {
      "id": 483753,
      "lat": 32.0525778960001,
      "lon": 34.9511771420001,
      "label": "יש חסד - אלעד",
      "text": "",
      "stayTimes": "11:30 - 11:50",
      "t_start": "2020-04-19T09:30:00",
      "t_end": "2020-04-19T09:50:00",
      "link": ""
    },
    {
      "id": 483754,
      "lat": 31.7997442980001,
      "lon": 34.6623996050001,
      "label": "יש חסד - אשדוד",
      "text": "",
      "stayTimes": "13:00 - 13:10",
      "t_start": "2020-04-14T11:00:00",
      "t_end": "2020-04-14T11:10:00",
      "link": ""
    },
    {
      "id": 483755,
      "lat": 31.7997442980001,
      "lon": 34.6623996050001,
      "label": "יש חסד - אשדוד",
      "text": "",
      "stayTimes": "14:00 - 14:10",
      "t_start": "2020-04-14T12:00:00",
      "t_end": "2020-04-14T12:10:00",
      "link": ""
    },