{
  "points": [
    {
      "id": 158938,
      "lat": 32.8040049050001,
      "lon": 35.0002236830001,
      "label": "בית כנסת מורשה - רח' השילוח 6 חיפה",
      "text": "",
      "stayTimes": "05:45-06:30",
      "t_start": "2020-03-22T03:45:00",
      "t_end": "2020-03-22T04:30:00",
      "link": ""
    },
    {
      "id": 158939,
      "lat": 32.4747429,
      "lon": 34.9978065,
      "label": "סופר סל שלי כרכור - פרדס חנה-כרכור",
      "text": "",
      "stayTimes": "08:30 - 12:30",
      "t_start": "2020-03-22T06:30:00",
      "t_end": "2020-03-22T10:30:00",
      "link": ""
    },
    {
      "id": 158940,
      "lat": 32.8040049050001,
      "lon": 35.0002236830001,
      "label": "בית כנסת מורשה -רח' השילוח 6 חיפה",
      "text": "",
      "stayTimes": "12:30-13:00",
      "t_start": "2020-03-22T10:30:00",
      "t_end": "2020-03-22T11:00:00",
      "link": ""
    },
    {
      "id": 158941,
      "lat": 32.8040049050001,
      "lon": 35.0002236830001,
      "label": "בית כנסת מורשה -רח' השילוח 6 חיפה",
      "text": "",
      "stayTimes": "17:00-19:00",
      "t_start": "2020-03-22T15:00:00",
      "t_end": "2020-03-22T17:00:00",
      "link": ""
    },
    {
      "id": 158942,
      "lat": 31.862712,
      "lon": 35.1749548000001,
      "label": "סופר \"שוק העיר\" - גבעת זאב",
      "text": "",
      "stayTimes": "08:30 - 10:30",
      "t_start": "2020-03-24T06:30:00",
      "t_end": "2020-03-24T08:30:00",
      "link": ""
    },
    {
      "id": 158943,
      "lat": 31.7656617000001,
      "lon": 35.1491024000001,
      "label": "מיון ביוליוגי בי\"ח הדסה ע\"כ - ירושלים",
      "text": "",
      "stayTimes": "16:00 - 20:00",
      "t_start": "2020-03-22T14:00:00",
      "t_end": "2020-03-22T18:00:00",
      "link": ""
    },
    {
      "id": 158944,
      "lat": 32.6213325640001,
      "lon": 35.3160931080001,
      "label": "ביח' העמק - עפולה",
      "text": "",
      "stayTimes": "19:00 - 20:00",
      "t_start": "2020-03-23T17:00:00",
      "t_end": "2020-03-23T18:00:00",
      "link": ""
    },
    {
      "id": 158945,
      "lat": 32.0836468000001,
      "lon": 34.8544321000001,
      "label": "מרפאה של דר' ברקוביץ - גבעת שמואל",
      "text": "",
      "stayTimes": "09:00 - 10:00",
      "t_start": "2020-03-22T07:00:00",
      "t_end": "2020-03-22T08:00:00",
      "link": ""
    },
    {
      "id": 158946,
      "lat": 31.6619693000001,
      "lon": 34.55967,
      "label": "מיון ברזילי - אשקלון",
      "text": "",
      "stayTimes": "18:30 - 21:30",
      "t_start": "2020-03-23T16:30:00",
      "t_end": "2020-03-23T19:30:00",
      "link": ""
    },
    {
      "id": 158947,
      "lat": 32.801459703,
      "lon": 35.6886500730001,
      "label": "בית מרקחת קניון נוף גולן - בני יהודה",
      "text": "",
      "stayTimes": "11:30 - 12:00",
      "t_start": "2020-03-22T09:30:00",
      "t_end": "2020-03-22T10:00:00",
      "link": ""
    },
    {
      "id": 158948,
      "lat": 32.7994380000001,
      "lon": 35.6832441,
      "label": "חנות ביג מוצרי בנין - גבעת יואב",
      "text": "",
      "stayTimes": "12:00 - 12:30",
      "t_start": "2020-03-22T10:00:00",
      "t_end": "2020-03-22T10:30:00",
      "link": ""
    },
    {
      "id": 158949,
      "lat": 31.8686612000001,
      "lon": 34.7460415,
      "label": "סופרפארם - יבנה",
      "text": "",
      "stayTimes": "20:30 - 21:00",
      "t_start": "2020-03-23T18:30:00",
      "t_end": "2020-03-23T19:00:00",
      "link": ""
    },
    {
      "id": 158950,
      "lat": 32.4520147000001,
      "lon": 34.8963615000001,
      "label": "מיון הלל יפה - חדרה",
      "text": "",
      "stayTimes": "22:00 - 00:45",
      "t_start": "2020-03-22T20:00:00",
      "t_end": "2020-03-22T22:45:00",
      "link": ""
    },
    {
      "id": 158951,
      "lat": 32.4382128230001,
      "lon": 34.927502492,
      "label": "בטרם - חדרה - חדרה",
      "text": "",
      "stayTimes": "21:30 - 22:00",
      "t_start": "2020-03-22T19:30:00",
      "t_end": "2020-03-22T20:00:00",
      "link": ""
    },
    {
      "id": 158952,
      "lat": 32.0997094000001,
      "lon": 34.8287219000001,
      "label": "מחסני חשמל - בני ברק",
      "text": "",
      "stayTimes": "13:15 - 14:00",
      "t_start": "2020-03-25T11:15:00",
      "t_end": "2020-03-25T12:00:00",
      "link": ""
    },
    {
      "id": 158953,
      "lat": 32.0141083090001,
      "lon": 34.7449400100001,
      "label": "מרפאת כללית - השקמה בת ים - בת ים",
      "text": "",
      "stayTimes": "08:00 - 10:00",
      "t_start": "2020-03-22T06:00:00",
      "t_end": "2020-03-22T08:00:00",
      "link": ""
    },
    {
      "id": 158954,
      "lat": 32.0141083090001,
      "lon": 34.7449400100001,
      "label": "מרפאת כללית - השקמה בת ים - בת ים",
      "text": "",
      "stayTimes": "08:00 - 10:00",
      "t_start": "2020-03-25T06:00:00",
      "t_end": "2020-03-25T08:00:00",
      "link": ""
    },
    {
      "id": 158955,
      "lat": 31.7916038000001,
      "lon": 35.1996482000001,
      "label": "מד\"א - ירושלים",
      "text": "",
      "stayTimes": "09:50 - 11:50",
      "t_start": "2020-03-23T07:50:00",
      "t_end": "2020-03-23T09:50:00",
      "link": ""
    },
    {
      "id": 158956,
      "lat": 32.0152498,
      "lon": 34.7567722000001,
      "label": "סופרדוש בת ים - בת ים",
      "text": "",
      "stayTimes": "16:30 - 17:30",
      "t_start": "2020-03-23T14:30:00",
      "t_end": "2020-03-23T15:30:00",
      "link": ""
    },
    {
      "id": 158957,
      "lat": 31.7650299690001,
      "lon": 35.1486071190001,
      "label": "משמרת טיפול נמרץ הדסה - ירושלים",
      "text": "",
      "stayTimes": "08:00 - 16:00",
      "t_start": "2020-03-23T06:00:00",
      "t_end": "2020-03-23T14:00:00",
      "link": ""
    },
    {
      "id": 158958,
      "lat": 32.037273,
      "lon": 34.8655430000001,
      "label": "מסוף קרית אונו - קרית אונו",
      "text": "",
      "stayTimes": "13:30 - 14:30",
      "t_start": "2020-03-22T11:30:00",
      "t_end": "2020-03-22T12:30:00",
      "link": ""
    },
    {
      "id": 158959,
      "lat": 32.318382984,
      "lon": 34.885954138,
      "label": "מרפאה כללית - נתניה",
      "text": "",
      "stayTimes": "08:00 - 09:30",
      "t_start": "2020-03-22T06:00:00",
      "t_end": "2020-03-22T07:30:00",
      "link": ""
    },
    {
      "id": 158960,
      "lat": 32.3231348,
      "lon": 34.8713024,
      "label": "שופרסל דיל - נתניה",
      "text": "",
      "stayTimes": "12:30 - 13:00",
      "t_start": "2020-03-22T10:30:00",
      "t_end": "2020-03-22T11:00:00",
      "link": ""
    },
    {
      "id": 158961,
      "lat": 31.697788105,
      "lon": 34.575005391,
      "label": "סופר ויקטורי - אשקלון",
      "text": "",
      "stayTimes": "08:30 - 10:00",
      "t_start": "2020-03-23T06:30:00",
      "t_end": "2020-03-23T08:00:00",
      "link": ""
    },
    {
      "id": 158962,
      "lat": 31.697706963,
      "lon": 34.575005391,
      "label": "ויקטורי - אשקלון",
      "text": "",
      "stayTimes": "09:00 - 10:10",
      "t_start": "2020-03-26T07:00:00",
      "t_end": "2020-03-26T08:10:00",
      "link": ""
    },
    {
      "id": 158963,
      "lat": 32.0952951,
      "lon": 34.7839011,
      "label": "אל וסינו - תל אביב - יפו",
      "text": "",
      "stayTimes": "22:30 - 00:00",
      "t_start": "2020-03-22T20:30:00",
      "t_end": "2020-03-22T22:00:00",
      "link": ""
    },
    {
      "id": 158964,
      "lat": 32.2868611000001,
      "lon": 34.8664061000001,
      "label": "סופר יוחננוף - נתניה",
      "text": "",
      "stayTimes": "13:00 - 14:00",
      "t_start": "2020-03-25T11:00:00",
      "t_end": "2020-03-25T12:00:00",
      "link": ""
    },
    {
      "id": 158965,
      "lat": 32.3068328000001,
      "lon": 34.8694745,
      "label": "קופ\"ח כללית - נתניה",
      "text": "",
      "stayTimes": "18:00 - 19:00",
      "t_start": "2020-03-25T16:00:00",
      "t_end": "2020-03-25T17:00:00",
      "link": ""
    },
    {
      "id": 158966,
      "lat": 32.4888435880001,
      "lon": 34.970554421,
      "label": "\"רמי לוי\" מתחם ביג - פרדס חנה-כרכור",
      "text": "",
      "stayTimes": "19:00 - 19:20",
      "t_start": "2020-03-23T17:00:00",
      "t_end": "2020-03-23T17:20:00",
      "link": ""
    },
    {
      "id": 158967,
      "lat": 32.0348409160001,
      "lon": 34.848170958,
      "label": "יוחננוף הגדול - סופר - אור יהודה",
      "text": "",
      "stayTimes": "16:30 - 17:00",
      "t_start": "2020-03-25T14:30:00",
      "t_end": "2020-03-25T15:00:00",
      "link": ""
    },
    {
      "id": 158968,
      "lat": 31.6035606,
      "lon": 34.7589160000001,
      "label": "קופת חולים כללית סניף ג' - קרית גת",
      "text": "",
      "stayTimes": "18:15 - 19:00",
      "t_start": "2020-03-23T16:15:00",
      "t_end": "2020-03-23T17:00:00",
      "link": ""
    },
    {
      "id": 158969,
      "lat": 31.662374293,
      "lon": 34.5592837890001,
      "label": "ביקור במיון - אשקלון",
      "text": "",
      "stayTimes": "19:30 - 21:00",
      "t_start": "2020-03-22T17:30:00",
      "t_end": "2020-03-22T19:00:00",
      "link": ""
    },
    {
      "id": 158970,
      "lat": 32.034739674,
      "lon": 34.848171919,
      "label": "סופרמרקט יוחננוף - אור יהודה",
      "text": "",
      "stayTimes": "07:00 - 15:00",
      "t_start": "2020-03-22T05:00:00",
      "t_end": "2020-03-22T13:00:00",
      "link": ""
    },
    {
      "id": 158971,
      "lat": 31.773365368,
      "lon": 35.185650546,
      "label": "בית חולים שערי צדק - ירושלים",
      "text": "",
      "stayTimes": "08:00 - 21:30",
      "t_start": "2020-03-23T06:00:00",
      "t_end": "2020-03-23T19:30:00",
      "link": ""
    },
    {
      "id": 158972,
      "lat": 32.0142516000001,
      "lon": 34.7670197,
      "label": "מוקד מכבי הופיין - חולון",
      "text": "",
      "stayTimes": "20:45 - 22:20",
      "t_start": "2020-03-23T18:45:00",
      "t_end": "2020-03-23T20:20:00",
      "link": ""
    },
    {
      "id": 158973,
      "lat": 32.0142516000001,
      "lon": 34.7670197,
      "label": "מוקד מכבי הופיין - חולון",
      "text": "",
      "stayTimes": "19:40 - 22:30",
      "t_start": "2020-03-24T17:40:00",
      "t_end": "2020-03-24T20:30:00",
      "link": ""
    },
    {
      "id": 158974,
      "lat": 32.0142516000001,
      "lon": 34.7670197,
      "label": "מוקד מכבי הופיים - חולון",
      "text": "",
      "stayTimes": "19:05 - 20:05",
      "t_start": "2020-03-25T17:05:00",
      "t_end": "2020-03-25T18:05:00",
      "link": ""
    },
    {
      "id": 158975,
      "lat": 31.6622786990001,
      "lon": 34.5592685010001,
      "label": "ביח ברזילי - אשקלון",
      "text": "",
      "stayTimes": "09:00 - 10:00",
      "t_start": "2020-03-25T07:00:00",
      "t_end": "2020-03-25T08:00:00",
      "link": ""
    },
    {
      "id": 158976,
      "lat": 31.6744616290001,
      "lon": 34.5583050380001,
      "label": "מכולת שכונתית-רח הטייסים - אשקלון",
      "text": "",
      "stayTimes": "07:30 - 08:00",
      "t_start": "2020-03-25T05:30:00",
      "t_end": "2020-03-25T06:00:00",
      "link": ""
    },
    {
      "id": 158977,
      "lat": 32.086082301,
      "lon": 34.8304487670001,
      "label": "בית מרקחת - בני ברק",
      "text": "",
      "stayTimes": "12:00 - 13:00",
      "t_start": "2020-03-23T10:00:00",
      "t_end": "2020-03-23T11:00:00",
      "link": ""
    },
    {
      "id": 158978,
      "lat": 31.747611239,
      "lon": 34.9933915010001,
      "label": "סופר-פארם, קניון נעמי - בית שמש",
      "text": "",
      "stayTimes": "17:00 - 17:30",
      "t_start": "2020-03-23T15:00:00",
      "t_end": "2020-03-23T15:30:00",
      "link": ""
    },
    {
      "id": 158979,
      "lat": 32.057107,
      "lon": 34.8691424,
      "label": "סופר פארם - גני תקווה",
      "text": "",
      "stayTimes": "09:30 - 09:45",
      "t_start": "2020-03-27T07:30:00",
      "t_end": "2020-03-27T07:45:00",
      "link": ""
    },
    {
      "id": 158980,
      "lat": 32.4341140000001,
      "lon": 34.9091965000001,
      "label": "ארכה חנות חומרי חשמל חדרה - חדרה",
      "text": "",
      "stayTimes": "07:00 - 17:00",
      "t_start": "2020-03-22T05:00:00",
      "t_end": "2020-03-22T15:00:00",
      "link": ""
    },
    {
      "id": 158981,
      "lat": 31.9359125,
      "lon": 34.8258773000001,
      "label": "מאפיה דרך הלחם, ספר אקספרס, קצביה, מענדניה - באר יעקב",
      "text": "",
      "stayTimes": "11:00 - 12:30",
      "t_start": "2020-03-23T09:00:00",
      "t_end": "2020-03-23T10:30:00",
      "link": ""
    },
    {
      "id": 158982,
      "lat": 31.941866443,
      "lon": 34.833751224,
      "label": "שופרסל, בקניון - באר יעקב",
      "text": "",
      "stayTimes": "10:30 - 10:45",
      "t_start": "2020-03-24T08:30:00",
      "t_end": "2020-03-24T08:45:00",
      "link": ""
    },
    {
      "id": 158983,
      "lat": 32.1046489170001,
      "lon": 34.8118631410001,
      "label": "תחנת בדיקה לקורונה,ברוקח - תל אביב - יפו",
      "text": "",
      "stayTimes": "20:30 - 21:00",
      "t_start": "2020-03-25T18:30:00",
      "t_end": "2020-03-25T19:00:00",
      "link": ""
    },
    {
      "id": 158984,
      "lat": 31.6355262000001,
      "lon": 34.5528603000001,
      "label": "רמי לוי - אשקלון",
      "text": "",
      "stayTimes": "19:00 - 21:00",
      "t_start": "2020-03-22T17:00:00",
      "t_end": "2020-03-22T19:00:00",
      "link": ""
    },
    {
      "id": 158985,
      "lat": 31.8865552,
      "lon": 35.0182949000001,
      "label": "סופר ברעות- סופר שלי, מרכז מסחרי רעות - מודיעין-מכבים-רעות",
      "text": "",
      "stayTimes": "17:00 - 17:20",
      "t_start": "2020-03-23T15:00:00",
      "t_end": "2020-03-23T15:20:00",
      "link": ""
    },
    {
      "id": 158986,
      "lat": 32.103972238,
      "lon": 34.810706204,
      "label": "בדיקה בתל אביב במתחם של מד\"א - תל אביב - יפו",
      "text": "",
      "stayTimes": "22:45 - 22:55",
      "t_start": "2020-03-25T20:45:00",
      "t_end": "2020-03-25T20:55:00",
      "link": ""
    },
    {
      "id": 158987,
      "lat": 32.0908013000001,
      "lon": 34.8389312,
      "label": "סופר יש חסד - בני ברק",
      "text": "",
      "stayTimes": "22:45 - 23:30",
      "t_start": "2020-03-22T20:45:00",
      "t_end": "2020-03-22T21:30:00",
      "link": ""
    },
    {
      "id": 158988,
      "lat": 32.087135102,
      "lon": 34.828786721,
      "label": "כולל יוצאי חברון - בני ברק",
      "text": "",
      "stayTimes": "11:00 - 12:30",
      "t_start": "2020-03-24T09:00:00",
      "t_end": "2020-03-24T10:30:00",
      "link": ""
    },
    {
      "id": 158989,
      "lat": 31.79243675,
      "lon": 34.65534726,
      "label": "בית מרקחת קופ\"ח כללית - אשדוד",
      "text": "",
      "stayTimes": "10:00 - 11:00",
      "t_start": "2020-03-23T08:00:00",
      "t_end": "2020-03-23T09:00:00",
      "link": ""
    },
    {
      "id": 158990,
      "lat": 32.098909357,
      "lon": 34.829762456,
      "label": "אושר עד - בני ברק",
      "text": "",
      "stayTimes": "18:45 - 20:00",
      "t_start": "2020-03-23T16:45:00",
      "t_end": "2020-03-23T18:00:00",
      "link": ""
    },
    {
      "id": 158991,
      "lat": 32.0605863850001,
      "lon": 34.776487135,
      "label": "מפעל לליטוש יהלומים - תל אביב - יפו",
      "text": "",
      "stayTimes": "09:30 - 11:30",
      "t_start": "2020-03-24T07:30:00",
      "t_end": "2020-03-24T09:30:00",
      "link": ""
    },
    {
      "id": 158992,
      "lat": 32.0994975,
      "lon": 34.8755340000001,
      "label": "חצי חינם - פתח תקווה",
      "text": "",
      "stayTimes": "12:00 - 12:30",
      "t_start": "2020-03-23T10:00:00",
      "t_end": "2020-03-23T10:30:00",
      "link": ""
    },
    {
      "id": 158993,
      "lat": 32.0972669000001,
      "lon": 34.8379174,
      "label": "בית הכנסת זיו יהודה - בני ברק",
      "text": "",
      "stayTimes": "07:00 - 08:00",
      "t_start": "2020-03-22T05:00:00",
      "t_end": "2020-03-22T06:00:00",
      "link": ""
    },
    {
      "id": 158994,
      "lat": 32.0917393,
      "lon": 34.8223515,
      "label": "סטוק סנטר - רמת גן",
      "text": "",
      "stayTimes": "17:50 - 18:00",
      "t_start": "2020-03-22T15:50:00",
      "t_end": "2020-03-22T16:00:00",
      "link": ""
    },
    {
      "id": 158995,
      "lat": 32.0841454440001,
      "lon": 34.8193542230001,
      "label": "סופר סיטי - רמת גן",
      "text": "",
      "stayTimes": "18:00 - 18:10",
      "t_start": "2020-03-22T16:00:00",
      "t_end": "2020-03-22T16:10:00",
      "link": ""
    },
    {
      "id": 158996,
      "lat": 31.7789552,
      "lon": 34.6570806,
      "label": "בי\"ח אסותא- חדר ניתוח - אשדוד",
      "text": "",
      "stayTimes": "19:00 - 07:00",
      "t_start": "2020-03-25T17:00:00",
      "t_end": "2020-03-26T05:00:00",
      "link": ""
    },
    {
      "id": 158997,
      "lat": 32.0794196000001,
      "lon": 34.8364418,
      "label": "בית כנסת חסידי סאטמר - בני ברק",
      "text": "",
      "stayTimes": "08:00 - 09:30",
      "t_start": "2020-03-23T06:00:00",
      "t_end": "2020-03-23T07:30:00",
      "link": ""
    },
    {
      "id": 158998,
      "lat": 31.7675203000001,
      "lon": 35.2953086000001,
      "label": "מרפאת \"טרם\" - מעלה אדומים",
      "text": "",
      "stayTimes": "11:00 - 12:00",
      "t_start": "2020-03-22T09:00:00",
      "t_end": "2020-03-22T10:00:00",
      "link": ""
    },
    {
      "id": 158999,
      "lat": 31.7675203000001,
      "lon": 35.2953086000001,
      "label": "מרפאת \"טרם\" - מעלה אדומים",
      "text": "",
      "stayTimes": "15:00 - 16:00",
      "t_start": "2020-03-22T13:00:00",
      "t_end": "2020-03-22T14:00:00",
      "link": ""
    },
    {
      "id": 159000,
      "lat": 31.7649503000001,
      "lon": 35.1494106000001,
      "label": "מיון פנימי בי\"ח הדסה עין כרם - ירושלים",
      "text": "",
      "stayTimes": "23:00 - 01:00",
      "t_start": "2020-03-22T21:00:00",
      "t_end": "2020-03-22T23:00:00",
      "link": ""
    },
    {
      "id": 159001,
      "lat": 32.0258672000001,
      "lon": 34.8593382,
      "label": "סופר יש חסד - אור יהודה",
      "text": "",
      "stayTimes": "17:00 - 17:30",
      "t_start": "2020-03-25T15:00:00",
      "t_end": "2020-03-25T15:30:00",
      "link": ""
    },
    {
      "id": 159002,
      "lat": 32.090239926,
      "lon": 34.825733954,
      "label": "ישיבת תפארת בחורים שיקומית - בני ברק",
      "text": "",
      "stayTimes": "08:00 - 12:00",
      "t_start": "2020-03-23T06:00:00",
      "t_end": "2020-03-23T10:00:00",
      "link": ""
    },
    {
      "id": 159003,
      "lat": 31.9478329,
      "lon": 34.9011619,
      "label": "קליניקה פרטית מכבי - לוד",
      "text": "",
      "stayTimes": "16:00 - 20:00",
      "t_start": "2020-03-22T14:00:00",
      "t_end": "2020-03-22T18:00:00",
      "link": ""
    },
    {
      "id": 159004,
      "lat": 31.9220189000001,
      "lon": 34.8587808,
      "label": "מרכז בריאות הילד כללית - רמלה",
      "text": "",
      "stayTimes": "08:00 - 14:00",
      "t_start": "2020-03-22T06:00:00",
      "t_end": "2020-03-22T12:00:00",
      "link": ""
    },
    {
      "id": 159005,
      "lat": 31.9478329,
      "lon": 34.9011619,
      "label": "קליניקה פרטית מכבי - לוד",
      "text": "",
      "stayTimes": "08:30 - 11:30",
      "t_start": "2020-03-24T06:30:00",
      "t_end": "2020-03-24T09:30:00",
      "link": ""
    },
    {
      "id": 159006,
      "lat": 31.9220189000001,
      "lon": 34.8587808,
      "label": "מרכז בריאות הילד כללית - רמלה",
      "text": "",
      "stayTimes": "08:00 - 14:30",
      "t_start": "2020-03-23T06:00:00",
      "t_end": "2020-03-23T12:30:00",
      "link": ""
    },
    {
      "id": 159007,
      "lat": 31.9220189000001,
      "lon": 34.8587808,
      "label": "מרכז בריאות הילד - רמלה",
      "text": "",
      "stayTimes": "08:15 - 11:00",
      "t_start": "2020-03-25T06:15:00",
      "t_end": "2020-03-25T09:00:00",
      "link": ""
    },
    {
      "id": 159008,
      "lat": 32.0142516000001,
      "lon": 34.7670197,
      "label": "מוקד מכבי - חולון",
      "text": "",
      "stayTimes": "19:00 - 23:00",
      "t_start": "2020-03-24T17:00:00",
      "t_end": "2020-03-24T21:00:00",
      "link": ""
    },
    {
      "id": 159009,
      "lat": 31.921163456,
      "lon": 34.8769892070001,
      "label": "פיקוד העורף-מוקד קורונה - רמלה",
      "text": "",
      "stayTimes": "07:00 - 09:00",
      "t_start": "2020-03-22T05:00:00",
      "t_end": "2020-03-22T07:00:00",
      "link": ""
    },
    {
      "id": 159010,
      "lat": 31.9211343160001,
      "lon": 34.8769892070001,
      "label": "מרפאת פיקוד העורף - רמלה",
      "text": "",
      "stayTimes": "09:00 - 10:00",
      "t_start": "2020-03-22T07:00:00",
      "t_end": "2020-03-22T08:00:00",
      "link": ""
    },
    {
      "id": 159011,
      "lat": 32.27151816,
      "lon": 34.9170467980001,
      "label": "בית כנסת \"המרוקאי\" קדימה - קדימה-צורן",
      "text": "",
      "stayTimes": "05:00 - 06:00",
      "t_start": "2020-03-22T03:00:00",
      "t_end": "2020-03-22T04:00:00",
      "link": ""
    },
    {
      "id": 159012,
      "lat": 32.066315,
      "lon": 34.8109544000001,
      "label": "סופר Mega - גבעתיים",
      "text": "",
      "stayTimes": "21:45 - 22:30",
      "t_start": "2020-03-22T19:45:00",
      "t_end": "2020-03-22T20:30:00",
      "link": ""
    },
    {
      "id": 159013,
      "lat": 31.9370367110001,
      "lon": 35.038946331,
      "label": "חנות כלבו \"עזרא ואחווה\" מרכז עסקים - מודיעין עילית",
      "text": "",
      "stayTimes": "18:00 - 19:00",
      "t_start": "2020-03-22T16:00:00",
      "t_end": "2020-03-22T17:00:00",
      "link": ""
    },
    {
      "id": 159014,
      "lat": 31.9326186370001,
      "lon": 35.0453525200001,
      "label": "חנות מוצרי סית \"סנטר ליין\" - מודיעין עילית",
      "text": "",
      "stayTimes": "16:30 - 16:50",
      "t_start": "2020-03-24T14:30:00",
      "t_end": "2020-03-24T14:50:00",
      "link": ""
    },
    {
      "id": 159015,
      "lat": 31.9454999000001,
      "lon": 34.8920591,
      "label": "רמי לוי - לוד",
      "text": "",
      "stayTimes": "12:00 - 13:00",
      "t_start": "2020-03-22T10:00:00",
      "t_end": "2020-03-22T11:00:00",
      "link": ""
    },
    {
      "id": 159016,
      "lat": 31.931367058,
      "lon": 34.889472229,
      "label": "חנות BOOOM - לוד",
      "text": "",
      "stayTimes": "15:20 - 16:00",
      "t_start": "2020-03-23T13:20:00",
      "t_end": "2020-03-23T14:00:00",
      "link": ""
    },
    {
      "id": 159017,
      "lat": 31.9540566250001,
      "lon": 34.890366369,
      "label": "אושר עד - לוד",
      "text": "",
      "stayTimes": "17:00 - 18:00",
      "t_start": "2020-03-23T15:00:00",
      "t_end": "2020-03-23T16:00:00",
      "link": ""
    },
    {
      "id": 159018,
      "lat": 31.946440017,
      "lon": 34.8978359610001,
      "label": "בית מרקחת מכבי - לוד",
      "text": "",
      "stayTimes": "14:00 - 15:00",
      "t_start": "2020-03-23T12:00:00",
      "t_end": "2020-03-23T13:00:00",
      "link": ""
    },
    {
      "id": 159019,
      "lat": 32.0468261550001,
      "lon": 34.908611948,
      "label": "סופרמרקט יש - בארות יצחק",
      "text": "",
      "stayTimes": "13:45 - 14:30",
      "t_start": "2020-03-23T11:45:00",
      "t_end": "2020-03-23T12:30:00",
      "link": ""
    },
    {
      "id": 159020,
      "lat": 31.9324770000001,
      "lon": 35.042265,
      "label": "מרכל - מודיעין עילית",
      "text": "",
      "stayTimes": "08:30 - 09:10",
      "t_start": "2020-03-22T06:30:00",
      "t_end": "2020-03-22T07:10:00",
      "link": ""
    },
    {
      "id": 159021,
      "lat": 31.926964394,
      "lon": 35.041944619,
      "label": "מרכול  רחוב נתיבות המשפט פינת מסילת יוסף - מודיעין עילית",
      "text": "",
      "stayTimes": "18:50 - 19:10",
      "t_start": "2020-03-26T16:50:00",
      "t_end": "2020-03-26T17:10:00",
      "link": ""
    },
    {
      "id": 159022,
      "lat": 32.5735138760001,
      "lon": 34.954023825,
      "label": "משרד שרותי רב קו - זכרון יעקב",
      "text": "",
      "stayTimes": "09:00 - 15:30",
      "t_start": "2020-03-22T07:00:00",
      "t_end": "2020-03-22T13:30:00",
      "link": ""
    },
    {
      "id": 159023,
      "lat": 32.7891667000001,
      "lon": 35.535,
      "label": "שופרסל דיל - טבריה",
      "text": "",
      "stayTimes": "21:00 - 21:10",
      "t_start": "2020-03-23T19:00:00",
      "t_end": "2020-03-23T19:10:00",
      "link": ""
    },
    {
      "id": 159024,
      "lat": 31.6629795000001,
      "lon": 34.5766783,
      "label": "קופ\"ח כללית נאות אשקלון - אשקלון",
      "text": "",
      "stayTimes": "07:30 - 13:30",
      "t_start": "2020-03-25T05:30:00",
      "t_end": "2020-03-25T11:30:00",
      "link": ""
    },
    {
      "id": 159025,
      "lat": 31.813560991,
      "lon": 34.6601808670001,
      "label": "רמי לוי - אשדוד",
      "text": "",
      "stayTimes": "10:30 - 12:00",
      "t_start": "2020-03-24T08:30:00",
      "t_end": "2020-03-24T10:00:00",
      "link": ""
    },
    {
      "id": 159026,
      "lat": 31.8079432420001,
      "lon": 34.6573172600001,
      "label": "מחסני בשר - אשדוד",
      "text": "",
      "stayTimes": "10:00 - 10:30",
      "t_start": "2020-03-24T08:00:00",
      "t_end": "2020-03-24T08:30:00",
      "link": ""
    },
    {
      "id": 159027,
      "lat": 32.015268334,
      "lon": 34.756772578,
      "label": "סופר דוש בקניון בת ים - בת ים",
      "text": "",
      "stayTimes": "16:00 - 17:30",
      "t_start": "2020-03-24T14:00:00",
      "t_end": "2020-03-24T15:30:00",
      "link": ""
    },
    {
      "id": 159028,
      "lat": 32.6782892800001,
      "lon": 35.2433936890001,
      "label": "שופר סל מתחם פרץ סנטר - מגדל העמק",
      "text": "",
      "stayTimes": "17:30 - 18:45",
      "t_start": "2020-03-22T15:30:00",
      "t_end": "2020-03-22T16:45:00",
      "link": ""
    },
    {
      "id": 159029,
      "lat": 31.374236604,
      "lon": 35.006553292,
      "label": "סופר מחסני השוק- מיתרים - שמעה",
      "text": "",
      "stayTimes": "12:30 - 13:30",
      "t_start": "2020-03-25T10:30:00",
      "t_end": "2020-03-25T11:30:00",
      "link": ""
    },
    {
      "id": 159030,
      "lat": 31.2433310000001,
      "lon": 34.8125470000001,
      "label": "סופר פארם ביג - באר שבע",
      "text": "",
      "stayTimes": "09:30 - 10:00",
      "t_start": "2020-03-25T07:30:00",
      "t_end": "2020-03-25T08:00:00",
      "link": ""
    },
    {
      "id": 159031,
      "lat": 31.2413889000001,
      "lon": 34.8105556,
      "label": "ACE ביג - באר שבע",
      "text": "",
      "stayTimes": "10:00 - 10:30",
      "t_start": "2020-03-25T08:00:00",
      "t_end": "2020-03-25T08:30:00",
      "link": ""
    },
    {
      "id": 159032,
      "lat": 31.2428483750001,
      "lon": 34.8121199610001,
      "label": "חנות נעמן BIG - באר שבע",
      "text": "",
      "stayTimes": "10:00 - 10:30",
      "t_start": "2020-03-25T08:00:00",
      "t_end": "2020-03-25T08:30:00",
      "link": ""
    },
    {
      "id": 159033,
      "lat": 31.7789552,
      "lon": 34.6570806,
      "label": "מיון ביה\"ח אסותא - אשדוד",
      "text": "",
      "stayTimes": "17:00 - 17:30",
      "t_start": "2020-03-26T15:00:00",
      "t_end": "2020-03-26T15:30:00",
      "link": ""
    },
    {
      "id": 159034,
      "lat": 31.9909974,
      "lon": 34.7607583000001,
      "label": "מאפיית קראמבל - ראשון לציון",
      "text": "",
      "stayTimes": "23:00 - 23:30",
      "t_start": "2020-03-26T21:00:00",
      "t_end": "2020-03-26T21:30:00",
      "link": ""
    },
    {
      "id": 159035,
      "lat": 32.6109777990001,
      "lon": 35.2879909660001,
      "label": "חנות שבו - כלי כתיבה - עפולה",
      "text": "",
      "stayTimes": "18:30 - 18:45",
      "t_start": "2020-03-22T16:30:00",
      "t_end": "2020-03-22T16:45:00",
      "link": ""
    },
    {
      "id": 159036,
      "lat": 32.6122728,
      "lon": 35.2882818000001,
      "label": "מאפייה קציר - עפולה",
      "text": "",
      "stayTimes": "08:00 - 09:00",
      "t_start": "2020-03-24T06:00:00",
      "t_end": "2020-03-24T07:00:00",
      "link": ""
    },
    {
      "id": 159037,
      "lat": 32.0862964340001,
      "lon": 34.8348863210001,
      "label": "נתיב החסד - בני ברק",
      "text": "",
      "stayTimes": "11:00 - 12:30",
      "t_start": "2020-03-24T09:00:00",
      "t_end": "2020-03-24T10:30:00",
      "link": ""
    },
    {
      "id": 159038,
      "lat": 32.090743767,
      "lon": 34.832575702,
      "label": "מכירה שכונתית בגינת אבן שפרוט - בני ברק",
      "text": "",
      "stayTimes": "12:00 - 08:00",
      "t_start": "2020-03-25T10:00:00",
      "t_end": "2020-03-22T06:00:00",
      "link": ""
    },
    {
      "id": 159039,
      "lat": 32.0794501020001,
      "lon": 34.815074942,
      "label": "סופר פארם - רמת גן",
      "text": "",
      "stayTimes": "10:30 - 11:00",
      "t_start": "2020-03-25T08:30:00",
      "t_end": "2020-03-25T09:00:00",
      "link": ""
    },
    {
      "id": 159040,
      "lat": 32.076331177,
      "lon": 34.839895675,
      "label": "בית כנסת משכנות יעקב באולם - בני ברק",
      "text": "",
      "stayTimes": "07:45 - 09:00",
      "t_start": "2020-03-22T05:45:00",
      "t_end": "2020-03-22T07:00:00",
      "link": ""
    },
    {
      "id": 159041,
      "lat": 32.076332155,
      "lon": 34.8398897370001,
      "label": "בית כנסת משכנות יעקב - בני ברק",
      "text": "",
      "stayTimes": "23:00 - 23:30",
      "t_start": "2020-03-23T21:00:00",
      "t_end": "2020-03-23T21:30:00",
      "link": ""
    },
    {
      "id": 159042,
      "lat": 32.0786915,
      "lon": 34.8367749000001,
      "label": "בית כנסת לדרמן למטה - בני ברק",
      "text": "",
      "stayTimes": "15:40 - 16:15",
      "t_start": "2020-03-22T13:40:00",
      "t_end": "2020-03-22T14:15:00",
      "link": ""
    },
    {
      "id": 159043,
      "lat": 32.0788157000001,
      "lon": 34.8400310000001,
      "label": "עזרא ואחווה - בני ברק",
      "text": "",
      "stayTimes": "16:30 - 17:30",
      "t_start": "2020-03-24T14:30:00",
      "t_end": "2020-03-24T15:30:00",
      "link": ""
    },
    {
      "id": 159044,
      "lat": 33.0327904000001,
      "lon": 35.1034588000001,
      "label": "סופרמרקט רמי לוי - נהריה",
      "text": "",
      "stayTimes": "21:00 - 20:00",
      "t_start": "2020-03-23T19:00:00",
      "t_end": "2020-03-23T18:00:00",
      "link": ""
    },
    {
      "id": 159045,
      "lat": 33.0735393000001,
      "lon": 35.138159,
      "label": "מרפאה כללית בצת - בצת",
      "text": "",
      "stayTimes": "08:00 - 16:00",
      "t_start": "2020-03-23T06:00:00",
      "t_end": "2020-03-23T14:00:00",
      "link": ""
    },
    {
      "id": 159046,
      "lat": 33.0728,
      "lon": 35.1430135000001,
      "label": "מרפאה כללית - שלומי",
      "text": "",
      "stayTimes": "10:00 - 10:30",
      "t_start": "2020-03-24T08:00:00",
      "t_end": "2020-03-24T08:30:00",
      "link": ""
    },
    {
      "id": 159047,
      "lat": 33.0741361190001,
      "lon": 35.142915181,
      "label": "קייטנת ילדים במתנס - שלומי",
      "text": "",
      "stayTimes": "08:00 - 08:30",
      "t_start": "2020-03-25T06:00:00",
      "t_end": "2020-03-25T06:30:00",
      "link": ""
    },
    {
      "id": 159048,
      "lat": 31.976393785,
      "lon": 34.8880033460001,
      "label": "מכולת המושב - זיתן",
      "text": "",
      "stayTimes": "08:00 - 08:30",
      "t_start": "2020-03-23T06:00:00",
      "t_end": "2020-03-23T06:30:00",
      "link": ""
    },
    {
      "id": 159049,
      "lat": 32.7885191,
      "lon": 35.528919,
      "label": "קבר רבי עקיבא - טבריה",
      "text": "",
      "stayTimes": "17:00 - 18:30",
      "t_start": "2020-03-23T15:00:00",
      "t_end": "2020-03-23T16:30:00",
      "link": ""
    },
    {
      "id": 159050,
      "lat": 32.0873548000001,
      "lon": 34.8289585000001,
      "label": "בית הכנסת הגדול - בני ברק",
      "text": "",
      "stayTimes": "09:00 - 10:00",
      "t_start": "2020-03-22T07:00:00",
      "t_end": "2020-03-22T08:00:00",
      "link": ""
    },
    {
      "id": 159051,
      "lat": 32.0873548000001,
      "lon": 34.8289585000001,
      "label": "בית הכנסת הגדול - בני ברק",
      "text": "",
      "stayTimes": "13:00 - 14:00",
      "t_start": "2020-03-22T11:00:00",
      "t_end": "2020-03-22T12:00:00",
      "link": ""
    },
    {
      "id": 159052,
      "lat": 32.0877748940001,
      "lon": 34.8274596640001,
      "label": "בית הכנסת מתיבתא - בני ברק",
      "text": "",
      "stayTimes": "08:30 - 09:30",
      "t_start": "2020-03-22T06:30:00",
      "t_end": "2020-03-22T07:30:00",
      "link": ""
    },
    {
      "id": 159053,
      "lat": 32.0257730000001,
      "lon": 34.90142,
      "label": "שופרסל - יהוד",
      "text": "",
      "stayTimes": "13:15 - 14:15",
      "t_start": "2020-03-27T11:15:00",
      "t_end": "2020-03-27T12:15:00",
      "link": ""
    },
    {
      "id": 159054,
      "lat": 31.777853142,
      "lon": 34.6363561410001,
      "label": "קיוסק בכיכר מגי'ק - אשדוד",
      "text": "",
      "stayTimes": "20:00 - 20:30",
      "t_start": "2020-03-24T18:00:00",
      "t_end": "2020-03-24T18:30:00",
      "link": ""
    },
    {
      "id": 159055,
      "lat": 31.7775212170001,
      "lon": 34.636722267,
      "label": "רמי לוי בשכונה - אשדוד",
      "text": "",
      "stayTimes": "20:15 - 20:40",
      "t_start": "2020-03-24T18:15:00",
      "t_end": "2020-03-24T18:40:00",
      "link": ""
    },
    {
      "id": 159056,
      "lat": 32.086106074,
      "lon": 34.8300113760001,
      "label": "בית הכנסת מתיבתא - בני ברק",
      "text": "",
      "stayTimes": "09:00 - 10:30",
      "t_start": "2020-03-22T07:00:00",
      "t_end": "2020-03-22T08:30:00",
      "link": ""
    },
    {
      "id": 159057,
      "lat": 32.0833752,
      "lon": 34.8296135000001,
      "label": "בית הכנסת תפארת ציון - בני ברק",
      "text": "",
      "stayTimes": "13:00 - 14:00",
      "t_start": "2020-03-22T11:00:00",
      "t_end": "2020-03-22T12:00:00",
      "link": ""
    },
    {
      "id": 159058,
      "lat": 32.0873548000001,
      "lon": 34.8289585000001,
      "label": "בית הכנסת הגדול - בני ברק",
      "text": "",
      "stayTimes": "13:00 - 14:00",
      "t_start": "2020-03-23T11:00:00",
      "t_end": "2020-03-23T12:00:00",
      "link": ""
    },
    {
      "id": 159059,
      "lat": 32.0873548000001,
      "lon": 34.8289585000001,
      "label": "בית הכנסת הגדול - בני ברק",
      "text": "",
      "stayTimes": "09:00 - 11:00",
      "t_start": "2020-03-23T07:00:00",
      "t_end": "2020-03-23T09:00:00",
      "link": ""
    },
    {
      "id": 159060,
      "lat": 32.0873548000001,
      "lon": 34.8289585000001,
      "label": "בית הכנסת הגדול - בני ברק",
      "text": "",
      "stayTimes": "21:00 - 22:00",
      "t_start": "2020-03-23T19:00:00",
      "t_end": "2020-03-23T20:00:00",
      "link": ""
    },
    {
      "id": 159061,
      "lat": 31.7923395890001,
      "lon": 35.2162661450001,
      "label": "מקווה \"ויגניץ\" - ירושלים",
      "text": "",
      "stayTimes": "08:20 - 08:30",
      "t_start": "2020-03-22T06:20:00",
      "t_end": "2020-03-22T06:30:00",
      "link": ""
    },
    {
      "id": 159062,
      "lat": 31.7923742890001,
      "lon": 35.2162616160001,
      "label": "בית כנסת \"ויזניץ\" - ירושלים",
      "text": "",
      "stayTimes": "07:30 - 09:30",
      "t_start": "2020-03-22T05:30:00",
      "t_end": "2020-03-22T07:30:00",
      "link": ""
    },
    {
      "id": 159063,
      "lat": 32.0876430000001,
      "lon": 34.8296700000001,
      "label": "חוג חתם סופר - בני ברק",
      "text": "",
      "stayTimes": "08:00 - 10:00",
      "t_start": "2020-03-22T06:00:00",
      "t_end": "2020-03-22T08:00:00",
      "link": ""
    },
    {
      "id": 159064,
      "lat": 32.066183181,
      "lon": 34.7924624070001,
      "label": "משרד עו\"ד שוב דוד - תל אביב - יפו",
      "text": "",
      "stayTimes": "09:00 - 17:00",
      "t_start": "2020-03-22T07:00:00",
      "t_end": "2020-03-22T15:00:00",
      "link": ""
    },
    {
      "id": 159065,
      "lat": 32.086117895,
      "lon": 34.8299881340001,
      "label": "מתיבתא - בני ברק",
      "text": "",
      "stayTimes": "09:00 - 10:00",
      "t_start": "2020-03-23T07:00:00",
      "t_end": "2020-03-23T08:00:00",
      "link": ""
    },
    {
      "id": 159066,
      "lat": 31.9645469370001,
      "lon": 34.7928522510001,
      "label": "בנק מרכנטיל - ראשון לציון",
      "text": "",
      "stayTimes": "12:00 - 13:00",
      "t_start": "2020-03-24T10:00:00",
      "t_end": "2020-03-24T11:00:00",
      "link": ""
    },
    {
      "id": 159067,
      "lat": 32.031392522,
      "lon": 34.8554434000001,
      "label": "סופר סיטי נווה סביון - אור יהודה",
      "text": "",
      "stayTimes": "19:00 - 19:30",
      "t_start": "2020-03-24T17:00:00",
      "t_end": "2020-03-24T17:30:00",
      "link": ""
    },
    {
      "id": 159068,
      "lat": 32.031362458,
      "lon": 34.855545363,
      "label": "מאפיית מן הארץ - אור יהודה",
      "text": "",
      "stayTimes": "11:00 - 11:30",
      "t_start": "2020-03-25T09:00:00",
      "t_end": "2020-03-25T09:30:00",
      "link": ""
    },
    {
      "id": 159069,
      "lat": 32.031388733,
      "lon": 34.85544191,
      "label": "סופר סיטי נווה סביון - אור יהודה",
      "text": "",
      "stayTimes": "16:00 - 16:30",
      "t_start": "2020-03-27T14:00:00",
      "t_end": "2020-03-27T14:30:00",
      "link": ""
    },
    {
      "id": 159070,
      "lat": 32.8303148000001,
      "lon": 34.9774800000001,
      "label": "תחנת דלק אלדור חיפה - חיפה",
      "text": "",
      "stayTimes": "08:00 - 08:00",
      "t_start": "2020-03-23T06:00:00",
      "t_end": "2020-03-23T06:00:00",
      "link": ""
    },
    {
      "id": 159071,
      "lat": 32.7879442,
      "lon": 35.041954882,
      "label": "תחנת דלק חרמש חיפה - חיפה",
      "text": "",
      "stayTimes": "08:00 - 08:00",
      "t_start": "2020-03-23T06:00:00",
      "t_end": "2020-03-23T06:00:00",
      "link": ""
    },
    {
      "id": 159072,
      "lat": 32.8085851390001,
      "lon": 35.0243334580001,
      "label": "תחנת דלק הקישון - חיפה",
      "text": "",
      "stayTimes": "08:00 - 08:00",
      "t_start": "2020-03-23T06:00:00",
      "t_end": "2020-03-23T06:00:00",
      "link": ""
    },
    {
      "id": 159073,
      "lat": 32.8126773440001,
      "lon": 35.071222817,
      "label": "תחנת דלק המפרץ - חיפה",
      "text": "",
      "stayTimes": "08:00 - 08:00",
      "t_start": "2020-03-22T06:00:00",
      "t_end": "2020-03-22T06:00:00",
      "link": ""
    },
    {
      "id": 159074,
      "lat": 31.682503341,
      "lon": 34.5716398060001,
      "label": "מרפאה כללית ברנע - אשקלון",
      "text": "",
      "stayTimes": "08:00 - 08:00",
      "t_start": "2020-03-22T06:00:00",
      "t_end": "2020-03-22T06:00:00",
      "link": ""
    },
    {
      "id": 159075,
      "lat": 31.691771379,
      "lon": 34.5819073280001,
      "label": "בית מגורים - אשקלון",
      "text": "",
      "stayTimes": "08:00 - 08:00",
      "t_start": "2020-03-23T06:00:00",
      "t_end": "2020-03-23T06:00:00",
      "link": ""
    },
    {
      "id": 159076,
      "lat": 31.6641894000001,
      "lon": 34.5632752000001,
      "label": "סניף ויקטורי ליד בית משפט - אשקלון",
      "text": "",
      "stayTimes": "16:30 - 17:00",
      "t_start": "2020-03-23T14:30:00",
      "t_end": "2020-03-23T15:00:00",
      "link": ""
    },
    {
      "id": 159077,
      "lat": 31.6622785000001,
      "lon": 34.5592871000001,
      "label": "מחלקת משאבי אנוש בית חולים ברזילי - אשקלון",
      "text": "",
      "stayTimes": "15:00 - 17:00",
      "t_start": "2020-03-25T13:00:00",
      "t_end": "2020-03-25T15:00:00",
      "link": ""
    },
    {
      "id": 159078,
      "lat": 31.6622785000001,
      "lon": 34.5592871000001,
      "label": "מכון MRI  בית חולים ברזילי - אשקלון",
      "text": "",
      "stayTimes": "15:00 - 17:00",
      "t_start": "2020-03-25T13:00:00",
      "t_end": "2020-03-25T15:00:00",
      "link": ""
    },
    {
      "id": 159079,
      "lat": 32.0911698900001,
      "lon": 34.834619821,
      "label": "לוקווע - בני ברק",
      "text": "",
      "stayTimes": "18:40 - 19:00",
      "t_start": "2020-03-22T16:40:00",
      "t_end": "2020-03-22T17:00:00",
      "link": ""
    },
    {
      "id": 159080,
      "lat": 32.0911628000001,
      "lon": 34.834622,
      "label": "בית כנסת לוקווע - בני ברק",
      "text": "",
      "stayTimes": "06:10 - 07:10",
      "t_start": "2020-03-22T04:10:00",
      "t_end": "2020-03-22T05:10:00",
      "link": ""
    },
    {
      "id": 159081,
      "lat": 32.0856778,
      "lon": 34.8242087,
      "label": "בית כנסת אוהל אברהם צייטלין - בני ברק",
      "text": "",
      "stayTimes": "17:00 - 17:30",
      "t_start": "2020-03-22T15:00:00",
      "t_end": "2020-03-22T15:30:00",
      "link": ""
    },
    {
      "id": 159082,
      "lat": 32.0827834,
      "lon": 34.8426542,
      "label": "צרכניה אחיעזר - בני ברק",
      "text": "",
      "stayTimes": "18:40 - 20:00",
      "t_start": "2020-03-25T16:40:00",
      "t_end": "2020-03-25T18:00:00",
      "link": ""
    },
    {
      "id": 159083,
      "lat": 32.0859852,
      "lon": 34.8355715000001,
      "label": "בית כנסת איצקוביץ - בני ברק",
      "text": "",
      "stayTimes": "15:00 - 15:15",
      "t_start": "2020-03-22T13:00:00",
      "t_end": "2020-03-22T13:15:00",
      "link": ""
    },
    {
      "id": 159084,
      "lat": 32.0873548000001,
      "lon": 34.8289585000001,
      "label": "בית הכנסת הגדול - בני ברק",
      "text": "",
      "stayTimes": "08:00 - 09:00",
      "t_start": "2020-03-22T06:00:00",
      "t_end": "2020-03-22T07:00:00",
      "link": ""
    },
    {
      "id": 159085,
      "lat": 32.0777296000001,
      "lon": 34.9062192000001,
      "label": "\"היפר מור\"- סופר מרקט - פתח תקווה",
      "text": "",
      "stayTimes": "14:00 - 15:00",
      "t_start": "2020-03-22T12:00:00",
      "t_end": "2020-03-22T13:00:00",
      "link": ""
    },
    {
      "id": 159086,
      "lat": 32.0819701,
      "lon": 34.8409268,
      "label": "א.א אורטופדיה - בני ברק",
      "text": "",
      "stayTimes": "12:00 - 13:00",
      "t_start": "2020-03-23T10:00:00",
      "t_end": "2020-03-23T11:00:00",
      "link": ""
    },
    {
      "id": 159087,
      "lat": 31.245803772,
      "lon": 34.7769873840001,
      "label": "קופת חולים כללית ט - באר שבע",
      "text": "",
      "stayTimes": "10:30 - 11:00",
      "t_start": "2020-03-27T08:30:00",
      "t_end": "2020-03-27T09:00:00",
      "link": ""
    },
    {
      "id": 159088,
      "lat": 31.2133285,
      "lon": 34.8110283820001,
      "label": "סופר \"אושר עד\" - באר שבע",
      "text": "",
      "stayTimes": "17:00 - 18:30",
      "t_start": "2020-03-23T15:00:00",
      "t_end": "2020-03-23T16:30:00",
      "link": ""
    },
    {
      "id": 159089,
      "lat": 32.0258672000001,
      "lon": 34.8593382,
      "label": "סופרמרקט \"יש\" - אור יהודה",
      "text": "",
      "stayTimes": "17:00 - 17:30",
      "t_start": "2020-03-22T15:00:00",
      "t_end": "2020-03-22T15:30:00",
      "link": ""
    },
    {
      "id": 159090,
      "lat": 32.0784483,
      "lon": 34.8394218,
      "label": "בית אבות והדרת פני זקן - בני ברק",
      "text": "",
      "stayTimes": "08:00 - 12:00",
      "t_start": "2020-03-27T06:00:00",
      "t_end": "2020-03-27T10:00:00",
      "link": ""
    },
    {
      "id": 159091,
      "lat": 32.0784483,
      "lon": 34.8394218,
      "label": "בית אבות והדרת פני זקן - בני ברק",
      "text": "",
      "stayTimes": "08:00 - 12:00",
      "t_start": "2020-03-25T06:00:00",
      "t_end": "2020-03-25T10:00:00",
      "link": ""
    },
    {
      "id": 159092,
      "lat": 32.0784483,
      "lon": 34.8394218,
      "label": "בית אבות והדרת פני זקן - בני ברק",
      "text": "",
      "stayTimes": "08:00 - 12:00",
      "t_start": "2020-03-26T06:00:00",
      "t_end": "2020-03-26T10:00:00",
      "link": ""
    },
    {
      "id": 159093,
      "lat": 32.0784483,
      "lon": 34.8394218,
      "label": "בית אבות והדרת פני זקן - בני ברק",
      "text": "",
      "stayTimes": "08:00 - 12:00",
      "t_start": "2020-03-22T06:00:00",
      "t_end": "2020-03-22T10:00:00",
      "link": ""
    },
    {
      "id": 159094,
      "lat": 32.0784483,
      "lon": 34.8394218,
      "label": "בת אבות והדרת פני זקן - בני ברק",
      "text": "",
      "stayTimes": "08:00 - 12:00",
      "t_start": "2020-03-23T06:00:00",
      "t_end": "2020-03-23T10:00:00",
      "link": ""
    },
    {
      "id": 159095,
      "lat": 32.3187235,
      "lon": 34.9340612,
      "label": "חבוש - כפר יונה",
      "text": "",
      "stayTimes": "11:15 - 11:30",
      "t_start": "2020-03-25T09:15:00",
      "t_end": "2020-03-25T09:30:00",
      "link": ""
    },
    {
      "id": 159096,
      "lat": 32.318136183,
      "lon": 34.9344362570001,
      "label": "סופר מגה - כפר יונה",
      "text": "",
      "stayTimes": "11:00 - 11:15",
      "t_start": "2020-03-25T09:00:00",
      "t_end": "2020-03-25T09:15:00",
      "link": ""
    },
    {
      "id": 159097,
      "lat": 32.0859908,
      "lon": 34.8313016000001,
      "label": "מקסיגו - בני ברק",
      "text": "",
      "stayTimes": "20:30 - 21:00",
      "t_start": "2020-03-23T18:30:00",
      "t_end": "2020-03-23T19:00:00",
      "link": ""
    },
    {
      "id": 159098,
      "lat": 32.0972669000001,
      "lon": 34.8379174,
      "label": "בית כנסת זיו יהודה - בני ברק",
      "text": "",
      "stayTimes": "07:10 - 21:00",
      "t_start": "2020-03-23T05:10:00",
      "t_end": "2020-03-23T19:00:00",
      "link": ""
    },
    {
      "id": 159099,
      "lat": 32.0279776880001,
      "lon": 34.8647664000001,
      "label": "קופ\"ח כללית- מרפאת גיורא - אור יהודה",
      "text": "",
      "stayTimes": "16:00 - 16:30",
      "t_start": "2020-03-24T14:00:00",
      "t_end": "2020-03-24T14:30:00",
      "link": ""
    },
    {
      "id": 159100,
      "lat": 32.0989103090001,
      "lon": 34.829733628,
      "label": "אושר עד בני ברק - בני ברק",
      "text": "",
      "stayTimes": "19:00 - 20:00",
      "t_start": "2020-03-24T17:00:00",
      "t_end": "2020-03-24T18:00:00",
      "link": ""
    },
    {
      "id": 159101,
      "lat": 32.0860237000001,
      "lon": 34.8303992,
      "label": "מרפאת מכבי - בני ברק",
      "text": "",
      "stayTimes": "11:00 - 12:00",
      "t_start": "2020-03-24T09:00:00",
      "t_end": "2020-03-24T10:00:00",
      "link": ""
    },
    {
      "id": 159102,
      "lat": 32.027943921,
      "lon": 34.8646902040001,
      "label": "קופת חולים כללית - אור יהודה",
      "text": "",
      "stayTimes": "09:30 - 11:00",
      "t_start": "2020-03-24T07:30:00",
      "t_end": "2020-03-24T09:00:00",
      "link": ""
    },
    {
      "id": 159103,
      "lat": 32.7853938850001,
      "lon": 35.4985358280001,
      "label": "סופר- פארם - טבריה",
      "text": "",
      "stayTimes": "11:00 - 11:05",
      "t_start": "2020-03-24T09:00:00",
      "t_end": "2020-03-24T09:05:00",
      "link": ""
    },
    {
      "id": 159104,
      "lat": 32.0784483,
      "lon": 34.8394218,
      "label": "בית אבות \"והדרת פני זקן\" - בני ברק",
      "text": "",
      "stayTimes": "07:00 - 12:00",
      "t_start": "2020-03-23T05:00:00",
      "t_end": "2020-03-23T10:00:00",
      "link": ""
    },
    {
      "id": 159105,
      "lat": 31.6675239,
      "lon": 34.5689428000001,
      "label": "סופר שוק העיר האקדמיה - אשקלון",
      "text": "",
      "stayTimes": "17:15 - 18:00",
      "t_start": "2020-03-22T15:15:00",
      "t_end": "2020-03-22T16:00:00",
      "link": ""
    },
    {
      "id": 159106,
      "lat": 31.6682664000001,
      "lon": 34.6023671,
      "label": "סופר יינות ביתן- אזה\"ת - אשקלון",
      "text": "",
      "stayTimes": "17:00 - 19:00",
      "t_start": "2020-03-23T15:00:00",
      "t_end": "2020-03-23T17:00:00",
      "link": ""
    },
    {
      "id": 159107,
      "lat": 31.6622785000001,
      "lon": 34.5592871000001,
      "label": "יחידת המחשוב בי\"ח ברזילי - אשקלון",
      "text": "",
      "stayTimes": "08:00 - 17:00",
      "t_start": "2020-03-24T06:00:00",
      "t_end": "2020-03-24T15:00:00",
      "link": ""
    },
    {
      "id": 159108,
      "lat": 31.6622785000001,
      "lon": 34.5592871000001,
      "label": "יחידת המחשוב בי\"ח ברזילי - אשקלון",
      "text": "",
      "stayTimes": "08:10 - 17:00",
      "t_start": "2020-03-22T06:10:00",
      "t_end": "2020-03-22T15:00:00",
      "link": ""
    },
    {
      "id": 159109,
      "lat": 31.6622785000001,
      "lon": 34.5592871000001,
      "label": "יחידת המחשוב בי\"ח ברזילי - אשקלון",
      "text": "",
      "stayTimes": "08:00 - 17:00",
      "t_start": "2020-03-23T06:00:00",
      "t_end": "2020-03-23T15:00:00",
      "link": ""
    },
    {
      "id": 159110,
      "lat": 31.261171194,
      "lon": 34.796580996,
      "label": "מכולת של רחל - באר שבע",
      "text": "",
      "stayTimes": "20:00 - 20:10",
      "t_start": "2020-03-22T18:00:00",
      "t_end": "2020-03-22T18:10:00",
      "link": ""
    },
    {
      "id": 159111,
      "lat": 31.662064049,
      "lon": 34.5949142640001,
      "label": "רמי לוי צפון - אשקלון",
      "text": "",
      "stayTimes": "11:00 - 12:00",
      "t_start": "2020-03-23T09:00:00",
      "t_end": "2020-03-23T10:00:00",
      "link": ""
    },
    {
      "id": 159112,
      "lat": 31.6619693000001,
      "lon": 34.55967,
      "label": "מיון ברזילי - אשקלון",
      "text": "",
      "stayTimes": "14:30 - 17:00",
      "t_start": "2020-03-27T12:30:00",
      "t_end": "2020-03-27T15:00:00",
      "link": ""
    },
    {
      "id": 159113,
      "lat": 31.6663264000001,
      "lon": 34.5961589,
      "label": "מוסך האחים - אשקלון",
      "text": "",
      "stayTimes": "08:00 - 15:00",
      "t_start": "2020-03-22T06:00:00",
      "t_end": "2020-03-22T13:00:00",
      "link": ""
    },
    {
      "id": 159114,
      "lat": 31.6663264000001,
      "lon": 34.5961589,
      "label": "מוסך האחים - אשקלון",
      "text": "",
      "stayTimes": "08:00 - 15:00",
      "t_start": "2020-03-23T06:00:00",
      "t_end": "2020-03-23T13:00:00",
      "link": ""
    },
    {
      "id": 159115,
      "lat": 32.0279570000001,
      "lon": 34.864768,
      "label": "קופת חולים כללית גיורא - אור יהודה",
      "text": "",
      "stayTimes": "09:30 - 11:00",
      "t_start": "2020-03-23T07:30:00",
      "t_end": "2020-03-23T09:00:00",
      "link": ""
    },
    {
      "id": 159116,
      "lat": 30.6111034,
      "lon": 34.7986178,
      "label": "מכולת \"הסלסלה\" - מצפה רמון",
      "text": "",
      "stayTimes": "12:00 - 13:00",
      "t_start": "2020-03-26T10:00:00",
      "t_end": "2020-03-26T11:00:00",
      "link": ""
    },
    {
      "id": 159117,
      "lat": 31.8111825,
      "lon": 35.2197587000001,
      "label": "קופת חולים כללית - ירושלים",
      "text": "",
      "stayTimes": "09:00 - 12:00",
      "t_start": "2020-03-25T07:00:00",
      "t_end": "2020-03-25T10:00:00",
      "link": ""
    },
    {
      "id": 159118,
      "lat": 31.8122742190001,
      "lon": 35.1952146290001,
      "label": "זול ובגדול קניון רמות. - ירושלים",
      "text": "",
      "stayTimes": "10:00 - 11:00",
      "t_start": "2020-03-26T08:00:00",
      "t_end": "2020-03-26T09:00:00",
      "link": ""
    },
    {
      "id": 159119,
      "lat": 31.7990571390001,
      "lon": 35.2062507960001,
      "label": "פנמיה קרית הילד - ירושלים",
      "text": "",
      "stayTimes": "09:00 - 15:00",
      "t_start": "2020-03-24T07:00:00",
      "t_end": "2020-03-24T13:00:00",
      "link": ""
    },
    {
      "id": 159120,
      "lat": 32.6109683,
      "lon": 35.2879797000001,
      "label": "חנות שבו - עפולה",
      "text": "",
      "stayTimes": "18:30 - 18:45",
      "t_start": "2020-03-22T16:30:00",
      "t_end": "2020-03-22T16:45:00",
      "link": ""
    },
    {
      "id": 159121,
      "lat": 32.6109683,
      "lon": 35.2879797000001,
      "label": "חנות שבו - עפולה",
      "text": "",
      "stayTimes": "18:30 - 18:45",
      "t_start": "2020-03-22T16:30:00",
      "t_end": "2020-03-22T16:45:00",
      "link": ""
    },
    {
      "id": 159122,
      "lat": 32.6109683,
      "lon": 35.2879797000001,
      "label": "חנות שבו - עפולה",
      "text": "",
      "stayTimes": "18:30 - 18:45",
      "t_start": "2020-03-22T16:30:00",
      "t_end": "2020-03-22T16:45:00",
      "link": ""
    },
    {
      "id": 159123,
      "lat": 32.6109683,
      "lon": 35.2879797000001,
      "label": "חנות שבו - עפולה",
      "text": "",
      "stayTimes": "18:30 - 18:45",
      "t_start": "2020-03-22T16:30:00",
      "t_end": "2020-03-15T16:45:00",
      "link": ""
    },
    {
      "id": 159124,
      "lat": 32.0830681830001,
      "lon": 34.841963853,
      "label": "בית הכנסת זוטשקא - בני ברק",
      "text": "",
      "stayTimes": "08:00 - 10:15",
      "t_start": "2020-03-22T06:00:00",
      "t_end": "2020-03-22T08:15:00",
      "link": ""
    },
    {
      "id": 159125,
      "lat": 32.085686722,
      "lon": 34.8422490720001,
      "label": "בית הכנסת קהל חסידים שטיבלך - בני ברק",
      "text": "",
      "stayTimes": "12:45 - 13:15",
      "t_start": "2020-03-23T10:45:00",
      "t_end": "2020-03-23T11:15:00",
      "link": ""
    },
    {
      "id": 159126,
      "lat": 32.0825810640001,
      "lon": 34.842370723,
      "label": "בית הכנסת אשל אברהם - בני ברק",
      "text": "",
      "stayTimes": "08:00 - 10:00",
      "t_start": "2020-03-23T06:00:00",
      "t_end": "2020-03-23T08:00:00",
      "link": ""
    },
    {
      "id": 159127,
      "lat": 32.0827834,
      "lon": 34.8426542,
      "label": "צרכניית גור - בני ברק",
      "text": "",
      "stayTimes": "20:45 - 21:15",
      "t_start": "2020-03-23T18:45:00",
      "t_end": "2020-03-23T19:15:00",
      "link": ""
    },
    {
      "id": 159128,
      "lat": 32.9715689000001,
      "lon": 35.5043578,
      "label": "בנק הפועלים - צפת",
      "text": "",
      "stayTimes": "11:00 - 11:40",
      "t_start": "2020-03-23T09:00:00",
      "t_end": "2020-03-23T09:40:00",
      "link": ""
    },
    {
      "id": 159129,
      "lat": 32.9715941010001,
      "lon": 35.5050279920001,
      "label": "סופר יש שערי העיר - צפת",
      "text": "",
      "stayTimes": "11:40 - 12:10",
      "t_start": "2020-03-23T09:40:00",
      "t_end": "2020-03-23T10:10:00",
      "link": ""
    },
    {
      "id": 159130,
      "lat": 32.1464242870001,
      "lon": 34.8041538000001,
      "label": "\"שופרסל\" סניף גלילות - הרצליה",
      "text": "",
      "stayTimes": "06:00 - 14:30",
      "t_start": "2020-03-27T04:00:00",
      "t_end": "2020-03-27T12:30:00",
      "link": ""
    },
    {
      "id": 159131,
      "lat": 31.6677821000001,
      "lon": 34.5695299000001,
      "label": "דלתא - אשקלון",
      "text": "",
      "stayTimes": "18:00 - 18:30",
      "t_start": "2020-03-22T16:00:00",
      "t_end": "2020-03-22T16:30:00",
      "link": ""
    },
    {
      "id": 159132,
      "lat": 31.9393532,
      "lon": 35.0414396,
      "label": "בית כנסת תורה ותפילה - מודיעין עילית",
      "text": "",
      "stayTimes": "07:30 - 08:40",
      "t_start": "2020-03-23T05:30:00",
      "t_end": "2020-03-23T06:40:00",
      "link": ""
    },
    {
      "id": 159133,
      "lat": 31.9393532,
      "lon": 35.0414396,
      "label": "בית כנסת תורה ותפילה - מודיעין עילית",
      "text": "",
      "stayTimes": "06:30 - 07:45",
      "t_start": "2020-03-22T04:30:00",
      "t_end": "2020-03-22T05:45:00",
      "link": ""
    },
    {
      "id": 159134,
      "lat": 31.9407681060001,
      "lon": 35.041481795,
      "label": "שיעור בבית - מודיעין עילית",
      "text": "",
      "stayTimes": "21:45 - 23:15",
      "t_start": "2020-03-22T19:45:00",
      "t_end": "2020-03-22T21:15:00",
      "link": ""
    },
    {
      "id": 159135,
      "lat": 31.991863,
      "lon": 34.7750457000001,
      "label": "ביקור רופא - ראשון לציון",
      "text": "",
      "stayTimes": "21:11 - 22:50",
      "t_start": "2020-03-28T19:11:00",
      "t_end": "2020-03-28T20:50:00",
      "link": ""
    },
    {
      "id": 159136,
      "lat": 32.0069029000001,
      "lon": 34.7508932000001,
      "label": "בית הכנסת אורות התורה - בת ים",
      "text": "",
      "stayTimes": "16:30 - 17:30",
      "t_start": "2020-03-22T14:30:00",
      "t_end": "2020-03-22T15:30:00",
      "link": ""
    },
    {
      "id": 159137,
      "lat": 32.0069029000001,
      "lon": 34.7508932000001,
      "label": "בית הכנסת אורות התורה - בת ים",
      "text": "",
      "stayTimes": "16:30 - 17:30",
      "t_start": "2020-03-23T14:30:00",
      "t_end": "2020-03-23T15:30:00",
      "link": ""
    },
    {
      "id": 159138,
      "lat": 32.0791613000001,
      "lon": 34.8384143000001,
      "label": "יש חסד - בני ברק",
      "text": "",
      "stayTimes": "22:00 - 22:30",
      "t_start": "2020-03-25T20:00:00",
      "t_end": "2020-03-25T20:30:00",
      "link": ""
    },
    {
      "id": 159139,
      "lat": 32.0847749000001,
      "lon": 34.8323027000001,
      "label": "ישיבת משך חוכמה - בני ברק",
      "text": "",
      "stayTimes": "11:00 - 13:00",
      "t_start": "2020-03-22T09:00:00",
      "t_end": "2020-03-22T11:00:00",
      "link": ""
    },
    {
      "id": 159140,
      "lat": 32.003632829,
      "lon": 34.8038148690001,
      "label": "חצי חינם - חולון",
      "text": "",
      "stayTimes": "14:30 - 16:30",
      "t_start": "2020-03-25T12:30:00",
      "t_end": "2020-03-25T14:30:00",
      "link": ""
    },
    {
      "id": 159141,
      "lat": 32.018378,
      "lon": 34.770967865,
      "label": "סופרפארם - חולון",
      "text": "",
      "stayTimes": "13:00 - 13:30",
      "t_start": "2020-03-23T11:00:00",
      "t_end": "2020-03-23T11:30:00",
      "link": ""
    },
    {
      "id": 159142,
      "lat": 32.0082967130001,
      "lon": 34.791272909,
      "label": "שופרסל - חולון",
      "text": "",
      "stayTimes": "17:00 - 17:30",
      "t_start": "2020-03-25T15:00:00",
      "t_end": "2020-03-25T15:30:00",
      "link": ""
    },
    {
      "id": 159143,
      "lat": 32.1973029000001,
      "lon": 34.8778576,
      "label": "הום סנטר קניון רננים - רעננה",
      "text": "",
      "stayTimes": "19:00 - 20:00",
      "t_start": "2020-03-26T17:00:00",
      "t_end": "2020-03-26T18:00:00",
      "link": ""
    },
    {
      "id": 159144,
      "lat": 32.1964064000001,
      "lon": 34.8764550000001,
      "label": "פירות גינוסר - רעננה",
      "text": "",
      "stayTimes": "20:00 - 20:30",
      "t_start": "2020-03-26T18:00:00",
      "t_end": "2020-03-26T18:30:00",
      "link": ""
    },
    {
      "id": 159145,
      "lat": 31.6455817,
      "lon": 34.5943259000001,
      "label": "סופר אושר עד - בת הדר",
      "text": "",
      "stayTimes": "19:00 - 21:30",
      "t_start": "2020-03-24T17:00:00",
      "t_end": "2020-03-24T19:30:00",
      "link": ""
    },
    {
      "id": 159146,
      "lat": 31.6697462000001,
      "lon": 34.5790404000001,
      "label": "הבית של חני - אשקלון",
      "text": "",
      "stayTimes": "16:00 - 16:30",
      "t_start": "2020-03-25T14:00:00",
      "t_end": "2020-03-25T14:30:00",
      "link": ""
    },
    {
      "id": 159147,
      "lat": 31.6733361,
      "lon": 34.5760379000001,
      "label": "חודשי השנה- בית - אשקלון",
      "text": "",
      "stayTimes": "09:00 - 11:00",
      "t_start": "2020-03-24T07:00:00",
      "t_end": "2020-03-24T09:00:00",
      "link": ""
    },
    {
      "id": 159148,
      "lat": 31.6629795000001,
      "lon": 34.5766783,
      "label": "קופת חולים נאות אשקלון - אשקלון",
      "text": "",
      "stayTimes": "09:40 - 10:00",
      "t_start": "2020-03-24T07:40:00",
      "t_end": "2020-03-24T08:00:00",
      "link": ""
    },
    {
      "id": 159149,
      "lat": 32.0552349000001,
      "lon": 34.9606875000001,
      "label": "סופרמרקט \"שוק מהדרין\" סניף בן שטח - אלעד",
      "text": "",
      "stayTimes": "08:00 - 17:30",
      "t_start": "2020-03-22T06:00:00",
      "t_end": "2020-03-22T15:30:00",
      "link": ""
    },
    {
      "id": 159150,
      "lat": 32.0554890940001,
      "lon": 34.9606203710001,
      "label": "סופר מרקט \"שוק מהדרין\" סניף בן שטח - אלעד",
      "text": "",
      "stayTimes": "08:00 - 16:30",
      "t_start": "2020-03-23T06:00:00",
      "t_end": "2020-03-23T14:30:00",
      "link": ""
    },
    {
      "id": 159151,
      "lat": 32.055256077,
      "lon": 34.9606923480001,
      "label": "סופר מרקט \"שוק מהדרין\" סניף בן שטח - אלעד",
      "text": "",
      "stayTimes": "08:00 - 10:30",
      "t_start": "2020-03-24T06:00:00",
      "t_end": "2020-03-24T08:30:00",
      "link": ""
    },
    {
      "id": 159152,
      "lat": 32.9715689000001,
      "lon": 35.5043578,
      "label": "בנק הפועלים - צפת",
      "text": "",
      "stayTimes": "11:00 - 11:40",
      "t_start": "2020-03-23T09:00:00",
      "t_end": "2020-03-23T09:40:00",
      "link": ""
    },
    {
      "id": 159153,
      "lat": 31.2584512,
      "lon": 34.771347,
      "label": "תיוון \"באר שבע 360\" - באר שבע",
      "text": "",
      "stayTimes": "10:30 - 19:00",
      "t_start": "2020-03-24T08:30:00",
      "t_end": "2020-03-24T17:00:00",
      "link": ""
    },
    {
      "id": 159154,
      "lat": 31.6621588,
      "lon": 34.5788590000001,
      "label": "סופר האחים - אשקלון",
      "text": "",
      "stayTimes": "15:30 - 15:45",
      "t_start": "2020-03-26T13:30:00",
      "t_end": "2020-03-26T13:45:00",
      "link": ""
    },
    {
      "id": 159155,
      "lat": 32.0624029520001,
      "lon": 34.7917720990001,
      "label": "סופר יוחחנוף - תל אביב - יפו",
      "text": "",
      "stayTimes": "20:00 - 21:00",
      "t_start": "2020-03-23T18:00:00",
      "t_end": "2020-03-23T19:00:00",
      "link": ""
    },
    {
      "id": 159156,
      "lat": 32.4490906,
      "lon": 34.9147627,
      "label": "סופר אושר עד באזור התעשייה - חדרה",
      "text": "",
      "stayTimes": "21:00 - 22:30",
      "t_start": "2020-03-23T19:00:00",
      "t_end": "2020-03-23T20:30:00",
      "link": ""
    },
    {
      "id": 159157,
      "lat": 32.7913550000001,
      "lon": 35.032456,
      "label": "בית מרקחת מת\"מ - חיפה",
      "text": "",
      "stayTimes": "17:30 - 18:00",
      "t_start": "2020-03-23T15:30:00",
      "t_end": "2020-03-23T16:00:00",
      "link": ""
    },
    {
      "id": 159158,
      "lat": 32.7830556000001,
      "lon": 34.9594444000001,
      "label": "\"שופרסל\" מת\"מ - חיפה",
      "text": "",
      "stayTimes": "15:30 - 16:30",
      "t_start": "2020-03-23T13:30:00",
      "t_end": "2020-03-23T14:30:00",
      "link": ""
    },
    {
      "id": 159159,
      "lat": 32.5088861,
      "lon": 34.9054839,
      "label": "מאפיית \"אגמי\" - זכרון יעקב",
      "text": "",
      "stayTimes": "08:30 - 10:00",
      "t_start": "2020-03-24T06:30:00",
      "t_end": "2020-03-24T08:00:00",
      "link": ""
    },
    {
      "id": 159160,
      "lat": 32.4492302,
      "lon": 34.9121442000001,
      "label": "מוסך דיזל - חדרה",
      "text": "",
      "stayTimes": "10:00 - 11:00",
      "t_start": "2020-03-23T08:00:00",
      "t_end": "2020-03-23T09:00:00",
      "link": ""
    },
    {
      "id": 159161,
      "lat": 32.1079332,
      "lon": 34.9551265000001,
      "label": "רמי לוי - ראש העין",
      "text": "",
      "stayTimes": "15:00 - 15:30",
      "t_start": "2020-03-23T13:00:00",
      "t_end": "2020-03-23T13:30:00",
      "link": ""
    },
    {
      "id": 159162,
      "lat": 32.066902,
      "lon": 34.803277,
      "label": "חברת ביטוח הפניקס - גבעתיים",
      "text": "",
      "stayTimes": "08:00 - 16:00",
      "t_start": "2020-03-24T06:00:00",
      "t_end": "2020-03-24T14:00:00",
      "link": ""
    },
    {
      "id": 159163,
      "lat": 32.037698784,
      "lon": 34.7761311100001,
      "label": "סופר יוחננוף - חולון",
      "text": "",
      "stayTimes": "11:00 - 12:00",
      "t_start": "2020-03-25T09:00:00",
      "t_end": "2020-03-25T10:00:00",
      "link": ""
    },
    {
      "id": 159164,
      "lat": 31.661164811,
      "lon": 34.5897879410001,
      "label": "קניון חוצות - מרפאה כללית - אשקלון",
      "text": "",
      "stayTimes": "10:45 - 11:30",
      "t_start": "2020-03-22T08:45:00",
      "t_end": "2020-03-22T09:30:00",
      "link": ""
    },
    {
      "id": 159165,
      "lat": 31.791797839,
      "lon": 35.191813154,
      "label": "סופר יש חסד - ירושלים",
      "text": "",
      "stayTimes": "16:30 - 16:45",
      "t_start": "2020-03-22T14:30:00",
      "t_end": "2020-03-22T14:45:00",
      "link": ""
    },
    {
      "id": 159166,
      "lat": 32.0562936330001,
      "lon": 34.7697138340001,
      "label": "שופרסל - תל אביב - יפו",
      "text": "",
      "stayTimes": "10:30 - 12:30",
      "t_start": "2020-03-26T08:30:00",
      "t_end": "2020-03-26T10:30:00",
      "link": ""
    },
    {
      "id": 159167,
      "lat": 32.0142516000001,
      "lon": 34.7670197,
      "label": "מוקד מכבי חולון - חולון",
      "text": "",
      "stayTimes": "19:00 - 20:15",
      "t_start": "2020-03-26T17:00:00",
      "t_end": "2020-03-26T18:15:00",
      "link": ""
    },
    {
      "id": 159168,
      "lat": 31.7911979,
      "lon": 35.1421035000001,
      "label": "חנות דלק מנטה - ירושלים",
      "text": "",
      "stayTimes": "17:45 - 17:50",
      "t_start": "2020-03-22T15:45:00",
      "t_end": "2020-03-22T15:50:00",
      "link": ""
    },
    {
      "id": 159169,
      "lat": 31.8816816360001,
      "lon": 35.0131298360001,
      "label": "סופר ויקטורי - מודיעין-מכבים-רעות",
      "text": "",
      "stayTimes": "16:30 - 17:10",
      "t_start": "2020-03-24T14:30:00",
      "t_end": "2020-03-24T15:10:00",
      "link": ""
    },
    {
      "id": 159170,
      "lat": 32.2504740460001,
      "lon": 34.9187643180001,
      "label": "מכולת - תל מונד",
      "text": "",
      "stayTimes": "07:30 - 12:00",
      "t_start": "2020-03-23T05:30:00",
      "t_end": "2020-03-23T10:00:00",
      "link": ""
    },
    {
      "id": 159171,
      "lat": 32.250475726,
      "lon": 34.9187643180001,
      "label": "מכולת - תל מונד",
      "text": "",
      "stayTimes": "07:30 - 12:00",
      "t_start": "2020-03-22T05:30:00",
      "t_end": "2020-03-22T10:00:00",
      "link": ""
    },
    {
      "id": 159172,
      "lat": 32.2504774060001,
      "lon": 34.9187643180001,
      "label": "מכולת - תל מונד",
      "text": "",
      "stayTimes": "07:30 - 12:00",
      "t_start": "2020-03-24T05:30:00",
      "t_end": "2020-03-24T10:00:00",
      "link": ""
    },
    {
      "id": 159173,
      "lat": 32.0725300240001,
      "lon": 34.782036304,
      "label": "סופר AM/PM אבאבן גבירול 14 תא - תל אביב - יפו",
      "text": "",
      "stayTimes": "18:00 - 21:00",
      "t_start": "2020-03-22T16:00:00",
      "t_end": "2020-03-22T19:00:00",
      "link": ""
    },
    {
      "id": 159174,
      "lat": 32.0572373150001,
      "lon": 34.869520294,
      "label": "סופר AM/PM אבאבן גבירול 14 תא - תל אביב - יפו",
      "text": "",
      "stayTimes": "19:00 - 21:00",
      "t_start": "2020-03-28T17:00:00",
      "t_end": "2020-03-28T19:00:00",
      "link": ""
    },
    {
      "id": 159175,
      "lat": 32.0699541000001,
      "lon": 34.7829564,
      "label": "טיב טעם - החשמונאים 91 תא - תל אביב - יפו",
      "text": "",
      "stayTimes": "19:30 - 21:30",
      "t_start": "2020-03-29T17:30:00",
      "t_end": "2020-03-29T19:30:00",
      "link": ""
    },
    {
      "id": 159176,
      "lat": 32.0699541000001,
      "lon": 34.7829564,
      "label": "טיב טעם - החשמונאים 91 תא - תל אביב - יפו",
      "text": "",
      "stayTimes": "19:00 - 21:00",
      "t_start": "2020-03-25T17:00:00",
      "t_end": "2020-03-25T19:00:00",
      "link": ""
    },
    {
      "id": 159177,
      "lat": 31.9369383000001,
      "lon": 35.0390314000001,
      "label": "חנות זינגר מרכז עסקים - מודיעין עילית",
      "text": "",
      "stayTimes": "14:00 - 14:10",
      "t_start": "2020-03-22T12:00:00",
      "t_end": "2020-03-22T12:10:00",
      "link": ""
    },
    {
      "id": 159178,
      "lat": 32.0504172,
      "lon": 34.9504439,
      "label": "מרפאת כללית שמאי - אלעד",
      "text": "",
      "stayTimes": "07:30 - 13:00",
      "t_start": "2020-03-24T05:30:00",
      "t_end": "2020-03-24T11:00:00",
      "link": ""
    },
    {
      "id": 159179,
      "lat": 32.032208606,
      "lon": 34.937520567,
      "label": "שוק מהדרין - מרכז רימון - אלעד",
      "text": "",
      "stayTimes": "09:00 - 11:00",
      "t_start": "2020-03-22T07:00:00",
      "t_end": "2020-03-22T09:00:00",
      "link": ""
    },
    {
      "id": 159180,
      "lat": 32.9236277000001,
      "lon": 35.3080387000001,
      "label": "סופרמרקט רמי לוי - כרמיאל",
      "text": "",
      "stayTimes": "20:00 - 21:30",
      "t_start": "2020-03-24T18:00:00",
      "t_end": "2020-03-24T19:30:00",
      "link": ""
    },
    {
      "id": 159181,
      "lat": 32.9206767000001,
      "lon": 35.3109357000001,
      "label": "חנות טמבור כהן - כרמיאל",
      "text": "",
      "stayTimes": "15:30 - 16:00",
      "t_start": "2020-03-25T13:30:00",
      "t_end": "2020-03-25T14:00:00",
      "link": ""
    },
    {
      "id": 159182,
      "lat": 31.6692012,
      "lon": 34.6027083000001,
      "label": "שוק העיר - אשקלון",
      "text": "",
      "stayTimes": "09:15 - 10:15",
      "t_start": "2020-03-25T07:15:00",
      "t_end": "2020-03-25T08:15:00",
      "link": ""
    },
    {
      "id": 159183,
      "lat": 31.9257275940001,
      "lon": 34.8639782770001,
      "label": "שופרסל דיל- קניון עזריאלי - רמלה",
      "text": "",
      "stayTimes": "19:00 - 19:10",
      "t_start": "2020-03-24T17:00:00",
      "t_end": "2020-03-24T17:10:00",
      "link": ""
    },
    {
      "id": 159184,
      "lat": 31.6659504360001,
      "lon": 34.562813997,
      "label": "קונדטוריה לה טורט - אשקלון",
      "text": "",
      "stayTimes": "11:00 - 11:30",
      "t_start": "2020-03-27T09:00:00",
      "t_end": "2020-03-27T09:30:00",
      "link": ""
    },
    {
      "id": 159185,
      "lat": 31.6622785000001,
      "lon": 34.5592871000001,
      "label": "יחידת מחשוב בי\"ח ברזילי - אשקלון",
      "text": "",
      "stayTimes": "08:00 - 18:00",
      "t_start": "2020-03-25T06:00:00",
      "t_end": "2020-03-25T16:00:00",
      "link": ""
    },
    {
      "id": 159186,
      "lat": 31.6622785000001,
      "lon": 34.5592871000001,
      "label": "יחידת המחשוב- בי\"ח ברזילי - אשקלון",
      "text": "",
      "stayTimes": "08:00 - 19:00",
      "t_start": "2020-03-26T06:00:00",
      "t_end": "2020-03-26T17:00:00",
      "link": ""
    },
    {
      "id": 159187,
      "lat": 32.1811562,
      "lon": 34.897049,
      "label": "בי\"ח מאיר- מרפאה לתיירות מרפא, נלקחה בדיקה - כפר סבא",
      "text": "",
      "stayTimes": "13:20 - 13:30",
      "t_start": "2020-03-29T11:20:00",
      "t_end": "2020-03-29T11:30:00",
      "link": ""
    },
    {
      "id": 159188,
      "lat": 32.1823231000001,
      "lon": 34.8954868000001,
      "label": "בי\"ח מאיר- מחלקה פנימית ב'- מחלקת קורונה - כפר סבא",
      "text": "",
      "stayTimes": "08:00 - 16:00",
      "t_start": "2020-03-22T06:00:00",
      "t_end": "2020-03-22T14:00:00",
      "link": ""
    },
    {
      "id": 159189,
      "lat": 32.1823231000001,
      "lon": 34.8954868000001,
      "label": "בי\"ח מאיר- מחלקה פנימית ב'- מחלקת קורונה - כפר סבא",
      "text": "",
      "stayTimes": "08:00 - 16:00",
      "t_start": "2020-03-23T06:00:00",
      "t_end": "2020-03-23T14:00:00",
      "link": ""
    },
    {
      "id": 159190,
      "lat": 32.1823231000001,
      "lon": 34.8954868000001,
      "label": "בי\"ח מאיר- מחלקה פנימית ב'- מחלקת קורונה - כפר סבא",
      "text": "",
      "stayTimes": "08:00 - 16:00",
      "t_start": "2020-03-24T06:00:00",
      "t_end": "2020-03-24T14:00:00",
      "link": ""
    },
    {
      "id": 159191,
      "lat": 32.1817066,
      "lon": 34.8949928000001,
      "label": "בי\"ח מאיר- מיון נשימתי - כפר סבא",
      "text": "",
      "stayTimes": "16:00 - 23:00",
      "t_start": "2020-03-24T14:00:00",
      "t_end": "2020-03-24T21:00:00",
      "link": ""
    },
    {
      "id": 159192,
      "lat": 32.9467363000001,
      "lon": 35.1726051000001,
      "label": "MY BABY - ירכא",
      "text": "",
      "stayTimes": "16:30 - 18:00",
      "t_start": "2020-03-25T14:30:00",
      "t_end": "2020-03-25T16:00:00",
      "link": ""
    },
    {
      "id": 159193,
      "lat": 32.345488,
      "lon": 34.855896,
      "label": "בית חולים לניאדו - נתניה",
      "text": "",
      "stayTimes": "16:00 - 16:30",
      "t_start": "2020-03-26T14:00:00",
      "t_end": "2020-03-26T14:30:00",
      "link": ""
    },
    {
      "id": 159194,
      "lat": 32.3278532000001,
      "lon": 34.8607897000001,
      "label": "בית משפט הרבני + קומה 5 - נתניה",
      "text": "",
      "stayTimes": "09:15 - 09:40",
      "t_start": "2020-03-22T07:15:00",
      "t_end": "2020-03-22T07:40:00",
      "link": ""
    },
    {
      "id": 159195,
      "lat": 32.3278300650001,
      "lon": 34.8533203210001,
      "label": "קופת חולים כללית קומה 5 - נתניה",
      "text": "",
      "stayTimes": "10:15 - 10:40",
      "t_start": "2020-03-22T08:15:00",
      "t_end": "2020-03-22T08:40:00",
      "link": ""
    },
    {
      "id": 159196,
      "lat": 31.6651013000001,
      "lon": 34.5661204,
      "label": "מאוחדת - אשקלון",
      "text": "",
      "stayTimes": "09:20 - 09:30",
      "t_start": "2020-03-29T07:20:00",
      "t_end": "2020-03-29T07:30:00",
      "link": ""
    },
    {
      "id": 159197,
      "lat": 31.9476142,
      "lon": 34.8914086,
      "label": "מוקד טרם - לוד - לוד",
      "text": "",
      "stayTimes": "23:15 - 01:00",
      "t_start": "2020-03-27T21:15:00",
      "t_end": "2020-03-26T23:00:00",
      "link": ""
    },
    {
      "id": 159198,
      "lat": 31.9266720000001,
      "lon": 34.8777440000001,
      "label": "סופר פארם קרית הממשלה רמלה - רמלה",
      "text": "",
      "stayTimes": "11:30 - 13:00",
      "t_start": "2020-03-27T09:30:00",
      "t_end": "2020-03-27T11:00:00",
      "link": ""
    },
    {
      "id": 159199,
      "lat": 31.938457256,
      "lon": 35.0451985980001,
      "label": "בית ספר מעלותבת שבע בקומה א במרפסת הדרומית - מודיעין עילית",
      "text": "",
      "stayTimes": "08:00 - 09:00",
      "t_start": "2020-03-27T06:00:00",
      "t_end": "2020-03-27T07:00:00",
      "link": ""
    },
    {
      "id": 159200,
      "lat": 31.928897905,
      "lon": 35.0271220340001,
      "label": "ישיבת מערבאמכון רובין בחדר המרכזי ומשרדים - מתתיהו",
      "text": "",
      "stayTimes": "14:00 - 16:00",
      "t_start": "2020-03-23T12:00:00",
      "t_end": "2020-03-23T14:00:00",
      "link": ""
    },
    {
      "id": 159201,
      "lat": 32.071789075,
      "lon": 34.841956854,
      "label": "מקווה נווה אחי עזר - בני ברק",
      "text": "",
      "stayTimes": "20:00 - 21:00",
      "t_start": "2020-03-24T18:00:00",
      "t_end": "2020-03-24T19:00:00",
      "link": ""
    },
    {
      "id": 159202,
      "lat": 32.2759974000001,
      "lon": 34.9201281000001,
      "label": "סופר פארם - קדימה-צורן",
      "text": "",
      "stayTimes": "13:55 - 14:55",
      "t_start": "2020-03-26T11:55:00",
      "t_end": "2020-03-26T12:55:00",
      "link": ""
    },
    {
      "id": 159203,
      "lat": 31.805127231,
      "lon": 35.1511342750001,
      "label": "סופר רמי לוי במבשרת ציון - ירושלים",
      "text": "",
      "stayTimes": "12:00 - 13:30",
      "t_start": "2020-03-25T10:00:00",
      "t_end": "2020-03-25T11:30:00",
      "link": ""
    },
    {
      "id": 159204,
      "lat": 32.086407885,
      "lon": 34.828450235,
      "label": "בית כנסת מרכזי - בני ברק",
      "text": "",
      "stayTimes": "17:00 - 19:00",
      "t_start": "2020-03-22T15:00:00",
      "t_end": "2020-03-22T17:00:00",
      "link": ""
    },
    {
      "id": 159205,
      "lat": 32.279969689,
      "lon": 34.8538825140001,
      "label": "קופת חולים כללית - נתניה",
      "text": "",
      "stayTimes": "09:20 - 09:45",
      "t_start": "2020-03-27T07:20:00",
      "t_end": "2020-03-27T07:45:00",
      "link": ""
    },
    {
      "id": 159206,
      "lat": 32.279996033,
      "lon": 34.8538909160001,
      "label": "בית מרחקת קופת חולים כללית - נתניה",
      "text": "",
      "stayTimes": "09:45 - 10:00",
      "t_start": "2020-03-27T07:45:00",
      "t_end": "2020-03-27T08:00:00",
      "link": ""
    },
    {
      "id": 159207,
      "lat": 32.0861055440001,
      "lon": 34.8303790780001,
      "label": "בית מרקחת קופת חולים מכבי - בני ברק",
      "text": "",
      "stayTimes": "18:00 - 19:00",
      "t_start": "2020-03-23T16:00:00",
      "t_end": "2020-03-23T17:00:00",
      "link": ""
    },
    {
      "id": 159208,
      "lat": 32.087111411,
      "lon": 34.8285222100001,
      "label": "חנות דרורי מכשירי כתיבה - בני ברק",
      "text": "",
      "stayTimes": "19:00 - 20:00",
      "t_start": "2020-03-23T17:00:00",
      "t_end": "2020-03-23T18:00:00",
      "link": ""
    },
    {
      "id": 159209,
      "lat": 31.884983436,
      "lon": 34.7387132640001,
      "label": "שופרסל דיל - יבנה",
      "text": "",
      "stayTimes": "09:00 - 10:00",
      "t_start": "2020-03-27T07:00:00",
      "t_end": "2020-03-27T08:00:00",
      "link": ""
    },
    {
      "id": 159210,
      "lat": 32.4418197000001,
      "lon": 34.9130742,
      "label": "קופת חולים כללית דגני חדרה - חדרה",
      "text": "",
      "stayTimes": "17:30 - 18:30",
      "t_start": "2020-03-22T15:30:00",
      "t_end": "2020-03-22T16:30:00",
      "link": ""
    },
    {
      "id": 159211,
      "lat": 32.4418197000001,
      "lon": 34.9130742,
      "label": "קופת חולים כללית דגני חדרה - חדרה",
      "text": "",
      "stayTimes": "13:00 - 14:00",
      "t_start": "2020-03-26T11:00:00",
      "t_end": "2020-03-26T12:00:00",
      "link": ""
    },
    {
      "id": 159212,
      "lat": 32.5689002,
      "lon": 34.9548966,
      "label": "קופת חולים \"כללית\" - זכרון יעקב",
      "text": "",
      "stayTimes": "08:00 - 08:30",
      "t_start": "2020-03-25T06:00:00",
      "t_end": "2020-03-25T06:30:00",
      "link": ""
    },
    {
      "id": 159213,
      "lat": 32.5217420000001,
      "lon": 34.9420900000001,
      "label": "קופת חלוים כללית סניף בינימינה - בנימינה-גבעת עדה",
      "text": "",
      "stayTimes": "08:00 - 10:00",
      "t_start": "2020-03-24T06:00:00",
      "t_end": "2020-03-24T08:00:00",
      "link": ""
    },
    {
      "id": 159214,
      "lat": 32.089508,
      "lon": 34.8177827000001,
      "label": "פרימדונה - רמת גן",
      "text": "",
      "stayTimes": "16:00 - 16:20",
      "t_start": "2020-03-25T14:00:00",
      "t_end": "2020-03-25T14:20:00",
      "link": ""
    },
    {
      "id": 159215,
      "lat": 32.5331886170001,
      "lon": 35.148613787,
      "label": "סופר פארם שכ' עין איברהים אום אל פאחם - אום אל-פחם",
      "text": "",
      "stayTimes": "15:00 - 15:30",
      "t_start": "2020-03-27T13:00:00",
      "t_end": "2020-03-27T13:30:00",
      "link": ""
    },
    {
      "id": 159216,
      "lat": 32.4418197000001,
      "lon": 34.9130742,
      "label": "קופת חולים כללית דגני חדרה - חדרה",
      "text": "",
      "stayTimes": "12:00 - 13:00",
      "t_start": "2020-03-26T10:00:00",
      "t_end": "2020-03-26T11:00:00",
      "link": ""
    },
    {
      "id": 159217,
      "lat": 32.4888730000001,
      "lon": 34.9698490000001,
      "label": "חנות סטוק מתחם \"ביג\" - פרדס חנה-כרכור",
      "text": "",
      "stayTimes": "13:00 - 13:30",
      "t_start": "2020-03-24T11:00:00",
      "t_end": "2020-03-24T11:30:00",
      "link": ""
    },
    {
      "id": 159218,
      "lat": 32.4888486,
      "lon": 34.9705568000001,
      "label": "סופר רמי לוי מתחם \"ביג\" - פרדס חנה-כרכור",
      "text": "",
      "stayTimes": "13:30 - 14:30",
      "t_start": "2020-03-24T11:30:00",
      "t_end": "2020-03-24T12:30:00",
      "link": ""
    },
    {
      "id": 159219,
      "lat": 32.5217420000001,
      "lon": 34.9420900000001,
      "label": "קופת חלוים כללית - בנימינה-גבעת עדה",
      "text": "",
      "stayTimes": "10:00 - 11:00",
      "t_start": "2020-03-26T08:00:00",
      "t_end": "2020-03-26T09:00:00",
      "link": ""
    },
    {
      "id": 159220,
      "lat": 32.1778493,
      "lon": 34.8031954000001,
      "label": "מדיקל סנטר הרצליה - הרצליה",
      "text": "",
      "stayTimes": "08:00 - 13:00",
      "t_start": "2020-03-22T06:00:00",
      "t_end": "2020-03-22T11:00:00",
      "link": ""
    },
    {
      "id": 159221,
      "lat": 31.7417380270001,
      "lon": 34.994899424,
      "label": "מרפאת כללית - בית שמש",
      "text": "",
      "stayTimes": "08:00 - 08:00",
      "t_start": "2020-03-24T06:00:00",
      "t_end": "2020-03-24T06:00:00",
      "link": ""
    },
    {
      "id": 159222,
      "lat": 32.0872753370001,
      "lon": 34.8304794740001,
      "label": "קופ\"ח לאומית - בני ברק",
      "text": "",
      "stayTimes": "10:30 - 11:30",
      "t_start": "2020-03-23T08:30:00",
      "t_end": "2020-03-23T09:30:00",
      "link": ""
    },
    {
      "id": 159223,
      "lat": 32.0828243,
      "lon": 34.8262474000001,
      "label": "סופר מרקט \" יש בשכונה\" - בני ברק",
      "text": "",
      "stayTimes": "12:00 - 12:30",
      "t_start": "2020-03-27T10:00:00",
      "t_end": "2020-03-27T10:30:00",
      "link": ""
    },
    {
      "id": 159224,
      "lat": 32.1937752000001,
      "lon": 34.9081955,
      "label": "מינימרקט דורון - גן חיים",
      "text": "",
      "stayTimes": "14:00 - 14:20",
      "t_start": "2020-03-25T12:00:00",
      "t_end": "2020-03-25T12:20:00",
      "link": ""
    },
    {
      "id": 159225,
      "lat": 32.1937752000001,
      "lon": 34.9081955,
      "label": "מינימרקט דורון - גן חיים",
      "text": "",
      "stayTimes": "16:00 - 17:00",
      "t_start": "2020-03-22T14:00:00",
      "t_end": "2020-03-22T15:00:00",
      "link": ""
    },
    {
      "id": 159226,
      "lat": 32.174426436,
      "lon": 34.9164132130001,
      "label": "בית מרקחת קופת חולים כללית - כפר סבא",
      "text": "",
      "stayTimes": "14:30 - 15:00",
      "t_start": "2020-03-24T12:30:00",
      "t_end": "2020-03-24T13:00:00",
      "link": ""
    },
    {
      "id": 159227,
      "lat": 32.1982224810001,
      "lon": 34.8903975490001,
      "label": "ויקטורי - כפר סבא",
      "text": "",
      "stayTimes": "15:00 - 15:30",
      "t_start": "2020-03-24T13:00:00",
      "t_end": "2020-03-24T13:30:00",
      "link": ""
    },
    {
      "id": 159228,
      "lat": 32.1018083000001,
      "lon": 34.8298623000001,
      "label": "רמי לוי - בני ברק",
      "text": "",
      "stayTimes": "13:00 - 14:00",
      "t_start": "2020-03-27T11:00:00",
      "t_end": "2020-03-27T12:00:00",
      "link": ""
    },
    {
      "id": 159229,
      "lat": 32.0859514000001,
      "lon": 34.8400424000001,
      "label": "בית כנסת ביאלא - בני ברק",
      "text": "",
      "stayTimes": "21:30 - 23:00",
      "t_start": "2020-03-24T19:30:00",
      "t_end": "2020-03-24T21:00:00",
      "link": ""
    },
    {
      "id": 159230,
      "lat": 32.0781428,
      "lon": 34.8297768,
      "label": "בית כנסת קהל חסידים - בני ברק",
      "text": "",
      "stayTimes": "09:30 - 10:45",
      "t_start": "2020-03-24T07:30:00",
      "t_end": "2020-03-24T08:45:00",
      "link": ""
    },
    {
      "id": 159231,
      "lat": 31.7974363000001,
      "lon": 35.2422844000001,
      "label": "הדסה הר הצופים - ירושלים",
      "text": "",
      "stayTimes": "15:00 - 23:00",
      "t_start": "2020-03-22T13:00:00",
      "t_end": "2020-03-22T21:00:00",
      "link": ""
    },
    {
      "id": 159232,
      "lat": 31.7974363000001,
      "lon": 35.2422844000001,
      "label": "הדסה הר הצופים - ירושלים",
      "text": "",
      "stayTimes": "23:00 - 07:00",
      "t_start": "2020-03-23T21:00:00",
      "t_end": "2020-03-24T05:00:00",
      "link": ""
    },
    {
      "id": 159233,
      "lat": 31.7974363000001,
      "lon": 35.2422844000001,
      "label": "הדסה הר הצופים - ירושלים",
      "text": "",
      "stayTimes": "07:00 - 15:00",
      "t_start": "2020-03-25T05:00:00",
      "t_end": "2020-03-25T13:00:00",
      "link": ""
    },
    {
      "id": 159234,
      "lat": 31.7974363000001,
      "lon": 35.2422844000001,
      "label": "הדסה הר הצופים - ירושלים",
      "text": "",
      "stayTimes": "23:00 - 07:00",
      "t_start": "2020-03-25T21:00:00",
      "t_end": "2020-03-26T05:00:00",
      "link": ""
    },
    {
      "id": 159235,
      "lat": 31.7886425,
      "lon": 35.2185716000001,
      "label": "קופת חולים מאוחדת סניף א-טור - ירושלים",
      "text": "",
      "stayTimes": "16:00 - 16:00",
      "t_start": "2020-03-26T14:00:00",
      "t_end": "2020-03-26T14:00:00",
      "link": ""
    },
    {
      "id": 159236,
      "lat": 32.6695708410001,
      "lon": 35.2374570850001,
      "label": "סופר \"אושר עד\" - מגדל העמק",
      "text": "",
      "stayTimes": "13:00 - 14:00",
      "t_start": "2020-03-25T11:00:00",
      "t_end": "2020-03-25T12:00:00",
      "link": ""
    },
    {
      "id": 159237,
      "lat": 31.7956468,
      "lon": 35.20027,
      "label": "בית כנסת חניכי הישיבות ברוממה - ירושלים",
      "text": "",
      "stayTimes": "08:00 - 20:30",
      "t_start": "2020-03-23T06:00:00",
      "t_end": "2020-03-23T18:30:00",
      "link": ""
    },
    {
      "id": 159238,
      "lat": 32.0258672000001,
      "lon": 34.8593382,
      "label": "סופר יש - אור יהודה",
      "text": "",
      "stayTimes": "18:00 - 18:30",
      "t_start": "2020-03-26T16:00:00",
      "t_end": "2020-03-26T16:30:00",
      "link": ""
    },
    {
      "id": 159239,
      "lat": 31.931375051,
      "lon": 35.0406274050001,
      "label": "מרפאת שיניים- ביודנט - מודיעין עילית",
      "text": "",
      "stayTimes": "11:30 - 18:00",
      "t_start": "2020-03-25T09:30:00",
      "t_end": "2020-03-25T16:00:00",
      "link": ""
    },
    {
      "id": 159240,
      "lat": 32.0911351,
      "lon": 34.8254639,
      "label": "חנות נעמן - בני ברק",
      "text": "",
      "stayTimes": "14:00 - 16:00",
      "t_start": "2020-03-22T12:00:00",
      "t_end": "2020-03-22T14:00:00",
      "link": ""
    },
    {
      "id": 159241,
      "lat": 32.086019515,
      "lon": 34.8319655490001,
      "label": "חנות חדפעמית - בני ברק",
      "text": "",
      "stayTimes": "17:00 - 18:00",
      "t_start": "2020-03-22T15:00:00",
      "t_end": "2020-03-22T16:00:00",
      "link": ""
    },
    {
      "id": 159242,
      "lat": 32.0860237000001,
      "lon": 34.8303992,
      "label": "מכבי מעבדה - בני ברק",
      "text": "",
      "stayTimes": "11:00 - 12:00",
      "t_start": "2020-03-24T09:00:00",
      "t_end": "2020-03-24T10:00:00",
      "link": ""
    },
    {
      "id": 159243,
      "lat": 32.0883273170001,
      "lon": 34.825256842,
      "label": "טיפת חלב הרצוג - בני ברק",
      "text": "",
      "stayTimes": "12:00 - 12:30",
      "t_start": "2020-03-27T10:00:00",
      "t_end": "2020-03-27T10:30:00",
      "link": ""
    },
    {
      "id": 159244,
      "lat": 32.7086484710001,
      "lon": 35.1729655870001,
      "label": "סופר האחים דוד - רמת ישי",
      "text": "",
      "stayTimes": "06:30 - 15:00",
      "t_start": "2020-03-24T04:30:00",
      "t_end": "2020-03-24T13:00:00",
      "link": ""
    },
    {
      "id": 159245,
      "lat": 32.7087613160001,
      "lon": 35.172962904,
      "label": "סופר האחים דוד - רמת ישי",
      "text": "",
      "stayTimes": "06:00 - 14:30",
      "t_start": "2020-03-25T04:00:00",
      "t_end": "2020-03-25T12:30:00",
      "link": ""
    },
    {
      "id": 159246,
      "lat": 32.707768281,
      "lon": 35.173746109,
      "label": "סופר אחים דוד - רמת ישי",
      "text": "",
      "stayTimes": "06:00 - 15:00",
      "t_start": "2020-03-26T04:00:00",
      "t_end": "2020-03-26T13:00:00",
      "link": ""
    },
    {
      "id": 159247,
      "lat": 32.7078946680001,
      "lon": 35.173445702,
      "label": "סופר האחים דוד - רמת ישי",
      "text": "",
      "stayTimes": "06:00 - 15:43",
      "t_start": "2020-03-29T04:00:00",
      "t_end": "2020-03-29T13:43:00",
      "link": ""
    },
    {
      "id": 159248,
      "lat": 32.708734233,
      "lon": 35.172954857,
      "label": "סופר האחים דוד - רמת ישי",
      "text": "",
      "stayTimes": "13:30 - 18:00",
      "t_start": "2020-03-30T11:30:00",
      "t_end": "2020-03-30T16:00:00",
      "link": ""
    },
    {
      "id": 159249,
      "lat": 31.755914444,
      "lon": 34.990648364,
      "label": "סופר פארם- ביג פשן - בית שמש",
      "text": "",
      "stayTimes": "16:15 - 16:45",
      "t_start": "2020-03-26T14:15:00",
      "t_end": "2020-03-26T14:45:00",
      "link": ""
    },
    {
      "id": 159250,
      "lat": 31.7890354,
      "lon": 34.6644925000001,
      "label": "מכבי פארם ,רובע ז, מרכזון רשבי , אשדוד בין השעות 11:00-11:15 - אשדוד",
      "text": "",
      "stayTimes": "08:00 - 08:00",
      "t_start": "2020-03-29T06:00:00",
      "t_end": "2020-03-29T06:00:00",
      "link": ""
    },
    {
      "id": 159251,
      "lat": 32.6694963310001,
      "lon": 35.2375214580001,
      "label": "אושר עד מגדל העמק - מגדל העמק",
      "text": "",
      "stayTimes": "19:00 - 20:30",
      "t_start": "2020-03-22T17:00:00",
      "t_end": "2020-03-22T18:30:00",
      "link": ""
    },
    {
      "id": 159252,
      "lat": 32.6694850420001,
      "lon": 35.2374973180001,
      "label": "אושר עד מגדל העמק - מגדל העמק",
      "text": "",
      "stayTimes": "14:35 - 15:30",
      "t_start": "2020-03-25T12:35:00",
      "t_end": "2020-03-25T13:30:00",
      "link": ""
    },
    {
      "id": 159253,
      "lat": 32.6782684,
      "lon": 35.2433929000001,
      "label": "שופרסל פרץ סנטר מגדל העמק - מגדל העמק",
      "text": "",
      "stayTimes": "13:30 - 14:30",
      "t_start": "2020-03-27T11:30:00",
      "t_end": "2020-03-27T12:30:00",
      "link": ""
    },
    {
      "id": 159254,
      "lat": 32.0891567,
      "lon": 34.8668668,
      "label": "בית חולים בלינסון - פתח תקווה",
      "text": "",
      "stayTimes": "04:00 - 07:00",
      "t_start": "2020-03-29T02:00:00",
      "t_end": "2020-03-29T05:00:00",
      "link": ""
    },
    {
      "id": 159255,
      "lat": 32.0327898580001,
      "lon": 34.8510575890001,
      "label": "יוחננוף - אור יהודה",
      "text": "",
      "stayTimes": "07:00 - 07:30",
      "t_start": "2020-03-27T05:00:00",
      "t_end": "2020-03-27T05:30:00",
      "link": ""
    },
    {
      "id": 159256,
      "lat": 31.8024214870001,
      "lon": 35.2144298580001,
      "label": "ביה\"ס שירת דבורה - ירושלים",
      "text": "",
      "stayTimes": "11:00 - 11:30",
      "t_start": "2020-03-22T09:00:00",
      "t_end": "2020-03-22T09:30:00",
      "link": ""
    },
    {
      "id": 159257,
      "lat": 31.8619365000001,
      "lon": 34.8174799,
      "label": "ACE חנות בבילו סנטר - קרית עקרון",
      "text": "",
      "stayTimes": "18:00 - 18:30",
      "t_start": "2020-03-22T16:00:00",
      "t_end": "2020-03-22T16:30:00",
      "link": ""
    },
    {
      "id": 159258,
      "lat": 31.861232,
      "lon": 34.817667,
      "label": "שופרסל  בילו סנטר - קרית עקרון",
      "text": "",
      "stayTimes": "18:30 - 19:00",
      "t_start": "2020-03-22T16:30:00",
      "t_end": "2020-03-22T17:00:00",
      "link": ""
    },
    {
      "id": 159259,
      "lat": 31.8624219000001,
      "lon": 34.8179781000001,
      "label": "חנות BUG בילו סנטר - קרית עקרון",
      "text": "",
      "stayTimes": "19:00 - 19:15",
      "t_start": "2020-03-22T17:00:00",
      "t_end": "2020-03-22T17:15:00",
      "link": ""
    },
    {
      "id": 159260,
      "lat": 32.1581507000001,
      "lon": 34.8947393,
      "label": "דואר ישראל - הוד השרון",
      "text": "",
      "stayTimes": "12:00 - 12:30",
      "t_start": "2020-03-25T10:00:00",
      "t_end": "2020-03-25T10:30:00",
      "link": ""
    },
    {
      "id": 159261,
      "lat": 32.132119,
      "lon": 34.9019260000001,
      "label": "חצי חינם - הוד השרון",
      "text": "",
      "stayTimes": "10:30 - 11:30",
      "t_start": "2020-03-25T08:30:00",
      "t_end": "2020-03-25T09:30:00",
      "link": ""
    },
    {
      "id": 159262,
      "lat": 32.0878644000001,
      "lon": 34.8597884000001,
      "label": "שופרסל - פתח תקווה",
      "text": "",
      "stayTimes": "09:00 - 10:00",
      "t_start": "2020-03-25T07:00:00",
      "t_end": "2020-03-25T08:00:00",
      "link": ""
    },
    {
      "id": 159263,
      "lat": 31.7511262,
      "lon": 35.2154249000001,
      "label": "סופר רמי לוי  בביתר - ירושלים",
      "text": "",
      "stayTimes": "08:00 - 09:00",
      "t_start": "2020-03-22T06:00:00",
      "t_end": "2020-03-22T07:00:00",
      "link": ""
    },
    {
      "id": 159264,
      "lat": 32.0786915,
      "lon": 34.8367749000001,
      "label": "בית כנסת לדרמן הרב קנבסקי - בני ברק",
      "text": "",
      "stayTimes": "15:00 - 16:15",
      "t_start": "2020-03-23T13:00:00",
      "t_end": "2020-03-23T14:15:00",
      "link": ""
    },
    {
      "id": 159265,
      "lat": 31.7886091,
      "lon": 35.1983191,
      "label": "עמותת אבוקת אור - ירושלים",
      "text": "",
      "stayTimes": "14:30 - 21:00",
      "t_start": "2020-03-23T12:30:00",
      "t_end": "2020-03-23T19:00:00",
      "link": ""
    },
    {
      "id": 159266,
      "lat": 31.7529554000001,
      "lon": 35.1944554,
      "label": "בית כנסת \"היכל יעקב\" - ירושלים",
      "text": "",
      "stayTimes": "17:30 - 18:30",
      "t_start": "2020-03-22T15:30:00",
      "t_end": "2020-03-22T16:30:00",
      "link": ""
    },
    {
      "id": 159267,
      "lat": 32.0845015290001,
      "lon": 34.829780268,
      "label": "בית הכנסת ביילא - בני ברק",
      "text": "",
      "stayTimes": "10:00 - 11:00",
      "t_start": "2020-03-24T08:00:00",
      "t_end": "2020-03-24T09:00:00",
      "link": ""
    },
    {
      "id": 159268,
      "lat": 32.1058370000001,
      "lon": 34.8923941,
      "label": "אושר עד - פתח תקווה",
      "text": "",
      "stayTimes": "16:00 - 17:30",
      "t_start": "2020-03-26T14:00:00",
      "t_end": "2020-03-26T15:30:00",
      "link": ""
    },
    {
      "id": 159269,
      "lat": 32.0852239070001,
      "lon": 34.830405565,
      "label": "בית הכנסת מבעלזא - בני ברק",
      "text": "",
      "stayTimes": "17:00 - 17:30",
      "t_start": "2020-03-28T15:00:00",
      "t_end": "2020-03-28T15:30:00",
      "link": ""
    },
    {
      "id": 159270,
      "lat": 32.0864751140001,
      "lon": 34.8295650480001,
      "label": "פעמית סטור - בני ברק",
      "text": "",
      "stayTimes": "15:00 - 16:00",
      "t_start": "2020-03-22T13:00:00",
      "t_end": "2020-03-22T14:00:00",
      "link": ""
    },
    {
      "id": 159271,
      "lat": 32.1122558000001,
      "lon": 34.7959133000001,
      "label": "קניון רמת אביב - תל אביב - יפו",
      "text": "",
      "stayTimes": "15:00 - 23:00",
      "t_start": "2020-03-24T13:00:00",
      "t_end": "2020-03-23T21:00:00",
      "link": ""
    },
    {
      "id": 159272,
      "lat": 32.1122558000001,
      "lon": 34.7959133000001,
      "label": "קניון רמת אביב - תל אביב - יפו",
      "text": "",
      "stayTimes": "14:00 - 15:30",
      "t_start": "2020-03-25T12:00:00",
      "t_end": "2020-03-25T13:30:00",
      "link": ""
    },
    {
      "id": 159273,
      "lat": 32.0900940000001,
      "lon": 34.8282610000001,
      "label": "ישיבה סלבודקה - בני ברק",
      "text": "",
      "stayTimes": "08:00 - 08:00",
      "t_start": "2020-04-21T06:00:00",
      "t_end": "2020-03-23T06:00:00",
      "link": ""
    },
    {
      "id": 159274,
      "lat": 32.060191,
      "lon": 34.816158,
      "label": "מאפיית האחים - גבעתיים",
      "text": "",
      "stayTimes": "07:00 - 08:00",
      "t_start": "2020-03-27T05:00:00",
      "t_end": "2020-03-27T06:00:00",
      "link": ""
    },
    {
      "id": 159275,
      "lat": 32.0605559750001,
      "lon": 34.8161564060001,
      "label": "חוות נעמי - חנות גבינות - גבעתיים",
      "text": "",
      "stayTimes": "08:00 - 09:00",
      "t_start": "2020-03-27T06:00:00",
      "t_end": "2020-03-27T07:00:00",
      "link": ""
    },
    {
      "id": 159276,
      "lat": 31.932267546,
      "lon": 35.0421592930001,
      "label": "בית כנסת קהל חסידים שכונת נאות הפסגה - מודיעין עילית",
      "text": "",
      "stayTimes": "09:15 - 10:40",
      "t_start": "2020-03-25T07:15:00",
      "t_end": "2020-03-25T08:40:00",
      "link": ""
    },
    {
      "id": 159277,
      "lat": 31.9277091000001,
      "lon": 35.0472917000001,
      "label": "בית כנסת המרכז נאות הפסגה - מודיעין עילית",
      "text": "",
      "stayTimes": "13:15 - 14:30",
      "t_start": "2020-03-25T11:15:00",
      "t_end": "2020-03-25T12:30:00",
      "link": ""
    },
    {
      "id": 159278,
      "lat": 31.7811218000001,
      "lon": 35.2198881,
      "label": "בית כנסת קהל חסידים נאות הפסגה - מודיעין עילית",
      "text": "",
      "stayTimes": "09:15 - 10:45",
      "t_start": "2020-03-26T07:15:00",
      "t_end": "2020-03-26T08:45:00",
      "link": ""
    },
    {
      "id": 159279,
      "lat": 32.0871682220001,
      "lon": 34.837182522,
      "label": "בית ספר תלמוד תורה קרולין - בני ברק",
      "text": "",
      "stayTimes": "08:30 - 12:15",
      "t_start": "2020-03-24T06:30:00",
      "t_end": "2020-03-24T10:15:00",
      "link": ""
    },
    {
      "id": 159280,
      "lat": 32.087409559,
      "lon": 34.837251162,
      "label": "בית ספר תלמוד תורה קרולין - בני ברק",
      "text": "",
      "stayTimes": "08:30 - 12:15",
      "t_start": "2020-03-25T06:30:00",
      "t_end": "2020-03-25T10:15:00",
      "link": ""
    },
    {
      "id": 159281,
      "lat": 32.087474205,
      "lon": 34.8368927860001,
      "label": "בית ספר תלמוד תורה קרולין - בני ברק",
      "text": "",
      "stayTimes": "08:30 - 12:15",
      "t_start": "2020-03-26T06:30:00",
      "t_end": "2020-03-26T10:15:00",
      "link": ""
    },
    {
      "id": 159282,
      "lat": 31.7278229,
      "lon": 34.7541390000001,
      "label": "רמי לוי - קרית מלאכי",
      "text": "",
      "stayTimes": "19:30 - 20:30",
      "t_start": "2020-03-24T17:30:00",
      "t_end": "2020-03-24T18:30:00",
      "link": ""
    },
    {
      "id": 159283,
      "lat": 31.7266667000001,
      "lon": 34.7450000000001,
      "label": "חנות ויקטורי - קרית מלאכי",
      "text": "",
      "stayTimes": "18:00 - 19:30",
      "t_start": "2020-03-24T16:00:00",
      "t_end": "2020-03-24T17:30:00",
      "link": ""
    },
    {
      "id": 159284,
      "lat": 32.146410071,
      "lon": 34.804152049,
      "label": "שופר סל צומת גלילות - רמת השרון",
      "text": "",
      "stayTimes": "07:00 - 18:00",
      "t_start": "2020-03-23T05:00:00",
      "t_end": "2020-03-23T16:00:00",
      "link": ""
    },
    {
      "id": 159285,
      "lat": 32.6210762000001,
      "lon": 35.3165964,
      "label": "פנימית ג' העמק עפולה - עפולה",
      "text": "",
      "stayTimes": "16:30 - 17:00",
      "t_start": "2020-03-29T14:30:00",
      "t_end": "2020-03-29T15:00:00",
      "link": ""
    },
    {
      "id": 159286,
      "lat": 32.6119453750001,
      "lon": 35.2901433270001,
      "label": "קופת כללית עומר - עפולה",
      "text": "",
      "stayTimes": "08:10 - 08:15",
      "t_start": "2020-03-29T06:10:00",
      "t_end": "2020-03-29T06:15:00",
      "link": ""
    },