[
    {
        "lat": 32.33194,
        "lon": 34.851522,
        "label": "מלון מגדל דוד",
        "text": "9 תיירים מדרום קוריאה",
        "pat_num": "",
        "t_start": "2020-02-08T20:20:00+02:00",
        "t_end": "2020-02-08T23:59:00+02:00",
        "pub_date": "23/02",
        "pub_ts": 1582408800,
        "link": "https://www.health.gov.il/NewsAndEvents/SpokemanMesseges/Pages/23022020_1.aspx"
    },
    {
        "lat": 32.33194,
        "lon": 34.851522,
        "label": "מלון מגדל דוד",
        "text": "9 תיירים מדרום קוריאה",
        "pat_num": "",
        "t_start": "2020-02-09T00:00:00+02:00",
        "t_end": "2020-02-09T09:00:00+02:00",
        "pub_date": "23/02",
        "pub_ts": 1582408800,
        "link": "https://www.health.gov.il/NewsAndEvents/SpokemanMesseges/Pages/23022020_1.aspx"
    },
    {
        "lat": 32.501199,
        "lon": 34.892315,
        "label": "גן לאומי קיסריה",
        "text": "9 תיירים מדרום קוריאה",
        "pat_num": "",
        "t_start": "2020-02-09T07:00:00+02:00",
        "t_end": "2020-02-09T09:11:00+02:00",
        "pub_date": "23/02",
        "pub_ts": 1582408800,
        "link": "https://www.health.gov.il/NewsAndEvents/SpokemanMesseges/Pages/23022020_1.aspx"
    },
    {
        "lat": 32.708649,
        "lon": 35.297008,
        "label": "מלון גבריאל",
        "text": "9 תיירים מדרום קוריאה",
        "pat_num": "",
        "t_start": "2020-02-09T11:00:00+02:00",
        "t_end": "2020-02-09T15:00:00+02:00",
        "pub_date": "23/02",
        "pub_ts": 1582408800,
        "link": "https://www.health.gov.il/NewsAndEvents/SpokemanMesseges/Pages/23022020_1.aspx"
    },
    {
        "lat": 32.702367,
        "lon": 35.297376,
        "label": "כנסיית הבשורה",
        "text": "9 תיירים מדרום קוריאה",
        "pat_num": "",
        "t_start": "2020-02-09T12:00:00+02:00",
        "t_end": "2020-02-09T20:00:00+02:00",
        "pub_date": "23/02",
        "pub_ts": 1582408800,
        "link": "https://www.health.gov.il/NewsAndEvents/SpokemanMesseges/Pages/23022020_1.aspx"
    },
    {
        "lat": 32.705169,
        "lon": 35.310839,
        "label": "כניסת המשפחה הקדושה",
        "text": "9 תיירים מדרום קוריאה",
        "pat_num": "",
        "t_start": "2020-02-09T12:00:00+02:00",
        "t_end": "2020-02-09T20:00:00+02:00",
        "pub_date": "23/02",
        "pub_ts": 1582408800,
        "link": "https://www.health.gov.il/NewsAndEvents/SpokemanMesseges/Pages/23022020_1.aspx"
    },
    {
        "lat": 32.771856,
        "lon": 35.638675,
        "label": "עין גב כפר הנופש",
        "text": "9 תיירים מדרום קוריאה",
        "pat_num": "",
        "t_start": "2020-02-09T18:00:00+02:00",
        "t_end": "2020-02-09T23:59:00+02:00",
        "pub_date": "23/02",
        "pub_ts": 1582408800,
        "link": "https://www.health.gov.il/NewsAndEvents/SpokemanMesseges/Pages/23022020_1.aspx"
    },
    {
        "lat": 32.771856,
        "lon": 35.638675,
        "label": "עין גב כפר הנופש",
        "text": "9 תיירים מדרום קוריאה",
        "pat_num": "",
        "t_start": "2020-02-10T00:00:00+02:00",
        "t_end": "2020-02-10T10:00:00+02:00",
        "pub_date": "23/02",
        "pub_ts": 1582408800,
        "link": "https://www.health.gov.il/NewsAndEvents/SpokemanMesseges/Pages/23022020_1.aspx"
    },
    {
        "lat": 32.871999,
        "lon": 35.550409,
        "label": "כנסיית הבכורה של פטרוס",
        "text": "9 תיירים מדרום קוריאה",
        "pat_num": "",
        "t_start": "2020-02-10T07:00:00+02:00",
        "t_end": "2020-02-10T15:00:00+02:00",
        "pub_date": "23/02",
        "pub_ts": 1582408800,
        "link": "https://www.health.gov.il/NewsAndEvents/SpokemanMesseges/Pages/23022020_1.aspx"
    },
    {
        "lat": 32.843234,
        "lon": 35.50956,
        "label": "מסעדת תנורין",
        "text": "9 תיירים מדרום קוריאה",
        "pat_num": "",
        "t_start": "2020-02-10T12:00:00+02:00",
        "t_end": "2020-02-10T16:00:00+02:00",
        "pub_date": "23/02",
        "pub_ts": 1582408800,
        "link": "https://www.health.gov.il/NewsAndEvents/SpokemanMesseges/Pages/23022020_1.aspx"
    },
    {
        "lat": 32.882419,
        "lon": 35.573693,
        "label": "כפר נחום",
        "text": "9 תיירים מדרום קוריאה",
        "pat_num": "",
        "t_start": "2020-02-10T13:00:00+02:00",
        "t_end": "2020-02-10T20:00:00+02:00",
        "pub_date": "23/02",
        "pub_ts": 1582408800,
        "link": "https://www.health.gov.il/NewsAndEvents/SpokemanMesseges/Pages/23022020_1.aspx"
    },
    {
        "lat": 32.867782,
        "lon": 35.525478,
        "label": "כנרת - שייט בספינה",
        "text": "9 תיירים מדרום קוריאה",
        "pat_num": "",
        "t_start": "2020-02-10T13:00:00+02:00",
        "t_end": "2020-02-10T20:00:00+02:00",
        "pub_date": "23/02",
        "pub_ts": 1582408800,
        "link": "https://www.health.gov.il/NewsAndEvents/SpokemanMesseges/Pages/23022020_1.aspx"
    },
    {
        "lat": 32.767652,
        "lon": 35.63934,
        "label": "עין גב כפר הנופש",
        "text": "9 תיירים מדרום קוריאה",
        "pat_num": "",
        "t_start": "2020-02-10T20:00:00+02:00",
        "t_end": "2020-02-10T23:59:00+02:00",
        "pub_date": "23/02",
        "pub_ts": 1582408800,
        "link": "https://www.health.gov.il/NewsAndEvents/SpokemanMesseges/Pages/23022020_1.aspx"
    },
    {
        "lat": 32.767652,
        "lon": 35.63934,
        "label": "עין גב כפר הנופש",
        "text": "9 תיירים מדרום קוריאה",
        "pat_num": "",
        "t_start": "2020-02-11T00:00:00+02:00",
        "t_end": "2020-02-11T10:00:00+02:00",
        "pub_date": "23/02",
        "pub_ts": 1582408800,
        "link": "https://www.health.gov.il/NewsAndEvents/SpokemanMesseges/Pages/23022020_1.aspx"
    },
    {
        "lat": 32.226773,
        "lon": 35.26227,
        "label": "שכם",
        "text": "9 תיירים מדרום קוריאה",
        "pat_num": "",
        "t_start": "2020-02-11T10:00:00+02:00",
        "t_end": "2020-02-11T20:00:00+02:00",
        "pub_date": "23/02",
        "pub_ts": 1582408800,
        "link": "https://www.health.gov.il/NewsAndEvents/SpokemanMesseges/Pages/23022020_1.aspx"
    },
    {
        "lat": 31.865153,
        "lon": 35.462018,
        "label": "יריחו",
        "text": "9 תיירים מדרום קוריאה",
        "pat_num": "",
        "t_start": "2020-02-11T10:00:00+02:00",
        "t_end": "2020-02-11T20:00:00+02:00",
        "pub_date": "23/02",
        "pub_ts": 1582408800,
        "link": "https://www.health.gov.il/NewsAndEvents/SpokemanMesseges/Pages/23022020_1.aspx"
    },
    {
        "lat": 31.202813,
        "lon": 35.361363,
        "label": "מלון דוד ים המלח",
        "text": "9 תיירים מדרום קוריאה",
        "pat_num": "",
        "t_start": "2020-02-11T00:00:00+02:00",
        "t_end": "2020-02-11T23:59:00+02:00",
        "pub_date": "23/02",
        "pub_ts": 1582408800,
        "link": "https://www.health.gov.il/NewsAndEvents/SpokemanMesseges/Pages/23022020_1.aspx"
    },
    {
        "lat": 31.202813,
        "lon": 35.361363,
        "label": "מלון דוד ים המלח",
        "text": "9 תיירים מדרום קוריאה",
        "pat_num": "",
        "t_start": "2020-02-12T00:00:00+02:00",
        "t_end": "2020-02-12T10:00:00+02:00",
        "pub_date": "23/02",
        "pub_ts": 1582408800,
        "link": "https://www.health.gov.il/NewsAndEvents/SpokemanMesseges/Pages/23022020_1.aspx"
    },
    {
        "lat": 31.312016,
        "lon": 35.363052,
        "label": "מצדה",
        "text": "9 תיירים מדרום קוריאה",
        "pat_num": "",
        "t_start": "2020-02-12T06:00:00+02:00",
        "t_end": "2020-02-12T14:00:00+02:00",
        "pub_date": "23/02",
        "pub_ts": 1582408800,
        "link": "https://www.health.gov.il/NewsAndEvents/SpokemanMesseges/Pages/23022020_1.aspx"
    },
    {
        "lat": 29.78832,
        "lon": 35.003072,
        "label": "פארק תמנע",
        "text": "9 תיירים מדרום קוריאה",
        "pat_num": "",
        "t_start": "2020-02-12T08:00:00+02:00",
        "t_end": "2020-02-12T14:00:00+02:00",
        "pub_date": "23/02",
        "pub_ts": 1582408800,
        "link": "https://www.health.gov.il/NewsAndEvents/SpokemanMesseges/Pages/23022020_1.aspx"
    },
    {
        "lat": 31.247751,
        "lon": 34.801126,
        "label": "מלון לאונרדו נגב",
        "text": "9 תיירים מדרום קוריאה",
        "pat_num": "",
        "t_start": "2020-02-12T00:00:00+02:00",
        "t_end": "2020-02-12T23:59:00+02:00",
        "pub_date": "23/02",
        "pub_ts": 1582408800,
        "link": "https://www.health.gov.il/NewsAndEvents/SpokemanMesseges/Pages/23022020_1.aspx"
    },
    {
        "lat": 31.247751,
        "lon": 34.801126,
        "label": "מלון לאונרדו נגב",
        "text": "9 תיירים מדרום קוריאה",
        "pat_num": "",
        "t_start": "2020-02-13T00:00:00+02:00",
        "t_end": "2020-02-13T10:00:00+02:00",
        "pub_date": "23/02",
        "pub_ts": 1582408800,
        "link": "https://www.health.gov.il/NewsAndEvents/SpokemanMesseges/Pages/23022020_1.aspx"
    },
    {
        "lat": 31.246155,
        "lon": 34.841115,
        "label": "הפארק הלאומי בבאר שבע",
        "text": "9 תיירים מדרום קוריאה",
        "pat_num": "",
        "t_start": "2020-02-13T08:00:00+02:00",
        "t_end": "2020-02-13T09:30:00+02:00",
        "pub_date": "23/02",
        "pub_ts": 1582408800,
        "link": "https://www.health.gov.il/NewsAndEvents/SpokemanMesseges/Pages/23022020_1.aspx"
    },
    {
        "lat": 31.704532,
        "lon": 35.207497,
        "label": "כנסיית המולד",
        "text": "9 תיירים מדרום קוריאה",
        "pat_num": "",
        "t_start": "2020-02-13T10:30:00+02:00",
        "t_end": "2020-02-13T20:00:00+02:00",
        "pub_date": "23/02",
        "pub_ts": 1582408800,
        "link": "https://www.health.gov.il/NewsAndEvents/SpokemanMesseges/Pages/23022020_1.aspx"
    },
    {
        "lat": 31.707613,
        "lon": 35.230017,
        "label": "כנסיית שדה הרועים",
        "text": "9 תיירים מדרום קוריאה",
        "pat_num": "",
        "t_start": "2020-02-13T10:30:00+02:00",
        "t_end": "2020-02-13T20:00:00+02:00",
        "pub_date": "23/02",
        "pub_ts": 1582408800,
        "link": "https://www.health.gov.il/NewsAndEvents/SpokemanMesseges/Pages/23022020_1.aspx"
    },
    {
        "lat": 31.7046176,
        "lon": 35.2077341,
        "label": "כנסיית סנט קטרינה",
        "text": "9 תיירים מדרום קוריאה",
        "pat_num": "",
        "t_start": "2020-02-13T10:30:00+02:00",
        "t_end": "2020-02-13T20:00:00+02:00",
        "pub_date": "23/02",
        "pub_ts": 1582408800,
        "link": "https://www.health.gov.il/NewsAndEvents/SpokemanMesseges/Pages/23022020_1.aspx"
    },
    {
        "lat": 31.704532,
        "lon": 35.207497,
        "label": "מערת סנט ג'רום (בתוך כנסיית המולד)",
        "text": "9 תיירים מדרום קוריאה",
        "pat_num": "",
        "t_start": "2020-02-13T10:30:00+02:00",
        "t_end": "2020-02-13T20:00:00+02:00",
        "pub_date": "23/02",
        "pub_ts": 1582408800,
        "link": "https://www.health.gov.il/NewsAndEvents/SpokemanMesseges/Pages/23022020_1.aspx"
    },
    {
        "lat": 31.789627,
        "lon": 35.227216,
        "label": "מלון גרנד קורט",
        "text": "9 תיירים מדרום קוריאה",
        "pat_num": "",
        "t_start": "2020-02-13T20:00:00+02:00",
        "t_end": "2020-02-13T23:59:00+02:00",
        "pub_date": "23/02",
        "pub_ts": 1582408800,
        "link": "https://www.health.gov.il/NewsAndEvents/SpokemanMesseges/Pages/23022020_1.aspx"
    },
    {
        "lat": 31.789627,
        "lon": 35.227216,
        "label": "מלון גרנד קורט",
        "text": "9 תיירים מדרום קוריאה",
        "pat_num": "",
        "t_start": "2020-02-14T00:00:00+02:00",
        "t_end": "2020-02-14T10:00:00+02:00",
        "pub_date": "23/02",
        "pub_ts": 1582408800,
        "link": "https://www.health.gov.il/NewsAndEvents/SpokemanMesseges/Pages/23022020_1.aspx"
    },
    {
        "lat": 31.778733,
        "lon": 35.245956,
        "label": "ביקור בהר הזיתים",
        "text": "9 תיירים מדרום קוריאה",
        "pat_num": "",
        "t_start": "2020-02-14T10:00:00+02:00",
        "t_end": "2020-02-14T14:00:00+02:00",
        "pub_date": "23/02",
        "pub_ts": 1582408800,
        "link": "https://www.health.gov.il/NewsAndEvents/SpokemanMesseges/Pages/23022020_1.aspx"
    },
    {
        "lat": 31.779216,
        "lon": 35.245031,
        "label": "כנסיית העלייה",
        "text": "9 תיירים מדרום קוריאה",
        "pat_num": "",
        "t_start": "2020-02-14T10:00:00+02:00",
        "t_end": "2020-02-14T14:00:00+02:00",
        "pub_date": "23/02",
        "pub_ts": 1582408800,
        "link": "https://www.health.gov.il/NewsAndEvents/SpokemanMesseges/Pages/23022020_1.aspx"
    },
    {
        "lat": 31.777475,
        "lon": 35.250745,
        "label": "בית פגי (כנסייה)",
        "text": "9 תיירים מדרום קוריאה",
        "pat_num": "",
        "t_start": "2020-02-14T10:00:00+02:00",
        "t_end": "2020-02-14T14:00:00+02:00",
        "pub_date": "23/02",
        "pub_ts": 1582408800,
        "link": "https://www.health.gov.il/NewsAndEvents/SpokemanMesseges/Pages/23022020_1.aspx"
    },
    {
        "lat": 31.732126,
        "lon": 35.203915,
        "label": "מסעדת שנגחאי",
        "text": "9 תיירים מדרום קוריאה",
        "pat_num": "",
        "t_start": "2020-02-14T12:00:00+02:00",
        "t_end": "2020-02-14T15:00:00+02:00",
        "pub_date": "23/02",
        "pub_ts": 1582408800,
        "link": "https://www.health.gov.il/NewsAndEvents/SpokemanMesseges/Pages/23022020_1.aspx"
    },
    {
        "lat": 31.778342,
        "lon": 35.245179,
        "label": "כנסיית פאטר נוסטר (אבינו שבשמיים)",
        "text": "9 תיירים מדרום קוריאה",
        "pat_num": "",
        "t_start": "2020-02-14T13:00:00+02:00",
        "t_end": "2020-02-14T20:00:00+02:00",
        "pub_date": "23/02",
        "pub_ts": 1582408800,
        "link": "https://www.health.gov.il/NewsAndEvents/SpokemanMesseges/Pages/23022020_1.aspx"
    },
    {
        "lat": 31.779465,
        "lon": 35.239791,
        "label": "כנסיית גת שמנים",
        "text": "9 תיירים מדרום קוריאה",
        "pat_num": "",
        "t_start": "2020-02-14T13:00:00+02:00",
        "t_end": "2020-02-14T20:00:00+02:00",
        "pub_date": "23/02",
        "pub_ts": 1582408800,
        "link": "https://www.health.gov.il/NewsAndEvents/SpokemanMesseges/Pages/23022020_1.aspx"
    },
    {
        "lat": 31.771154,
        "lon": 35.228458,
        "label": "הר ציון",
        "text": "9 תיירים מדרום קוריאה",
        "pat_num": "",
        "t_start": "2020-02-14T13:00:00+02:00",
        "t_end": "2020-02-14T20:00:00+02:00",
        "pub_date": "23/02",
        "pub_ts": 1582408800,
        "link": "https://www.health.gov.il/NewsAndEvents/SpokemanMesseges/Pages/23022020_1.aspx"
    },
    {
        "lat": 31.772035,
        "lon": 35.229292,
        "label": "חדר הסעודה האחרונה",
        "text": "9 תיירים מדרום קוריאה",
        "pat_num": "",
        "t_start": "2020-02-14T13:00:00+02:00",
        "t_end": "2020-02-14T20:00:00+02:00",
        "pub_date": "23/02",
        "pub_ts": 1582408800,
        "link": "https://www.health.gov.il/NewsAndEvents/SpokemanMesseges/Pages/23022020_1.aspx"
    },
    {
        "lat": 31.780349,
        "lon": 35.239406,
        "label": "קבר מרים",
        "text": "9 תיירים מדרום קוריאה",
        "pat_num": "",
        "t_start": "2020-02-14T13:00:00+02:00",
        "t_end": "2020-02-14T20:00:00+02:00",
        "pub_date": "23/02",
        "pub_ts": 1582408800,
        "link": "https://www.health.gov.il/NewsAndEvents/SpokemanMesseges/Pages/23022020_1.aspx"
    },
    {
        "lat": 31.771525,
        "lon": 35.232122,
        "label": "כנסיית פטרוס אין גליקנטו",
        "text": "9 תיירים מדרום קוריאה",
        "pat_num": "",
        "t_start": "2020-02-14T13:00:00+02:00",
        "t_end": "2020-02-14T20:00:00+02:00",
        "pub_date": "23/02",
        "pub_ts": 1582408800,
        "link": "https://www.health.gov.il/NewsAndEvents/SpokemanMesseges/Pages/23022020_1.aspx"
    },
    {
        "lat": 31.789627,
        "lon": 35.227205,
        "label": "מלון גרנט קורט",
        "text": "9 תיירים מדרום קוריאה",
        "pat_num": "",
        "t_start": "2020-02-14T18:00:00+02:00",
        "t_end": "2020-02-14T23:59:00+02:00",
        "pub_date": "23/02",
        "pub_ts": 1582408800,
        "link": "https://www.health.gov.il/NewsAndEvents/SpokemanMesseges/Pages/23022020_1.aspx"
    },
    {
        "lat": 31.789627,
        "lon": 35.227205,
        "label": "מלון גרנט קורט",
        "text": "9 תיירים מדרום קוריאה",
        "pat_num": "",
        "t_start": "2020-02-15T00:00:00+02:00",
        "t_end": "2020-02-15T10:00:00+02:00",
        "pub_date": "23/02",
        "pub_ts": 1582408800,
        "link": "https://www.health.gov.il/NewsAndEvents/SpokemanMesseges/Pages/23022020_1.aspx"
    },
    {
        "lat": 31.767587,
        "lon": 35.162287,
        "label": "עין כרם",
        "text": "9 תיירים מדרום קוריאה",
        "pat_num": "",
        "t_start": "2020-02-15T10:00:00+02:00",
        "t_end": "2020-02-15T20:00:00+02:00",
        "pub_date": "23/02",
        "pub_ts": 1582408800,
        "link": "https://www.health.gov.il/NewsAndEvents/SpokemanMesseges/Pages/23022020_1.aspx"
    },
    {
        "lat": 31.777309,
        "lon": 35.229695,
        "label": "כנסיית יוחנן המטביל",
        "text": "9 תיירים מדרום קוריאה",
        "pat_num": "",
        "t_start": "2020-02-15T10:00:00+02:00",
        "t_end": "2020-02-15T20:00:00+02:00",
        "pub_date": "23/02",
        "pub_ts": 1582408800,
        "link": "https://www.health.gov.il/NewsAndEvents/SpokemanMesseges/Pages/23022020_1.aspx"
    },
    {
        "lat": 31.764796,
        "lon": 35.15794,
        "label": "כנסיית הביקור",
        "text": "9 תיירים מדרום קוריאה",
        "pat_num": "",
        "t_start": "2020-02-15T10:00:00+02:00",
        "t_end": "2020-02-15T20:00:00+02:00",
        "pub_date": "23/02",
        "pub_ts": 1582408800,
        "link": "https://www.health.gov.il/NewsAndEvents/SpokemanMesseges/Pages/23022020_1.aspx"
    },
    {
        "lat": 31.781189,
        "lon": 35.236084,
        "label": "כנסית אן הקדושה",
        "text": "9 תיירים מדרום קוריאה",
        "pat_num": "",
        "t_start": "2020-02-15T10:00:00+02:00",
        "t_end": "2020-02-15T20:00:00+02:00",
        "pub_date": "23/02",
        "pub_ts": 1582408800,
        "link": "https://www.health.gov.il/NewsAndEvents/SpokemanMesseges/Pages/23022020_1.aspx"
    },
    {
        "lat": 31.789989,
        "lon": 35.202244,
        "label": "מסעדת גולד ליד מלון אמבסדור במזרח ירושלים",
        "text": "9 תיירים מדרום קוריאה",
        "pat_num": "",
        "t_start": "2020-02-15T10:00:00+02:00",
        "t_end": "2020-02-15T20:00:00+02:00",
        "pub_date": "23/02",
        "pub_ts": 1582408800,
        "link": "https://www.health.gov.il/NewsAndEvents/SpokemanMesseges/Pages/23022020_1.aspx"
    },
    {
        "lat": 31.768593,
        "lon": 35.213742,
        "label": "בריכות הצאן (מוזיאון ארכיאולוגי בירושלים)",
        "text": "9 תיירים מדרום קוריאה",
        "pat_num": "",
        "t_start": "2020-02-15T10:00:00+02:00",
        "t_end": "2020-02-15T20:00:00+02:00",
        "pub_date": "23/02",
        "pub_ts": 1582408800,
        "link": "https://www.health.gov.il/NewsAndEvents/SpokemanMesseges/Pages/23022020_1.aspx"
    },
    {
        "lat": 31.778682,
        "lon": 35.229665,
        "label": "כנסיית הקבר הקדוש",
        "text": "9 תיירים מדרום קוריאה",
        "pat_num": "",
        "t_start": "2020-02-15T10:00:00+02:00",
        "t_end": "2020-02-15T20:00:00+02:00",
        "pub_date": "23/02",
        "pub_ts": 1582408800,
        "link": "https://www.health.gov.il/NewsAndEvents/SpokemanMesseges/Pages/23022020_1.aspx"
    },
    {
        "lat": 31.789627,
        "lon": 35.227205,
        "label": "מלון גרנט קורט",
        "text": "9 תיירים מדרום קוריאה",
        "pat_num": "",
        "t_start": "2020-02-15T10:00:00+02:00",
        "t_end": "2020-02-15T20:00:00+02:00",
        "pub_date": "23/02",
        "pub_ts": 1582408800,
        "link": "https://www.health.gov.il/NewsAndEvents/SpokemanMesseges/Pages/23022020_1.aspx"
    },
    {
        "lat": 32.0228009,
        "lon": 34.861666,
        "label": "הפיראט האדום",
        "text": "מקום ביקור של הישראלי ששב מאיטליה",
        "pat_num": "",
        "t_start": "2020-02-23T18:00:00+02:00",
        "t_end": "2020-02-23T22:00:00+02:00",
        "pub_date": "28/02",
        "pub_ts": 1582840800,
        "link": "https://www.health.gov.il/NewsAndEvents/SpokemanMesseges/Pages/28022020_1.aspx"
    },
    {
        "lat": 32.0228009,
        "lon": 34.861666,
        "label": "הפיראט האדום",
        "text": "מקום ביקור של הישראלי ששב מאיטליה",
        "pat_num": "",
        "t_start": "2020-02-24T08:30:00+02:00",
        "t_end": "2020-02-24T23:59:00+02:00",
        "pub_date": "28/02",
        "pub_ts": 1582840800,
        "link": "https://www.health.gov.il/NewsAndEvents/SpokemanMesseges/Pages/28022020_1.aspx"
    },
    {
        "lat": 32.0228009,
        "lon": 34.861666,
        "label": "הפיראט האדום",
        "text": "מקום ביקור של הישראלי ששב מאיטליה",
        "pat_num": "",
        "t_start": "2020-02-25T08:30:00+02:00",
        "t_end": "2020-02-25T23:59:00+02:00",
        "pub_date": "28/02",
        "pub_ts": 1582840800,
        "link": "https://www.health.gov.il/NewsAndEvents/SpokemanMesseges/Pages/28022020_1.aspx"
    },
    {
        "lat": 31.9306892,
        "lon": 34.7765856,
        "label": "בית כנסת אירוס",
        "text": "מקום ביקור של הישראלי ששב מאיטליה",
        "pat_num": "",
        "t_start": "2020-02-24T06:00:00+02:00",
        "t_end": "2020-02-24T07:00:00+02:00",
        "pub_date": "28/02",
        "pub_ts": 1582840800,
        "link": "https://www.health.gov.il/NewsAndEvents/SpokemanMesseges/Pages/28022020_1.aspx"
    },
    {
        "lat": 32.383731,
        "lon": 34.866688,
        "label": "ארומה בתחנת ״דלק פז״",
        "text": "",
        "pat_num": "6",
        "t_start": "2020-02-22T06:30:00+02:00",
        "t_end": "2020-02-22T07:00:00+02:00",
        "pub_date": "28/02",
        "pub_ts": 1582840800,
        "link": "https://www.health.gov.il/NewsAndEvents/SpokemanMesseges/Pages/28022020_6.aspx"
    },
    {
        "lat": 32.38385,
        "lon": 34.866874,
        "label": "בית הפנקייק",
        "text": "",
        "pat_num": "6",
        "t_start": "2020-02-22T06:30:00+02:00",
        "t_end": "2020-02-22T07:00:00+02:00",
        "pub_date": "28/02",
        "pub_ts": 1582840800,
        "link": "https://www.health.gov.il/NewsAndEvents/SpokemanMesseges/Pages/28022020_6.aspx"
    },
    {
        "lat": 32.962288,
        "lon": 35.176676,
        "label": "סעיד מלחם מוצרי חשמל באבו סנאן",
        "text": "",
        "pat_num": "6",
        "t_start": "2020-02-22T11:00:00+02:00",
        "t_end": "2020-02-22T13:00:00+02:00",
        "pub_date": "28/02",
        "pub_ts": 1582840800,
        "link": "https://www.health.gov.il/NewsAndEvents/SpokemanMesseges/Pages/28022020_6.aspx"
    },
    {
        "lat": 32.818203,
        "lon": 35.050937,
        "label": "מחסני זול ספורט בקריית אתא",
        "text": "",
        "pat_num": "6",
        "t_start": "2020-02-22T11:00:00+02:00",
        "t_end": "2020-02-22T13:00:00+02:00",
        "pub_date": "28/02",
        "pub_ts": 1582840800,
        "link": "https://www.health.gov.il/NewsAndEvents/SpokemanMesseges/Pages/28022020_6.aspx"
    },
    {
        "lat": 32.990316,
        "lon": 35.096735,
        "label": "חומוס פרלמנט ותחנת דלק פז בנהריה",
        "text": "",
        "pat_num": "6",
        "t_start": "2020-02-23T11:30:00+02:00",
        "t_end": "2020-02-23T12:00:00+02:00",
        "pub_date": "28/02",
        "pub_ts": 1582840800,
        "link": "https://www.health.gov.il/NewsAndEvents/SpokemanMesseges/Pages/28022020_6.aspx"
    },
    {
        "lat": 32.603578,
        "lon": 35.296038,
        "label": "מקלות וניל בעפולה",
        "text": "",
        "pat_num": "7",
        "t_start": "2020-02-25T11:22:00+02:00",
        "t_end": "2020-02-25T11:59:00+02:00",
        "pub_date": "29/02",
        "pub_ts": 1582927200,
        "link": "https://www.health.gov.il/NewsAndEvents/SpokemanMesseges/Pages/29022020_1.aspx"
    },
    {
        "lat": 32.687929,
        "lon": 35.246797,
        "label": "חדר כושר אתנה במגדל העמק",
        "text": "",
        "pat_num": "7",
        "t_start": "2020-02-25T18:00:00+02:00",
        "t_end": "2020-02-25T20:00:00+02:00",
        "pub_date": "29/02",
        "pub_ts": 1582927200,
        "link": "https://www.health.gov.il/NewsAndEvents/SpokemanMesseges/Pages/29022020_1.aspx"
    },
    {
        "lat": 32.676933,
        "lon": 35.239217,
        "label": "בנק דיסקונט במגדל העמק",
        "text": "",
        "pat_num": "7",
        "t_start": "2020-02-27T08:30:00+02:00",
        "t_end": "2020-02-27T09:30:00+02:00",
        "pub_date": "29/02",
        "pub_ts": 1582927200,
        "link": "https://www.health.gov.il/NewsAndEvents/SpokemanMesseges/Pages/29022020_1.aspx"
    },
    {
        "lat": 32.599948,
        "lon": 35.29515,
        "label": "מסעדת אחוזה בעפולה",
        "text": "",
        "pat_num": "7",
        "t_start": "2020-02-27T14:00:00+02:00",
        "t_end": "2020-02-27T15:30:00+02:00",
        "pub_date": "29/02",
        "pub_ts": 1582927200,
        "link": "https://www.health.gov.il/NewsAndEvents/SpokemanMesseges/Pages/29022020_1.aspx"
    },
    {
        "lat": 32.666738,
        "lon": 35.239837,
        "label": "שופרסל אזור תעשייה מגדל העמק",
        "text": "",
        "pat_num": "7",
        "t_start": "2020-02-27T17:00:00+02:00",
        "t_end": "2020-02-27T18:00:00+02:00",
        "pub_date": "29/02",
        "pub_ts": 1582927200,
        "link": "https://www.health.gov.il/NewsAndEvents/SpokemanMesseges/Pages/29022020_2.aspx"
    },
    {
        "lat": 32.025683,
        "lon": 34.858086,
        "label": "מתפרה בקומה התחתונה של קניון אור יהודה",
        "text": "",
        "pat_num": "10",
        "t_start": "2020-02-25T12:00:00+02:00",
        "t_end": "2020-02-25T12:30:00+02:00",
        "pub_date": "02/03",
        "pub_ts": 1583100000,
        "link": "https://www.health.gov.il/NewsAndEvents/SpokemanMesseges/Pages/02032020_1.aspx"
    },
    {
        "lat": 32.0228009,
        "lon": 34.861666,
        "label": "הפיראט האדום",
        "text": "",
        "pat_num": "10",
        "t_start": "2020-02-24T13:00:00+02:00",
        "t_end": "2020-02-24T22:00:00+02:00",
        "pub_date": "02/03",
        "pub_ts": 1583100000,
        "link": "https://www.health.gov.il/NewsAndEvents/SpokemanMesseges/Pages/02032020_1.aspx"
    },
    {
        "lat": 32.0228009,
        "lon": 34.861666,
        "label": "הפיראט האדום",
        "text": "",
        "pat_num": "10",
        "t_start": "2020-02-25T12:30:00+02:00",
        "t_end": "2020-02-25T23:59:00+02:00",
        "pub_date": "02/03",
        "pub_ts": 1583100000,
        "link": "https://www.health.gov.il/NewsAndEvents/SpokemanMesseges/Pages/02032020_1.aspx"
    },
    {
        "lat": 32.0228009,
        "lon": 34.861666,
        "label": "הפיראט האדום",
        "text": "",
        "pat_num": "10",
        "t_start": "2020-02-26T00:00:00+02:00",
        "t_end": "2020-02-26T00:30:00+02:00",
        "pub_date": "02/03",
        "pub_ts": 1583100000,
        "link": "https://www.health.gov.il/NewsAndEvents/SpokemanMesseges/Pages/02032020_1.aspx"
    },
    {
        "lat": 32.0228009,
        "lon": 34.861666,
        "label": "הפיראט האדום",
        "text": "",
        "pat_num": "10",
        "t_start": "2020-02-26T15:00:00+02:00",
        "t_end": "2020-02-26T21:30:00+02:00",
        "pub_date": "02/03",
        "pub_ts": 1583100000,
        "link": "https://www.health.gov.il/NewsAndEvents/SpokemanMesseges/Pages/02032020_1.aspx"
    },
    {
        "lat": 31.796529,
        "lon": 34.629749,
        "label": "שוק הים באשדוד",
        "text": "",
        "pat_num": "12",
        "t_start": "2020-02-26T11:00:00+02:00",
        "t_end": "2020-02-26T13:00:00+02:00",
        "pub_date": "02/03",
        "pub_ts": 1583100000,
        "link": "https://www.health.gov.il/NewsAndEvents/SpokemanMesseges/Pages/02032020_3.aspx"
    },
    {
        "lat": 32.0714043,
        "lon": 34.8281033,
        "label": "מכון גו-אקטיב מרום נווה ברמת גן",
        "text": "השתתפה בשיעור פלנדקרייז שהחל בשעה 10:20 ובשיעור התעמלות שהתקיים בין 12:00-12:45",
        "pat_num": "11",
        "t_start": "2020-02-27T10:20:00+02:00",
        "t_end": "2020-02-27T13:00:00+02:00",
        "pub_date": "02/03",
        "pub_ts": 1583100000,
        "link": "https://www.health.gov.il/NewsAndEvents/SpokemanMesseges/Pages/02032020-3.aspx"
    },
    {
        "lat": 32.0714604,
        "lon": 34.8279486,
        "label": "פרשמרקט במתחם מרום נווה",
        "text": "",
        "pat_num": "11",
        "t_start": "2020-02-27T13:10:00+02:00",
        "t_end": "2020-02-27T13:45:00+02:00",
        "pub_date": "02/03",
        "pub_ts": 1583100000,
        "link": "https://www.health.gov.il/NewsAndEvents/SpokemanMesseges/Pages/02032020-3.aspx"
    },
    {
        "lat": 32.0228009,
        "lon": 34.861666,
        "label": "הפיראט האדום",
        "text": "",
        "pat_num": "13",
        "t_start": "2020-02-23T16:30:00+02:00",
        "t_end": "2020-02-23T21:00:00+02:00",
        "pub_date": "04/03",
        "pub_ts": 1583272800,
        "link": "https://www.health.gov.il/NewsAndEvents/SpokemanMesseges/Pages/04032020_3.aspx"
    },
    {
        "lat": 32.0228009,
        "lon": 34.861666,
        "label": "הפיראט האדום",
        "text": "",
        "pat_num": "13",
        "t_start": "2020-02-24T16:30:00+02:00",
        "t_end": "2020-02-24T21:00:00+02:00",
        "pub_date": "04/03",
        "pub_ts": 1583272800,
        "link": "https://www.health.gov.il/NewsAndEvents/SpokemanMesseges/Pages/04032020_3.aspx"
    },
    {
        "lat": 32.0228009,
        "lon": 34.861666,
        "label": "הפיראט האדום",
        "text": "",
        "pat_num": "13",
        "t_start": "2020-02-25T16:30:00+02:00",
        "t_end": "2020-02-25T21:00:00+02:00",
        "pub_date": "04/03",
        "pub_ts": 1583272800,
        "link": "https://www.health.gov.il/NewsAndEvents/SpokemanMesseges/Pages/04032020_3.aspx"
    },
    {
        "lat": 32.0228009,
        "lon": 34.861666,
        "label": "הפיראט האדום",
        "text": "",
        "pat_num": "13",
        "t_start": "2020-02-26T16:30:00+02:00",
        "t_end": "2020-02-26T21:00:00+02:00",
        "pub_date": "04/03",
        "pub_ts": 1583272800,
        "link": "https://www.health.gov.il/NewsAndEvents/SpokemanMesseges/Pages/04032020_3.aspx"
    },
    {
        "lat": 31.869072,
        "lon": 34.806136,
        "label": "ביה״ס איזורי ברנר",
        "text": "",
        "pat_num": "13",
        "t_start": "2020-02-24T00:00:00+02:00",
        "t_end": "2020-02-24T23:59:00+02:00",
        "pub_date": "04/03",
        "pub_ts": 1583272800,
        "link": "https://www.health.gov.il/NewsAndEvents/SpokemanMesseges/Pages/04032020_3.aspx"
    },
    {
        "lat": 31.869072,
        "lon": 34.806136,
        "label": "ביה״ס איזורי ברנר",
        "text": "",
        "pat_num": "13",
        "t_start": "2020-02-25T00:00:00+02:00",
        "t_end": "2020-02-25T23:59:00+02:00",
        "pub_date": "04/03",
        "pub_ts": 1583272800,
        "link": "https://www.health.gov.il/NewsAndEvents/SpokemanMesseges/Pages/04032020_3.aspx"
    },
    {
        "lat": 31.869072,
        "lon": 34.806136,
        "label": "ביה״ס איזורי ברנר",
        "text": "",
        "pat_num": "13",
        "t_start": "2020-02-26T00:00:00+02:00",
        "t_end": "2020-02-26T23:59:00+02:00",
        "pub_date": "04/03",
        "pub_ts": 1583272800,
        "link": "https://www.health.gov.il/NewsAndEvents/SpokemanMesseges/Pages/04032020_3.aspx"
    },
    {
        "lat": 32.051678,
        "lon": 34.761865,
        "label": "אצטדיון בלומפילד - שער 8",
        "text": "",
        "pat_num": "13",
        "t_start": "2020-02-24T20:00:00+02:00",
        "t_end": "2020-02-24T22:00:00+02:00",
        "pub_date": "04/03",
        "pub_ts": 1583272800,
        "link": "https://www.health.gov.il/NewsAndEvents/SpokemanMesseges/Pages/04032020_4.aspx"
    },
    {
        "lat": 32.052998,
        "lon": 34.855811,
        "label": "ביה״ס אביגדור ורשה",
        "text": "",
        "pat_num": "14",
        "t_start": "2020-02-26T07:00:00+02:00",
        "t_end": "2020-02-26T13:00:00+02:00",
        "pub_date": "04/03",
        "pub_ts": 1583272800,
        "link": "https://www.health.gov.il/NewsAndEvents/SpokemanMesseges/Pages/04032020_5.aspx"
    },
    {
        "lat": 32.063762,
        "lon": 34.872818,
        "label": "אולם ספורט ליד ספריה עירונית גני תקווה",
        "text": "",
        "pat_num": "14",
        "t_start": "2020-02-26T17:15:00+02:00",
        "t_end": "2020-02-26T18:00:00+02:00",
        "pub_date": "04/03",
        "pub_ts": 1583272800,
        "link": "https://www.health.gov.il/NewsAndEvents/SpokemanMesseges/Pages/04032020_5.aspx"
    },
    {
        "lat": 31.804431,
        "lon": 34.761447,
        "label": "חתונה ב\"הרמוניה בגן\" (האולם מימין לכניסה) בצומת כנות",
        "text": "",
        "pat_num": "14",
        "t_start": "2020-02-26T19:30:00+02:00",
        "t_end": "2020-02-26T22:30:00+02:00",
        "pub_date": "04/03",
        "pub_ts": 1583272800,
        "link": "https://www.health.gov.il/NewsAndEvents/SpokemanMesseges/Pages/04032020_5.aspx"
    },
    {
        "lat": 32.055449,
        "lon": 34.863602,
        "label": "קניון קריית אונו",
        "text": "",
        "pat_num": "14",
        "t_start": "2020-02-27T18:00:00+02:00",
        "t_end": "2020-02-27T20:30:00+02:00",
        "pub_date": "04/03",
        "pub_ts": 1583272800,
        "link": "https://www.health.gov.il/NewsAndEvents/SpokemanMesseges/Pages/04032020_5.aspx"
    },
    {
        "lat": 32.052998,
        "lon": 34.855811,
        "label": "ביה״ס אביגדור ורשה",
        "text": "",
        "pat_num": "14",
        "t_start": "2020-02-28T07:30:00+02:00",
        "t_end": "2020-02-28T12:00:00+02:00",
        "pub_date": "04/03",
        "pub_ts": 1583272800,
        "link": "https://www.health.gov.il/NewsAndEvents/SpokemanMesseges/Pages/04032020_5.aspx"
    },
    {
        "lat": 31.777409,
        "lon": 35.224419,
        "label": "קפה רימון ממילה",
        "text": "מקום ביקור של חולה מניו יורק",
        "pat_num": "",
        "t_start": "2020-02-23T21:30:00+02:00",
        "t_end": "2020-02-23T23:30:00+02:00",
        "pub_date": "05/03",
        "pub_ts": 1583359200,
        "link": "https://www.health.gov.il/NewsAndEvents/SpokemanMesseges/Pages/05032020_1.aspx"
    },
    {
        "lat": 31.777634,
        "lon": 35.22371,
        "label": "זארה",
        "text": "מקום ביקור של חולה מניו יורק",
        "pat_num": "",
        "t_start": "2020-02-23T21:30:00+02:00",
        "t_end": "2020-02-23T23:30:00+02:00",
        "pub_date": "05/03",
        "pub_ts": 1583359200,
        "link": "https://www.health.gov.il/NewsAndEvents/SpokemanMesseges/Pages/05032020_1.aspx"
    },
    {
        "lat": 31.782049,
        "lon": 35.218575,
        "label": "קפה רימון בן יהודה",
        "text": "מקום ביקור של חולה מניו יורק",
        "pat_num": "",
        "t_start": "2020-02-24T13:00:00+02:00",
        "t_end": "2020-02-24T15:00:00+02:00",
        "pub_date": "05/03",
        "pub_ts": 1583359200,
        "link": "https://www.health.gov.il/NewsAndEvents/SpokemanMesseges/Pages/05032020_1.aspx"
    },
    {
        "lat": 31.753473,
        "lon": 35.212979,
        "label": "אושר עד בקניון הדר",
        "text": "מקום ביקור של חולה מניו יורק",
        "pat_num": "",
        "t_start": "2020-02-24T17:00:00+02:00",
        "t_end": "2020-02-24T19:00:00+02:00",
        "pub_date": "05/03",
        "pub_ts": 1583359200,
        "link": "https://www.health.gov.il/NewsAndEvents/SpokemanMesseges/Pages/05032020_1.aspx"
    },
    {
        "lat": 31.768215,
        "lon": 35.224438,
        "label": "Kitchen Station מתחם התחנה",
        "text": "מקום ביקור של חולה מניו יורק",
        "pat_num": "",
        "t_start": "2020-02-25T14:00:00+02:00",
        "t_end": "2020-02-25T15:00:00+02:00",
        "pub_date": "05/03",
        "pub_ts": 1583359200,
        "link": "https://www.health.gov.il/NewsAndEvents/SpokemanMesseges/Pages/05032020_1.aspx"
    },
    {
        "lat": 31.782627,
        "lon": 35.222703,
        "label": "בנק מזרחי טפחות הלני המלכה 9",
        "text": "מקום ביקור של חולה מניו יורק",
        "pat_num": "",
        "t_start": "2020-02-26T09:00:00+02:00",
        "t_end": "2020-02-26T10:00:00+02:00",
        "pub_date": "05/03",
        "pub_ts": 1583359200,
        "link": "https://www.health.gov.il/NewsAndEvents/SpokemanMesseges/Pages/05032020_1.aspx"
    },
    {
        "lat": 31.753794,
        "lon": 35.213153,
        "label": "FOX HOME",
        "text": "מקום ביקור של חולה מניו יורק",
        "pat_num": "",
        "t_start": "2020-02-26T11:30:00+02:00",
        "t_end": "2020-02-26T14:00:00+02:00",
        "pub_date": "05/03",
        "pub_ts": 1583359200,
        "link": "https://www.health.gov.il/NewsAndEvents/SpokemanMesseges/Pages/05032020_1.aspx"
    },
    {
        "lat": 31.753473,
        "lon": 35.212979,
        "label": "אושר עד",
        "text": "מקום ביקור של חולה מניו יורק",
        "pat_num": "",
        "t_start": "2020-02-26T11:30:00+02:00",
        "t_end": "2020-02-26T14:00:00+02:00",
        "pub_date": "05/03",
        "pub_ts": 1583359200,
        "link": "https://www.health.gov.il/NewsAndEvents/SpokemanMesseges/Pages/05032020_1.aspx"
    },
    {
        "lat": 31.753468,
        "lon": 35.21372,
        "label": "צומת ספרים",
        "text": "מקום ביקור של חולה מניו יורק",
        "pat_num": "",
        "t_start": "2020-02-26T11:30:00+02:00",
        "t_end": "2020-02-26T14:00:00+02:00",
        "pub_date": "05/03",
        "pub_ts": 1583359200,
        "link": "https://www.health.gov.il/NewsAndEvents/SpokemanMesseges/Pages/05032020_1.aspx"
    },
    {
        "lat": 31.763622,
        "lon": 35.219289,
        "label": "בית קפה קפית",
        "text": "מקום ביקור של חולה מניו יורק",
        "pat_num": "",
        "t_start": "2020-02-27T11:00:00+02:00",
        "t_end": "2020-02-27T13:00:00+02:00",
        "pub_date": "05/03",
        "pub_ts": 1583359200,
        "link": "https://www.health.gov.il/NewsAndEvents/SpokemanMesseges/Pages/05032020_1.aspx"
    },
    {
        "lat": 32.686474,
        "lon": 35.392521,
        "label": "הר תבור מנזר ההשתנות",
        "text": "תיירים מיוון",
        "pat_num": "",
        "t_start": "2020-02-20T09:30:00+02:00",
        "t_end": "2020-02-20T10:30:00+02:00",
        "pub_date": "05/03",
        "pub_ts": 1583359200,
        "link": "https://www.health.gov.il/NewsAndEvents/SpokemanMesseges/Pages/05032020_05.aspx"
    },
    {
        "lat": 32.702412,
        "lon": 35.297397,
        "label": "כנסיית הבשורה בנצרת",
        "text": "תיירים מיוון",
        "pat_num": "",
        "t_start": "2020-02-20T11:00:00+02:00",
        "t_end": "2020-02-20T12:00:00+02:00",
        "pub_date": "05/03",
        "pub_ts": 1583359200,
        "link": "https://www.health.gov.il/NewsAndEvents/SpokemanMesseges/Pages/05032020_05.aspx"
    },
    {
        "lat": 32.747189,
        "lon": 35.337806,
        "label": "כנסיה יוונית האורתודוקסית בכפר כנא",
        "text": "תיירים מיוון",
        "pat_num": "",
        "t_start": "2020-02-20T12:00:00+02:00",
        "t_end": "2020-02-20T14:00:00+02:00",
        "pub_date": "05/03",
        "pub_ts": 1583359200,
        "link": "https://www.health.gov.il/NewsAndEvents/SpokemanMesseges/Pages/05032020_05.aspx"
    },
    {
        "lat": 32.874022,
        "lon": 35.549828,
        "label": "עין שבע (טבח'ה)",
        "text": "תיירים מיוון",
        "pat_num": "",
        "t_start": "2020-02-20T15:00:00+02:00",
        "t_end": "2020-02-20T15:30:00+02:00",
        "pub_date": "05/03",
        "pub_ts": 1583359200,
        "link": "https://www.health.gov.il/NewsAndEvents/SpokemanMesseges/Pages/05032020_05.aspx"
    },
    {
        "lat": 32.717531,
        "lon": 35.569652,
        "label": "ירדנית",
        "text": "תיירים מיוון",
        "pat_num": "",
        "t_start": "2020-02-20T16:30:00+02:00",
        "t_end": "2020-02-20T17:30:00+02:00",
        "pub_date": "05/03",
        "pub_ts": 1583359200,
        "link": "https://www.health.gov.il/NewsAndEvents/SpokemanMesseges/Pages/05032020_05.aspx"
    },
    {
        "lat": 31.20199,
        "lon": 35.362779,
        "label": "עין בוקק – ים המלח",
        "text": "תיירים מיוון",
        "pat_num": "",
        "t_start": "2020-02-21T07:30:00+02:00",
        "t_end": "2020-02-21T08:00:00+02:00",
        "pub_date": "05/03",
        "pub_ts": 1583359200,
        "link": "https://www.health.gov.il/NewsAndEvents/SpokemanMesseges/Pages/05032020_05.aspx"
    },
    {
        "lat": 29.894359,
        "lon": 35.064305,
        "label": "מסעדת יוטבתה",
        "text": "תיירים מיוון",
        "pat_num": "",
        "t_start": "2020-02-21T10:30:00+02:00",
        "t_end": "2020-02-21T11:00:00+02:00",
        "pub_date": "05/03",
        "pub_ts": 1583359200,
        "link": "https://www.health.gov.il/NewsAndEvents/SpokemanMesseges/Pages/05032020_05.aspx"
    },
    {
        "lat": 29.504141,
        "lon": 34.919178,
        "label": "המצפה התת ימי אילת",
        "text": "תיירים מיוון",
        "pat_num": "",
        "t_start": "2020-02-23T15:30:00+02:00",
        "t_end": "2020-02-23T17:30:00+02:00",
        "pub_date": "05/03",
        "pub_ts": 1583359200,
        "link": "https://www.health.gov.il/NewsAndEvents/SpokemanMesseges/Pages/05032020_05.aspx"
    },
    {
        "lat": 29.893532,
        "lon": 35.063005,
        "label": "מסעדת יוטבתה",
        "text": "תיירים מיוון",
        "pat_num": "",
        "t_start": "2020-02-23T18:00:00+02:00",
        "t_end": "2020-02-23T18:30:00+02:00",
        "pub_date": "05/03",
        "pub_ts": 1583359200,
        "link": "https://www.health.gov.il/NewsAndEvents/SpokemanMesseges/Pages/05032020_05.aspx"
    },
    {
        "lat": 31.704859,
        "lon": 35.3311,
        "label": "מנזר מרסבה במדבר יהודה",
        "text": "תיירים מיוון",
        "pat_num": "",
        "t_start": "2020-02-24T08:00:00+02:00",
        "t_end": "2020-02-24T10:30:00+02:00",
        "pub_date": "05/03",
        "pub_ts": 1583359200,
        "link": "https://www.health.gov.il/NewsAndEvents/SpokemanMesseges/Pages/05032020_05.aspx"
    },
    {
        "lat": 31.780098,
        "lon": 35.23935,
        "label": "קבר מרים וכנסיית כל העמים",
        "text": "תיירים מיוון",
        "pat_num": "",
        "t_start": "2020-02-24T13:30:00+02:00",
        "t_end": "2020-02-24T17:00:00+02:00",
        "pub_date": "05/03",
        "pub_ts": 1583359200,
        "link": "https://www.health.gov.il/NewsAndEvents/SpokemanMesseges/Pages/05032020_05.aspx"
    },
    {
        "lat": 31.777244,
        "lon": 35.228114,
        "label": "מנזר סנט ג'ורג' (דיר מאר ג'ריס)",
        "text": "תיירים מיוון",
        "pat_num": "",
        "t_start": "2020-02-25T08:00:00+02:00",
        "t_end": "2020-02-25T10:00:00+02:00",
        "pub_date": "05/03",
        "pub_ts": 1583359200,
        "link": "https://www.health.gov.il/NewsAndEvents/SpokemanMesseges/Pages/05032020_05.aspx"
    },
    {
        "lat": 31.780241,
        "lon": 35.232787,
        "label": "כנסיית אורתודוקסית של מרתא ומרים באלעיזריה",
        "text": "תיירים מיוון",
        "pat_num": "",
        "t_start": "2020-02-25T10:30:00+02:00",
        "t_end": "2020-02-25T11:45:00+02:00",
        "pub_date": "05/03",
        "pub_ts": 1583359200,
        "link": "https://www.health.gov.il/NewsAndEvents/SpokemanMesseges/Pages/05032020_05.aspx"
    },
    {
        "lat": 31.716049,
        "lon": 35.330446,
        "label": "מנזר מרסבא",
        "text": "תיירים מיוון",
        "pat_num": "",
        "t_start": "2020-02-25T12:30:00+02:00",
        "t_end": "2020-02-25T14:30:00+02:00",
        "pub_date": "05/03",
        "pub_ts": 1583359200,
        "link": "https://www.health.gov.il/NewsAndEvents/SpokemanMesseges/Pages/05032020_05.aspx"
    },
    {
        "lat": 31.87439,
        "lon": 35.429958,
        "label": "דיר אל קרנטל (מנזר קרנטל)",
        "text": "תיירים מיוון",
        "pat_num": "",
        "t_start": "2020-02-26T11:00:00+02:00",
        "t_end": "2020-02-26T12:30:00+02:00",
        "pub_date": "05/03",
        "pub_ts": 1583359200,
        "link": "https://www.health.gov.il/NewsAndEvents/SpokemanMesseges/Pages/05032020_05.aspx"
    },
    {
        "lat": 31.820261,
        "lon": 35.501139,
        "label": "כנסיית זקא",
        "text": "תיירים מיוון",
        "pat_num": "",
        "t_start": "2020-02-26T12:30:00+02:00",
        "t_end": "2020-02-26T13:00:00+02:00",
        "pub_date": "05/03",
        "pub_ts": 1583359200,
        "link": "https://www.health.gov.il/NewsAndEvents/SpokemanMesseges/Pages/05032020_05.aspx"
    },
    {
        "lat": 31.820261,
        "lon": 35.501139,
        "label": "דיר חג'אלה ליד גשר אלנבי",
        "text": "תיירים מיוון",
        "pat_num": "",
        "t_start": "2020-02-26T13:10:00+02:00",
        "t_end": "2020-02-26T14:20:00+02:00",
        "pub_date": "05/03",
        "pub_ts": 1583359200,
        "link": "https://www.health.gov.il/NewsAndEvents/SpokemanMesseges/Pages/05032020_05.aspx"
    },
    {
        "lat": 31.778434,
        "lon": 35.229492,
        "label": "תפילה בכנסיית הקבר ירושלים",
        "text": "תיירים מיוון",
        "pat_num": "",
        "t_start": "2020-02-26T18:40:00+02:00",
        "t_end": "2020-02-26T20:10:00+02:00",
        "pub_date": "05/03",
        "pub_ts": 1583359200,
        "link": "https://www.health.gov.il/NewsAndEvents/SpokemanMesseges/Pages/05032020_05.aspx"
    },
    {
        "lat": 31.953169,
        "lon": 34.899326,
        "label": "כנסיית סנט ג'ורג' בלוד",
        "text": "תיירים מיוון",
        "pat_num": "",
        "t_start": "2020-02-26T16:00:00+02:00",
        "t_end": "2020-02-26T16:40:00+02:00",
        "pub_date": "05/03",
        "pub_ts": 1583359200,
        "link": "https://www.health.gov.il/NewsAndEvents/SpokemanMesseges/Pages/05032020_05.aspx"
    },
    {
        "lat": 32.7055015,
        "lon": 35.3014112,
        "label": "בית מלון Golden Crown Old City בנצרת",
        "text": "",
        "pat_num": "16",
        "t_start": "2020-02-26T18:00:00+02:00",
        "t_end": "2020-02-26T23:59:00+02:00",
        "pub_date": "06/03",
        "pub_ts": 1583445600,
        "link": "https://www.health.gov.il/NewsAndEvents/SpokemanMesseges/Pages/06032020_1.aspx"
    },
    {
        "lat": 32.7055015,
        "lon": 35.3014112,
        "label": "בית מלון Golden Crown Old City בנצרת",
        "text": "",
        "pat_num": "16",
        "t_start": "2020-02-27T00:00:00+02:00",
        "t_end": "2020-02-27T08:00:00+02:00",
        "pub_date": "06/03",
        "pub_ts": 1583445600,
        "link": "https://www.health.gov.il/NewsAndEvents/SpokemanMesseges/Pages/06032020_1.aspx"
    },
    {
        "lat": 32.836825,
        "lon": 35.509919,
        "label": "מסעדת דליה במגדל",
        "text": "",
        "pat_num": "16",
        "t_start": "2020-02-27T12:30:00+02:00",
        "t_end": "2020-02-27T15:00:00+02:00",
        "pub_date": "06/03",
        "pub_ts": 1583445600,
        "link": "https://www.health.gov.il/NewsAndEvents/SpokemanMesseges/Pages/06032020_1.aspx"
    },
    {
        "lat": 32.7055015,
        "lon": 35.3014112,
        "label": "בית מלון Golden Crown Old City בנצרת",
        "text": "",
        "pat_num": "16",
        "t_start": "2020-02-27T18:00:00+02:00",
        "t_end": "2020-02-27T23:59:00+02:00",
        "pub_date": "06/03",
        "pub_ts": 1583445600,
        "link": "https://www.health.gov.il/NewsAndEvents/SpokemanMesseges/Pages/06032020_1.aspx"
    },
    {
        "lat": 32.7055015,
        "lon": 35.3014112,
        "label": "בית מלון Golden Crown Old City בנצרת",
        "text": "",
        "pat_num": "16",
        "t_start": "2020-02-28T00:00:00+02:00",
        "t_end": "2020-02-28T08:00:00+02:00",
        "pub_date": "06/03",
        "pub_ts": 1583445600,
        "link": "https://www.health.gov.il/NewsAndEvents/SpokemanMesseges/Pages/06032020_1.aspx"
    },
    {
        "lat": 32.7055015,
        "lon": 35.3014112,
        "label": "בית מלון Golden Crown Old City בנצרת",
        "text": "",
        "pat_num": "16",
        "t_start": "2020-02-28T18:00:00+02:00",
        "t_end": "2020-02-28T23:59:00+02:00",
        "pub_date": "06/03",
        "pub_ts": 1583445600,
        "link": "https://www.health.gov.il/NewsAndEvents/SpokemanMesseges/Pages/06032020_1.aspx"
    },
    {
        "lat": 32.7055015,
        "lon": 35.3014112,
        "label": "בית מלון Golden Crown Old City בנצרת",
        "text": "",
        "pat_num": "16",
        "t_start": "2020-02-29T00:00:00+02:00",
        "t_end": "2020-02-29T08:00:00+02:00",
        "pub_date": "06/03",
        "pub_ts": 1583445600,
        "link": "https://www.health.gov.il/NewsAndEvents/SpokemanMesseges/Pages/06032020_1.aspx"
    },
    {
        "lat": 31.7412525,
        "lon": 35.4569593,
        "label": "מסעדת קומראן באתר קומראן",
        "text": "",
        "pat_num": "16",
        "t_start": "2020-02-29T12:00:00+02:00",
        "t_end": "2020-02-29T13:00:00+02:00",
        "pub_date": "06/03",
        "pub_ts": 1583445600,
        "link": "https://www.health.gov.il/NewsAndEvents/SpokemanMesseges/Pages/06032020_1.aspx"
    },
    {
        "lat": 32.7867555,
        "lon": 35.5331003,
        "label": "מלון רסטל בטבריה",
        "text": "",
        "pat_num": "16",
        "t_start": "2020-03-04T18:30:00+02:00",
        "t_end": "2020-03-04T20:00:00+02:00",
        "pub_date": "06/03",
        "pub_ts": 1583445600,
        "link": "https://www.health.gov.il/NewsAndEvents/SpokemanMesseges/Pages/06032020_1.aspx"
    },
    {
        "lat": 32.078774,
        "lon": 34.767687,
        "label": "מסעדת ANIMAR",
        "text": "תייר מאיטליה",
        "pat_num": "",
        "t_start": "2020-02-23T18:30:00+02:00",
        "t_end": "2020-02-23T21:30:00+02:00",
        "pub_date": "06/03",
        "pub_ts": 1583445600,
        "link": "https://www.health.gov.il/NewsAndEvents/SpokemanMesseges/Pages/06032020_3.aspx"
    },
    {
        "lat": 32.07956,
        "lon": 34.767947,
        "label": "ארוחת בוקר במלון דן",
        "text": "תייר מאיטליה",
        "pat_num": "",
        "t_start": "2020-02-24T07:00:00+02:00",
        "t_end": "2020-02-24T08:00:00+02:00",
        "pub_date": "06/03",
        "pub_ts": 1583445600,
        "link": "https://www.health.gov.il/NewsAndEvents/SpokemanMesseges/Pages/06032020_3.aspx"
    },
    {
        "lat": 32.070427,
        "lon": 34.786908,
        "label": "הארבעה 21 קומה 16",
        "text": "תייר מאיטליה",
        "pat_num": "",
        "t_start": "2020-02-24T08:15:00+02:00",
        "t_end": "2020-02-24T14:00:00+02:00",
        "pub_date": "06/03",
        "pub_ts": 1583445600,
        "link": "https://www.health.gov.il/NewsAndEvents/SpokemanMesseges/Pages/06032020_3.aspx"
    },
    {
        "lat": 32.078774,
        "lon": 34.767687,
        "label": "מסעדת ANIMAR",
        "text": "תייר מאיטליה",
        "pat_num": "",
        "t_start": "2020-02-24T22:00:00+02:00",
        "t_end": "2020-02-24T23:59:00+02:00",
        "pub_date": "06/03",
        "pub_ts": 1583445600,
        "link": "https://www.health.gov.il/NewsAndEvents/SpokemanMesseges/Pages/06032020_3.aspx"
    },
    {
        "lat": 32.078774,
        "lon": 34.767687,
        "label": "מסעדת ANIMAR",
        "text": "תייר מאיטליה",
        "pat_num": "",
        "t_start": "2020-02-25T00:00:00+02:00",
        "t_end": "2020-02-25T02:45:00+02:00",
        "pub_date": "06/03",
        "pub_ts": 1583445600,
        "link": "https://www.health.gov.il/NewsAndEvents/SpokemanMesseges/Pages/06032020_3.aspx"
    },
    {
        "lat": 31.7683536,
        "lon": 35.178117,
        "label": "רכבת מתחנה מרכזית בירושלים",
        "text": "תייר מצרפת",
        "pat_num": "",
        "t_start": "2020-03-01T13:30:00+02:00",
        "t_end": "2020-03-01T14:00:00+02:00",
        "pub_date": "06/03",
        "pub_ts": 1583445600,
        "link": "https://www.health.gov.il/NewsAndEvents/SpokemanMesseges/Pages/06032020_03.aspx"
    },
    {
        "lat": 31.7621122,
        "lon": 35.2132363,
        "label": "בית כנסת רמב״ן ברח׳ אמציה בירושלים",
        "text": "תייר מצרפת",
        "pat_num": "",
        "t_start": "2020-03-01T23:00:00+02:00",
        "t_end": "2020-03-01T20:00:00+02:00",
        "pub_date": "06/03",
        "pub_ts": 1583445600,
        "link": "https://www.health.gov.il/NewsAndEvents/SpokemanMesseges/Pages/06032020_03.aspx"
    },
    {
        "lat": 31.7659831,
        "lon": 35.1824382,
        "label": "בית קפה ״הלל״ ברמת בית הכרם",
        "text": "תייר מצרפת",
        "pat_num": "",
        "t_start": "2020-03-02T10:30:00+02:00",
        "t_end": "2020-03-02T12:00:00+02:00",
        "pub_date": "06/03",
        "pub_ts": 1583445600,
        "link": "https://www.health.gov.il/NewsAndEvents/SpokemanMesseges/Pages/06032020_03.aspx"
    },
    {
        "lat": 31.7683536,
        "lon": 35.178117,
        "label": "רכבת מתחנה מרכזית בירושלים",
        "text": "תייר מצרפת",
        "pat_num": "",
        "t_start": "2020-03-02T12:00:00+02:00",
        "t_end": "2020-03-02T12:30:00+02:00",
        "pub_date": "06/03",
        "pub_ts": 1583445600,
        "link": "https://www.health.gov.il/NewsAndEvents/SpokemanMesseges/Pages/06032020_03.aspx"
    },
    {
        "lat": 32.1440607,
        "lon": 34.8354079,
        "label": "קפה לורן ברחוב סוקולוב 53 רמה\"ש",
        "text": "תייר מספרד",
        "pat_num": "18",
        "t_start": "2020-02-28T09:00:00+02:00",
        "t_end": "2020-02-28T10:00:00+02:00",
        "pub_date": "07/03",
        "pub_ts": 1583532000,
        "link": "https://www.health.gov.il/NewsAndEvents/SpokemanMesseges/Pages/07032020_1.aspx"
    },
    {
        "lat": 31.9922422,
        "lon": 34.7474626,
        "label": "מסעדת פיש: רחוב פרופ' בני חבוט 7 ראשל\"צ",
        "text": "תייר מספרד",
        "pat_num": "18",
        "t_start": "2020-02-28T15:00:00+02:00",
        "t_end": "2020-02-28T17:00:00+02:00",
        "pub_date": "07/03",
        "pub_ts": 1583532000,
        "link": "https://www.health.gov.il/NewsAndEvents/SpokemanMesseges/Pages/07032020_1.aspx"
    },
    {
        "lat": 31.9922422,
        "lon": 34.7474626,
        "label": "מסעדת פיש: רחוב פרופ' בני חבוט 7 ראשל\"צ",
        "text": "תייר מספרד",
        "pat_num": "18",
        "t_start": "2020-02-29T13:00:00+02:00",
        "t_end": "2020-02-29T15:00:00+02:00",
        "pub_date": "07/03",
        "pub_ts": 1583532000,
        "link": "https://www.health.gov.il/NewsAndEvents/SpokemanMesseges/Pages/07032020_1.aspx"
    },
    {
        "lat": 32.1440607,
        "lon": 34.8354079,
        "label": "קפה לורן  רחוב סוקולוב 53 רמה\"ש",
        "text": "תייר מספרד",
        "pat_num": "18",
        "t_start": "2020-03-02T09:00:00+02:00",
        "t_end": "2020-03-02T10:00:00+02:00",
        "pub_date": "07/03",
        "pub_ts": 1583532000,
        "link": "https://www.health.gov.il/NewsAndEvents/SpokemanMesseges/Pages/07032020_1.aspx"
    },
    {
        "lat": 32.1385405,
        "lon": 34.8417452,
        "label": "מוקד רפואה דחופה מכבי ברחוב הנצח 3 רמה\"ש",
        "text": "תייר מספרד",
        "pat_num": "18",
        "t_start": "2020-03-02T14:30:00+02:00",
        "t_end": "2020-03-02T15:30:00+02:00",
        "pub_date": "07/03",
        "pub_ts": 1583532000,
        "link": "https://www.health.gov.il/NewsAndEvents/SpokemanMesseges/Pages/07032020_1.aspx"
    },
    {
        "lat": 32.3910275,
        "lon": 34.9947362,
        "label": "סופר אלונית תחנת דלק דור אלון בכביש שש לכיוון צפון ליד מחלף בקה",
        "text": "",
        "pat_num": "22",
        "t_start": "2020-02-29T10:30:00+02:00",
        "t_end": "2020-02-29T11:00:00+02:00",
        "pub_date": "07/03",
        "pub_ts": 1583532000,
        "link": "https://www.health.gov.il/NewsAndEvents/SpokemanMesseges/Pages/07032020_8.aspx"
    },
    {
        "lat": 32.9004598,
        "lon": 35.2927348,
        "label": "כרמיאל – ניחום אבלים רחוב אנקור 82.",
        "text": "",
        "pat_num": "22",
        "t_start": "2020-02-29T11:30:00+02:00",
        "t_end": "2020-02-29T12:30:00+02:00",
        "pub_date": "07/03",
        "pub_ts": 1583532000,
        "link": "https://www.health.gov.il/NewsAndEvents/SpokemanMesseges/Pages/07032020_8.aspx"
    },
    {
        "lat": 32.9463904,
        "lon": 35.175988,
        "label": "כפר ירכא סופרמרקט מרקזה.",
        "text": "",
        "pat_num": "22",
        "t_start": "2020-02-29T12:30:00+02:00",
        "t_end": "2020-02-29T13:30:00+02:00",
        "pub_date": "07/03",
        "pub_ts": 1583532000,
        "link": "https://www.health.gov.il/NewsAndEvents/SpokemanMesseges/Pages/07032020_8.aspx"
    },
    {
        "lat": 32.955728,
        "lon": 35.1829777,
        "label": "כפר ירכא מסעדת בורגר אנד סטייקס במרכז BIG.",
        "text": "",
        "pat_num": "22",
        "t_start": "2020-02-29T13:30:00+02:00",
        "t_end": "2020-02-29T14:30:00+02:00",
        "pub_date": "07/03",
        "pub_ts": 1583532000,
        "link": "https://www.health.gov.il/NewsAndEvents/SpokemanMesseges/Pages/07032020_8.aspx"
    },
    {
        "lat": 32.0818804,
        "lon": 34.8651936,
        "label": "קלפי מספר 97 ברחוב קפלן 42 פתח תקווה.",
        "text": "",
        "pat_num": "22",
        "t_start": "2020-02-29T19:30:00+02:00",
        "t_end": "2020-02-29T19:35:00+02:00",
        "pub_date": "07/03",
        "pub_ts": 1583532000,
        "link": "https://www.health.gov.il/NewsAndEvents/SpokemanMesseges/Pages/07032020_8.aspx"
    },
    {
        "lat": 32.0854778,
        "lon": 34.8683473,
        "label": "צ'יפ-מרקט ארלוזרוב 38 פתח תקווה.",
        "text": "",
        "pat_num": "22",
        "t_start": "2020-02-29T20:00:00+02:00",
        "t_end": "2020-02-29T20:10:00+02:00",
        "pub_date": "07/03",
        "pub_ts": 1583532000,
        "link": "https://www.health.gov.il/NewsAndEvents/SpokemanMesseges/Pages/07032020_8.aspx"
    },
    {
        "lat": 32.071679,
        "lon": 34.8906156,
        "label": "בית רבקה מחלקה ג' חדר 4235.",
        "text": "",
        "pat_num": "22",
        "t_start": "2020-03-03T18:00:00+02:00",
        "t_end": "2020-03-03T19:00:00+02:00",
        "pub_date": "07/03",
        "pub_ts": 1583532000,
        "link": "https://www.health.gov.il/NewsAndEvents/SpokemanMesseges/Pages/07032020_8.aspx"
    },
    {
        "lat": 32.0020526,
        "lon": 34.9410456,
        "label": "קלפי 21 בבית ספר אבן חן בשוהם",
        "text": "",
        "pat_num": "24",
        "t_start": "2020-03-02T20:00:00+02:00",
        "t_end": "2020-03-02T20:10:00+02:00",
        "pub_date": "08/03",
        "pub_ts": 1583618400,
        "link": "https://www.health.gov.il/NewsAndEvents/SpokemanMesseges/Pages/08032020_9.aspx"
    },
    {
        "lat": 31.9997234,
        "lon": 34.9453264,
        "label": "מרפאת קופת חולים מאוחדת בשוהם",
        "text": "",
        "pat_num": "24",
        "t_start": "2020-03-03T09:45:00+02:00",
        "t_end": "2020-03-03T10:00:00+02:00",
        "pub_date": "08/03",
        "pub_ts": 1583618400,
        "link": "https://www.health.gov.il/NewsAndEvents/SpokemanMesseges/Pages/08032020_9.aspx"
    },
    {
        "lat": 31.971546,
        "lon": 34.802067,
        "label": "סופר חצות וחצי רחוב טרכטנברג 18 ראשל\"צ.",
        "text": "",
        "pat_num": "25",
        "t_start": "2020-03-03T17:40:00+02:00",
        "t_end": "2020-03-03T18:15:00+02:00",
        "pub_date": "08/03",
        "pub_ts": 1583618400,
        "link": "https://www.health.gov.il/NewsAndEvents/SpokemanMesseges/Pages/08032020_1.aspx"
    },
    {
        "lat": 31.788888,
        "lon": 35.216582,
        "label": "אופטיקה יונה קורן בע\"מ רחוב מלכי ישראל 16 ירושלים",
        "text": "",
        "pat_num": "28",
        "t_start": "2020-03-03T09:30:00+02:00",
        "t_end": "2020-03-03T14:00:00+02:00",
        "pub_date": "08/03",
        "pub_ts": 1583618400,
        "link": "https://www.health.gov.il/NewsAndEvents/SpokemanMesseges/Pages/08032020_5.aspx"
    },
    {
        "lat": 31.788888,
        "lon": 35.216582,
        "label": "אופטיקה יונה קורן בע\"מ רחוב מלכי ישראל 16 ירושלים",
        "text": "",
        "pat_num": "28",
        "t_start": "2020-03-03T17:00:00+02:00",
        "t_end": "2020-03-03T19:30:00+02:00",
        "pub_date": "08/03",
        "pub_ts": 1583618400,
        "link": "https://www.health.gov.il/NewsAndEvents/SpokemanMesseges/Pages/08032020_5.aspx"
    },
    {
        "lat": 31.788888,
        "lon": 35.216582,
        "label": "אופטיקה יונה קורן בע\"מ רחוב מלכי ישראל 16 ירושלים",
        "text": "",
        "pat_num": "28",
        "t_start": "2020-03-04T09:30:00+02:00",
        "t_end": "2020-03-04T14:00:00+02:00",
        "pub_date": "08/03",
        "pub_ts": 1583618400,
        "link": "https://www.health.gov.il/NewsAndEvents/SpokemanMesseges/Pages/08032020_5.aspx"
    },
    {
        "lat": 31.788888,
        "lon": 35.216582,
        "label": "אופטיקה יונה קורן בע\"מ רחוב מלכי ישראל 16 ירושלים",
        "text": "",
        "pat_num": "28",
        "t_start": "2020-03-04T17:00:00+02:00",
        "t_end": "2020-03-04T19:30:00+02:00",
        "pub_date": "08/03",
        "pub_ts": 1583618400,
        "link": "https://www.health.gov.il/NewsAndEvents/SpokemanMesseges/Pages/08032020_5.aspx"
    },
    {
        "lat": 31.788888,
        "lon": 35.216582,
        "label": "אופטיקה יונה קורן בע\"מ רחוב מלכי ישראל 16 ירושלים",
        "text": "",
        "pat_num": "28",
        "t_start": "2020-03-05T09:30:00+02:00",
        "t_end": "2020-03-05T14:00:00+02:00",
        "pub_date": "08/03",
        "pub_ts": 1583618400,
        "link": "https://www.health.gov.il/NewsAndEvents/SpokemanMesseges/Pages/08032020_5.aspx"
    },
    {
        "lat": 32.1022985,
        "lon": 35.2070832,
        "label": "מסעדת BIGA במרכז המסחרי באריאל",
        "text": "",
        "pat_num": "28",
        "t_start": "2020-03-05T20:00:00+02:00",
        "t_end": "2020-03-05T21:30:00+02:00",
        "pub_date": "08/03",
        "pub_ts": 1583618400,
        "link": "https://www.health.gov.il/NewsAndEvents/SpokemanMesseges/Pages/08032020_5.aspx"
    },
    {
        "lat": 31.9922422,
        "lon": 34.7474626,
        "label": "מסעדת פיש: רחוב פרופ' בני חבוט 7 ראשל\"צ",
        "text": "",
        "pat_num": "30",
        "t_start": "2020-02-29T13:00:00+02:00",
        "t_end": "2020-02-29T15:00:00+02:00",
        "pub_date": "09/03",
        "pub_ts": 1583704800,
        "link": "https://www.health.gov.il/NewsAndEvents/SpokemanMesseges/Pages/09032020_3.aspx"
    },
    {
        "lat": 31.9744662,
        "lon": 34.784506,
        "label": "קלפי 193 בבית הספר רננים בקריית ראשון",
        "text": "",
        "pat_num": "30",
        "t_start": "2020-03-02T14:00:00+02:00",
        "t_end": "2020-03-02T15:00:00+02:00",
        "pub_date": "09/03",
        "pub_ts": 1583704800,
        "link": "https://www.health.gov.il/NewsAndEvents/SpokemanMesseges/Pages/09032020_3.aspx"
    },
    {
        "lat": 31.2644237,
        "lon": 34.7909894,
        "label": "חנות ״פורטונה״ במרכז גילת, שכונה ד׳, באר שבע",
        "text": "",
        "pat_num": "31",
        "t_start": "2020-02-27T09:00:00+02:00",
        "t_end": "2020-02-27T12:00:00+02:00",
        "pub_date": "09/03",
        "pub_ts": 1583704800,
        "link": "https://www.health.gov.il/NewsAndEvents/SpokemanMesseges/Pages/09032020_4.aspx"
    },
    {
        "lat": 31.2644237,
        "lon": 34.7909894,
        "label": "חנות ״פורטונה״ במרכז גילת, שכונה ד׳, באר שבע",
        "text": "",
        "pat_num": "31",
        "t_start": "2020-02-27T15:20:00+02:00",
        "t_end": "2020-02-27T20:00:00+02:00",
        "pub_date": "09/03",
        "pub_ts": 1583704800,
        "link": "https://www.health.gov.il/NewsAndEvents/SpokemanMesseges/Pages/09032020_4.aspx"
    },
    {
        "lat": 32.3910275,
        "lon": 34.9947362,
        "label": "סופר אלונית תחנת דלק דור אלון בכביש שש לכיוון צפון ליד מחלף בקה",
        "text": "",
        "pat_num": "32",
        "t_start": "2020-03-02T10:30:00+02:00",
        "t_end": "2020-03-02T11:00:00+02:00",
        "pub_date": "09/03",
        "pub_ts": 1583704800,
        "link": "https://www.health.gov.il/NewsAndEvents/SpokemanMesseges/Pages/09032020_5.aspx"
    },
    {
        "lat": 32.9004598,
        "lon": 35.2927348,
        "label": "כרמיאל – ניחום אבלים רחוב אנקור 82.",
        "text": "",
        "pat_num": "32",
        "t_start": "2020-03-02T11:30:00+02:00",
        "t_end": "2020-03-02T12:30:00+02:00",
        "pub_date": "09/03",
        "pub_ts": 1583704800,
        "link": "https://www.health.gov.il/NewsAndEvents/SpokemanMesseges/Pages/09032020_5.aspx"
    },
    {
        "lat": 32.9463904,
        "lon": 35.175988,
        "label": "כפר ירכא סופרמרקט מרקזה",
        "text": "",
        "pat_num": "32",
        "t_start": "2020-03-02T15:00:00+02:00",
        "t_end": "2020-03-02T16:10:00+02:00",
        "pub_date": "09/03",
        "pub_ts": 1583704800,
        "link": "https://www.health.gov.il/NewsAndEvents/SpokemanMesseges/Pages/09032020_5.aspx"
    },
    {
        "lat": 32.955728,
        "lon": 35.1829777,
        "label": "כפר ירכא מסעדת בורגר אנד סטייקס במרכז BIG",
        "text": "",
        "pat_num": "32",
        "t_start": "2020-03-02T16:15:00+02:00",
        "t_end": "2020-03-02T17:15:00+02:00",
        "pub_date": "09/03",
        "pub_ts": 1583704800,
        "link": "https://www.health.gov.il/NewsAndEvents/SpokemanMesseges/Pages/09032020_5.aspx"
    },
    {
        "lat": 32.0818804,
        "lon": 34.8651936,
        "label": "קלפי מספר 97 ברחוב קפלן 42 פתח תקווה",
        "text": "",
        "pat_num": "32",
        "t_start": "2020-03-02T19:30:00+02:00",
        "t_end": "2020-03-02T19:35:00+02:00",
        "pub_date": "09/03",
        "pub_ts": 1583704800,
        "link": "https://www.health.gov.il/NewsAndEvents/SpokemanMesseges/Pages/09032020_5.aspx"
    },
    {
        "lat": 32.3910275,
        "lon": 34.9947362,
        "label": "סופר אלונית תחנת דלק דור אלון בכביש שש לכיוון צפון ליד מחלף בקה",
        "text": "",
        "pat_num": "33",
        "t_start": "2020-03-02T10:30:00+02:00",
        "t_end": "2020-03-02T11:00:00+02:00",
        "pub_date": "09/03",
        "pub_ts": 1583704800,
        "link": "https://www.health.gov.il/NewsAndEvents/SpokemanMesseges/Pages/09032020_6.aspx"
    },
    {
        "lat": 32.9004598,
        "lon": 35.2927348,
        "label": "כרמיאל – ניחום אבלים רחוב אנקור 82.",
        "text": "",
        "pat_num": "33",
        "t_start": "2020-03-02T11:30:00+02:00",
        "t_end": "2020-03-02T12:30:00+02:00",
        "pub_date": "09/03",
        "pub_ts": 1583704800,
        "link": "https://www.health.gov.il/NewsAndEvents/SpokemanMesseges/Pages/09032020_6.aspx"
    },
    {
        "lat": 32.9463904,
        "lon": 35.175988,
        "label": "כפר ירכא סופרמרקט מרקזה",
        "text": "",
        "pat_num": "33",
        "t_start": "2020-03-02T15:00:00+02:00",
        "t_end": "2020-03-02T16:10:00+02:00",
        "pub_date": "09/03",
        "pub_ts": 1583704800,
        "link": "https://www.health.gov.il/NewsAndEvents/SpokemanMesseges/Pages/09032020_6.aspx"
    },
    {
        "lat": 32.955728,
        "lon": 35.1829777,
        "label": "כפר ירכא מסעדת בורגר אנד סטייקס במרכז BIG",
        "text": "",
        "pat_num": "33",
        "t_start": "2020-03-02T16:15:00+02:00",
        "t_end": "2020-03-02T17:15:00+02:00",
        "pub_date": "09/03",
        "pub_ts": 1583704800,
        "link": "https://www.health.gov.il/NewsAndEvents/SpokemanMesseges/Pages/09032020_6.aspx"
    },
    {
        "lat": 32.0719564,
        "lon": 34.7910422,
        "label": "מוסך מורשה של אופל, רחוב שפע טל 9 תל אביב",
        "text": "",
        "pat_num": "33",
        "t_start": "2020-03-03T14:50:00+02:00",
        "t_end": "2020-03-03T15:30:00+02:00",
        "pub_date": "09/03",
        "pub_ts": 1583704800,
        "link": "https://www.health.gov.il/NewsAndEvents/SpokemanMesseges/Pages/09032020_6.aspx"
    },
    {
        "lat": 31.9879987,
        "lon": 34.9128609,
        "label": "חברת \"בקהוף ישראל\" רחוב הנגב 1, בית גולן, קריית שדה התעופה.",
        "text": "",
        "pat_num": "33",
        "t_start": "2020-03-04T14:00:00+02:00",
        "t_end": "2020-03-04T14:30:00+02:00",
        "pub_date": "09/03",
        "pub_ts": 1583704800,
        "link": "https://www.health.gov.il/NewsAndEvents/SpokemanMesseges/Pages/09032020_6.aspx"
    },
    {
        "lat": 32.0897602,
        "lon": 34.8643227,
        "label": "מרפאה כירורגית חזה לב במרפאות חוץ של בית חולים בילינסון.",
        "text": "",
        "pat_num": "33",
        "t_start": "2020-03-05T10:50:00+02:00",
        "t_end": "2020-03-05T11:00:00+02:00",
        "pub_date": "09/03",
        "pub_ts": 1583704800,
        "link": "https://www.health.gov.il/NewsAndEvents/SpokemanMesseges/Pages/09032020_6.aspx"
    },
    {
        "lat": 32.3910275,
        "lon": 34.9947362,
        "label": "סופר אלונית תחנת דלק דור אלון בכביש שש לכיוון צפון ליד מחלף בקה",
        "text": "",
        "pat_num": "34",
        "t_start": "2020-03-02T10:30:00+02:00",
        "t_end": "2020-03-02T11:00:00+02:00",
        "pub_date": "09/03",
        "pub_ts": 1583704800,
        "link": "https://www.health.gov.il/NewsAndEvents/SpokemanMesseges/Pages/09032020_7.aspx"
    },
    {
        "lat": 32.9004598,
        "lon": 35.2927348,
        "label": "כרמיאל – ניחום אבלים רחוב אנקור 82.",
        "text": "",
        "pat_num": "34",
        "t_start": "2020-03-02T11:30:00+02:00",
        "t_end": "2020-03-02T12:30:00+02:00",
        "pub_date": "09/03",
        "pub_ts": 1583704800,
        "link": "https://www.health.gov.il/NewsAndEvents/SpokemanMesseges/Pages/09032020_7.aspx"
    },
    {
        "lat": 32.9463904,
        "lon": 35.175988,
        "label": "כפר ירכא סופרמרקט מרקזה",
        "text": "",
        "pat_num": "34",
        "t_start": "2020-03-02T15:00:00+02:00",
        "t_end": "2020-03-02T16:10:00+02:00",
        "pub_date": "09/03",
        "pub_ts": 1583704800,
        "link": "https://www.health.gov.il/NewsAndEvents/SpokemanMesseges/Pages/09032020_7.aspx"
    },
    {
        "lat": 32.955728,
        "lon": 35.1829777,
        "label": "כפר ירכא מסעדת בורגר אנד סטייקס במרכז BIG",
        "text": "",
        "pat_num": "34",
        "t_start": "2020-03-02T16:15:00+02:00",
        "t_end": "2020-03-02T17:15:00+02:00",
        "pub_date": "09/03",
        "pub_ts": 1583704800,
        "link": "https://www.health.gov.il/NewsAndEvents/SpokemanMesseges/Pages/09032020_7.aspx"
    },
    {
        "lat": 32.0719564,
        "lon": 34.7910422,
        "label": "מוסך מורשה של אופל, רחוב שפע טל 9 תל אביב",
        "text": "",
        "pat_num": "34",
        "t_start": "2020-03-03T14:50:00+02:00",
        "t_end": "2020-03-03T15:30:00+02:00",
        "pub_date": "09/03",
        "pub_ts": 1583704800,
        "link": "https://www.health.gov.il/NewsAndEvents/SpokemanMesseges/Pages/09032020_7.aspx"
    },
    {
        "lat": 32.0897602,
        "lon": 34.8643227,
        "label": "מרפאה כירורגית חזה לב במרפאות חוץ של בית חולים בילינסון.",
        "text": "",
        "pat_num": "34",
        "t_start": "2020-03-05T10:50:00+02:00",
        "t_end": "2020-03-05T11:00:00+02:00",
        "pub_date": "09/03",
        "pub_ts": 1583704800,
        "link": "https://www.health.gov.il/NewsAndEvents/SpokemanMesseges/Pages/09032020_7.aspx"
    },
    {
        "lat": 32.0137975,
        "lon": 34.7750173,
        "label": "מסעדת ג'פניקה ברחוב צבי תדמור 12 בחולון",
        "text": "",
        "pat_num": "36",
        "t_start": "2020-03-07T13:00:00+02:00",
        "t_end": "2020-03-07T14:00:00+02:00",
        "pub_date": "09/03",
        "pub_ts": 1583704800,
        "link": "https://www.health.gov.il/NewsAndEvents/SpokemanMesseges/Pages/09032020_10.aspx"
    },
    {
        "lat": 31.707352,
        "lon": 35.202314,
        "label": "בית לחם",
        "text": "משרד הבריאות מורה לכל מי שהיה ב-14 ימים האחרונים בערים בית לחם, בית ג'אלה ובית סחור - להכנס לבידוד.",
        "pat_num": "",
        "t_start": "2020-03-08T00:00:00+02:00",
        "t_end": "2020-03-08T23:59:00+02:00",
        "pub_date": "08/03",
        "pub_ts": 1583618400,
        "link": "https://www.health.gov.il/NewsAndEvents/SpokemanMesseges/Pages/08032020_8.aspx"
    },
    {
        "lat": 31.717896,
        "lon": 35.187406,
        "label": "בית ג'אלה",
        "text": "משרד הבריאות מורה לכל מי שהיה ב-14 ימים האחרונים בערים בית לחם, בית ג'אלה ובית סחור - להכנס לבידוד.",
        "pat_num": "",
        "t_start": "2020-03-08T00:00:00+02:00",
        "t_end": "2020-03-08T23:59:00+02:00",
        "pub_date": "08/03",
        "pub_ts": 1583618400,
        "link": "https://www.health.gov.il/NewsAndEvents/SpokemanMesseges/Pages/08032020_8.aspx"
    },
    {
        "lat": 31.699806,
        "lon": 35.228015,
        "label": "בית סחור",
        "text": "משרד הבריאות מורה לכל מי שהיה ב-14 ימים האחרונים בערים בית לחם, בית ג'אלה ובית סחור - להכנס לבידוד.",
        "pat_num": "",
        "t_start": "2020-03-08T00:00:00+02:00",
        "t_end": "2020-03-08T23:59:00+02:00",
        "pub_date": "08/03",
        "pub_ts": 1583618400,
        "link": "https://www.health.gov.il/NewsAndEvents/SpokemanMesseges/Pages/08032020_8.aspx"
    },
    {
        "lat": 32.2841992,
        "lon": 35.1242567,
        "label": "בית כנסת חב\"ד בישוב ענב.",
        "text": "",
        "pat_num": "29",
        "t_start": "2020-02-28T17:00:00+02:00",
        "t_end": "2020-02-28T18:30:00+02:00",
        "pub_date": "09/03",
        "pub_ts": 1583704800,
        "link": ""
    },
    {
        "lat": 32.2841992,
        "lon": 35.1242567,
        "label": "בית כנסת חב\"ד בישוב ענב.",
        "text": "",
        "pat_num": "29",
        "t_start": "2020-02-29T10:30:00+02:00",
        "t_end": "2020-02-29T12:30:00+02:00",
        "pub_date": "09/03",
        "pub_ts": 1583704800,
        "link": ""
    },
    {
        "lat": 32.0960948,
        "lon": 34.8760841,
        "label": "סופר אושר עד בפתח תקווה.",
        "text": "",
        "pat_num": "29",
        "t_start": "2020-03-01T17:00:00+02:00",
        "t_end": "2020-03-01T18:30:00+02:00",
        "pub_date": "09/03",
        "pub_ts": 1583704800,
        "link": ""
    },
    {
        "lat": 32.0933026,
        "lon": 34.8631594,
        "label": "הקניון הגדול בפתח תקווה",
        "text": "",
        "pat_num": "29",
        "t_start": "2020-03-01T19:30:00+02:00",
        "t_end": "2020-03-01T21:00:00+02:00",
        "pub_date": "09/03",
        "pub_ts": 1583704800,
        "link": ""
    },
    {
        "lat": 32.2841992,
        "lon": 35.1242567,
        "label": "קלפי במועדון בישוב ענב",
        "text": "",
        "pat_num": "29",
        "t_start": "2020-03-02T17:00:00+02:00",
        "t_end": "2020-03-02T17:30:00+02:00",
        "pub_date": "09/03",
        "pub_ts": 1583704800,
        "link": ""
    },
    {
        "lat": 31.7929547,
        "lon": 35.2049517,
        "label": "בית אבות נווה אורה, רחוב ארגמן ירושלים מחלקת תשושי נפש",
        "text": "",
        "pat_num": "29",
        "t_start": "2020-03-03T11:00:00+02:00",
        "t_end": "2020-03-03T12:30:00+02:00",
        "pub_date": "09/03",
        "pub_ts": 1583704800,
        "link": ""
    },
    {
        "lat": 31.7947395,
        "lon": 35.2063201,
        "label": "קניון רב שפע ברחוב שמגר בירושלים",
        "text": "",
        "pat_num": "29",
        "t_start": "2020-03-03T12:30:00+02:00",
        "t_end": "2020-03-03T13:30:00+02:00",
        "pub_date": "09/03",
        "pub_ts": 1583704800,
        "link": ""
    },
    {
        "lat": 31.8026338,
        "lon": 35.097737,
        "label": "עזרת גברים בית הכנסת חסידים בטלז סטון",
        "text": "",
        "pat_num": "29",
        "t_start": "2020-03-07T09:30:00+02:00",
        "t_end": "2020-03-07T10:00:00+02:00",
        "pub_date": "09/03",
        "pub_ts": 1583704800,
        "link": ""
    },
    {
        "lat": 32.0479885,
        "lon": 34.9554965,
        "label": "מוקד רפואי באלעד ברחוב רבי עקיבא.",
        "text": "",
        "pat_num": "29",
        "t_start": "2020-03-07T19:30:00+02:00",
        "t_end": "2020-03-07T20:00:00+02:00",
        "pub_date": "09/03",
        "pub_ts": 1583704800,
        "link": ""
    },
    {
        "lat": 31.9660531,
        "lon": 34.837229,
        "label": "מכון MRI באסף הרופא",
        "text": "",
        "pat_num": "30",
        "t_start": "2020-03-01T20:00:00+02:00",
        "t_end": "2020-03-01T21:45:00+02:00",
        "pub_date": "09/03",
        "pub_ts": 1583704800,
        "link": ""
    },
    {
        "lat": 31.967552,
        "lon": 34.783082,
        "label": "מספרה יורם בן עמי שער ראשל\"צ.",
        "text": "",
        "pat_num": "30",
        "t_start": "2020-03-03T09:30:00+02:00",
        "t_end": "2020-03-03T13:00:00+02:00",
        "pub_date": "09/03",
        "pub_ts": 1583704800,
        "link": ""
    },
    {
        "lat": 31.9924642,
        "lon": 34.7718725,
        "label": "אולמי \"מפלים\" בראשון לציון",
        "text": "",
        "pat_num": "42",
        "t_start": "2020-03-03T21:00:00+02:00",
        "t_end": "2020-03-03T23:00:00+02:00",
        "pub_date": "09/03",
        "pub_ts": 1583704800,
        "link": ""
    },
    {
        "lat": 32.0654141,
        "lon": 34.7616304,
        "label": "מלון דיויד אינטרקונטיננטל",
        "text": "",
        "pat_num": "42",
        "t_start": "2020-03-04T06:00:00+02:00",
        "t_end": "2020-03-04T16:00:00+02:00",
        "pub_date": "09/03",
        "pub_ts": 1583704800,
        "link": ""
    },
    {
        "lat": 32.0262588,
        "lon": 34.7798957,
        "label": "סופרמרקט \"שימורי איכות\" המכתש 6 חולון",
        "text": "",
        "pat_num": "42",
        "t_start": "2020-03-04T16:30:00+02:00",
        "t_end": "2020-03-04T17:30:00+02:00",
        "pub_date": "09/03",
        "pub_ts": 1583704800,
        "link": ""
    },
    {
        "lat": 32.822905,
        "lon": 35.073901,
        "label": "תיאטרון הצפון בקרית חיים",
        "text": "",
        "pat_num": "50",
        "t_start": "2020-03-04T17:30:00+02:00",
        "t_end": "2020-03-04T18:00:00+02:00",
        "pub_date": "09/03",
        "pub_ts": 1583704800,
        "link": ""
    },
    {
        "lat": 31.7553902,
        "lon": 35.2129616,
        "label": "קלפי בבית הספר מקור חיים שברחוב פייר קניג",
        "text": "",
        "pat_num": "45",
        "t_start": "2020-03-02T08:00:00+02:00",
        "t_end": "2020-03-02T08:10:00+02:00",
        "pub_date": "10/03",
        "pub_ts": 1583791200,
        "link": ""
    },
    {
        "lat": 31.7539123,
        "lon": 35.2127524,
        "label": "אושר עד בקניון הדר רחוב פייר קניג 26 ירושלים",
        "text": "",
        "pat_num": "45",
        "t_start": "2020-03-02T10:00:00+02:00",
        "t_end": "2020-03-02T11:00:00+02:00",
        "pub_date": "10/03",
        "pub_ts": 1583791200,
        "link": ""
    },
    {
        "lat": 31.7528328,
        "lon": 35.2152969,
        "label": "מסעדת עזרא גריל בשרים יד החורצים 14 ירושלים",
        "text": "",
        "pat_num": "45",
        "t_start": "2020-03-02T18:30:00+02:00",
        "t_end": "2020-03-02T19:45:00+02:00",
        "pub_date": "10/03",
        "pub_ts": 1583791200,
        "link": ""
    },
    {
        "lat": 31.7517516,
        "lon": 35.2098816,
        "label": "רמי לוי קניון רב חן בתלפיות ירושלים",
        "text": "",
        "pat_num": "45",
        "t_start": "2020-03-04T15:00:00+02:00",
        "t_end": "2020-03-04T16:00:00+02:00",
        "pub_date": "10/03",
        "pub_ts": 1583791200,
        "link": ""
    },
    {
        "lat": 31.756894,
        "lon": 35.2133994,
        "label": "בית כנסת \"אוהבי ציון\" רחוב מקור חיים בירושלים",
        "text": "",
        "pat_num": "45",
        "t_start": "2020-03-07T10:00:00+02:00",
        "t_end": "2020-03-07T10:45:00+02:00",
        "pub_date": "10/03",
        "pub_ts": 1583791200,
        "link": ""
    },
    {
        "lat": 32.2645605,
        "lon": 34.8765136,
        "label": "עמדת קפה בבית הספר האמריקאי ברח' השומרון 65 באבן יהודה",
        "text": "",
        "pat_num": "42",
        "t_start": "2020-03-03T11:00:00+02:00",
        "t_end": "2020-03-03T17:30:00+02:00",
        "pub_date": "10/03",
        "pub_ts": 1583791200,
        "link": ""
    },
    {
        "lat": 32.8218955,
        "lon": 35.0740516,
        "label": "תיאטרון הצפון בקרית חיים",
        "text": "",
        "pat_num": "50",
        "t_start": "2020-03-04T17:30:00+02:00",
        "t_end": "2020-03-04T18:00:00+02:00",
        "pub_date": "10/03",
        "pub_ts": 1583791200,
        "link": ""
    },
    {
        "lat": 32.1974472,
        "lon": 34.8780966,
        "label": "קניון רננים, רעננה. ביקרה בכל החנויות ואכלה בסושייה",
        "text": "",
        "pat_num": "47",
        "t_start": "2020-03-02T12:00:00+02:00",
        "t_end": "2020-03-02T15:00:00+02:00",
        "pub_date": "10/03",
        "pub_ts": 1583791200,
        "link": ""
    },
    {
        "lat": 32.1672842,
        "lon": 34.9263582,
        "label": "מקס-סטוק בכפר סבא, רחוב עתיר ידע 2",
        "text": "",
        "pat_num": "47",
        "t_start": "2020-03-02T16:00:00+02:00",
        "t_end": "2020-03-02T17:00:00+02:00",
        "pub_date": "10/03",
        "pub_ts": 1583791200,
        "link": ""
    },
    {
        "lat": 31.7929547,
        "lon": 35.2049517,
        "label": "בית אבות נווה אורה, רחוב ארגמן ירושלים מחלקת תשושי נפש.",
        "text": "",
        "pat_num": "47",
        "t_start": "2020-03-03T11:00:00+02:00",
        "t_end": "2020-03-03T12:30:00+02:00",
        "pub_date": "10/03",
        "pub_ts": 1583791200,
        "link": ""
    },
    {
        "lat": 31.7947395,
        "lon": 35.2063201,
        "label": "קניון רב שפע ברחוב שמגר בירושלים, בקומה האחרונה, בשתי חנויות: אביזרים לפורים וחנות לבייגלה",
        "text": "",
        "pat_num": "47",
        "t_start": "2020-03-03T12:20:00+02:00",
        "t_end": "2020-03-03T13:30:00+02:00",
        "pub_date": "10/03",
        "pub_ts": 1583791200,
        "link": ""
    },
    {
        "lat": 32.1089879,
        "lon": 34.8878513,
        "label": "בר מצווה אולם אירועים \"אפ טאון\" הרכבת 4, פתח תקווה.",
        "text": "",
        "pat_num": "47",
        "t_start": "2020-03-05T20:30:00+02:00",
        "t_end": "2020-03-05T21:00:00+02:00",
        "pub_date": "10/03",
        "pub_ts": 1583791200,
        "link": ""
    },
    {
        "lat": 32.2841992,
        "lon": 35.1242567,
        "label": "מועדון למבוגרים בישוב ענב, מסיבת פורים.",
        "text": "",
        "pat_num": "47",
        "t_start": "2020-03-05T22:00:00+02:00",
        "t_end": "2020-03-05T22:15:00+02:00",
        "pub_date": "10/03",
        "pub_ts": 1583791200,
        "link": ""
    },
    {
        "lat": 32.3125987,
        "lon": 34.9596066,
        "label": "סופרמרקט חינם פלוס צומת תנובות.",
        "text": "",
        "pat_num": "47",
        "t_start": "2020-03-08T14:30:00+02:00",
        "t_end": "2020-03-08T15:30:00+02:00",
        "pub_date": "10/03",
        "pub_ts": 1583791200,
        "link": ""
    },
    {
        "lat": 32.0897602,
        "lon": 34.8643227,
        "label": "בית חולים בילינסון, מעבר דרך מיון לחדר בידוד לביקור חולה מספר 29",
        "text": "",
        "pat_num": "47",
        "t_start": "2020-03-08T19:00:00+02:00",
        "t_end": "2020-03-08T20:00:00+02:00",
        "pub_date": "10/03",
        "pub_ts": 1583791200,
        "link": ""
    },
    {
        "lat": 32.2841992,
        "lon": 35.1242567,
        "label": "בית כנסת חב\"ד בישוב ענב",
        "text": "",
        "pat_num": "48",
        "t_start": "2020-02-28T17:00:00+02:00",
        "t_end": "2020-02-28T18:30:00+02:00",
        "pub_date": "10/03",
        "pub_ts": 1583791200,
        "link": ""
    },
    {
        "lat": 32.2841992,
        "lon": 35.1242567,
        "label": "בית כנסת חב\"ד בישוב ענב",
        "text": "",
        "pat_num": "48",
        "t_start": "2020-02-29T12:00:00+02:00",
        "t_end": "2020-02-29T12:30:00+02:00",
        "pub_date": "10/03",
        "pub_ts": 1583791200,
        "link": ""
    },
    {
        "lat": 32.2841992,
        "lon": 35.1242567,
        "label": "קלפי במועדון בישוב ענב",
        "text": "",
        "pat_num": "48",
        "t_start": "2020-03-02T17:00:00+02:00",
        "t_end": "2020-03-02T17:30:00+02:00",
        "pub_date": "10/03",
        "pub_ts": 1583791200,
        "link": ""
    },
    {
        "lat": 32.0930115,
        "lon": 34.8210871,
        "label": "לימודים מכללת \"מבחר\" בני ברק, כיתה 101",
        "text": "",
        "pat_num": "48",
        "t_start": "2020-03-03T17:30:00+02:00",
        "t_end": "2020-03-03T21:30:00+02:00",
        "pub_date": "10/03",
        "pub_ts": 1583791200,
        "link": ""
    },
    {
        "lat": 32.0555787,
        "lon": 34.8619976,
        "label": "מכון כושר מיי פרופיט, בקניון קריית אונו קומה 1.",
        "text": "",
        "pat_num": "48",
        "t_start": "2020-03-05T15:15:00+02:00",
        "t_end": "2020-03-05T16:30:00+02:00",
        "pub_date": "10/03",
        "pub_ts": 1583791200,
        "link": ""
    },
    {
        "lat": 32.0930115,
        "lon": 34.8210871,
        "label": "לימודים מכללת \"מבחר\" בני ברק, כיתה 101.",
        "text": "",
        "pat_num": "48",
        "t_start": "2020-03-05T17:30:00+02:00",
        "t_end": "2020-03-05T21:30:00+02:00",
        "pub_date": "10/03",
        "pub_ts": 1583791200,
        "link": ""
    },
    {
        "lat": 31.783092,
        "lon": 35.1249245,
        "label": "בית כנסת חסידים בטלזסטון.",
        "text": "",
        "pat_num": "48",
        "t_start": "2020-03-06T18:00:00+02:00",
        "t_end": "2020-03-06T18:30:00+02:00",
        "pub_date": "10/03",
        "pub_ts": 1583791200,
        "link": ""
    },
    {
        "lat": 31.7767177,
        "lon": 35.2169989,
        "label": "בית כנסת בית ההחלמה בטלזסטון.",
        "text": "",
        "pat_num": "48",
        "t_start": "2020-03-07T10:00:00+02:00",
        "t_end": "2020-03-07T11:30:00+02:00",
        "pub_date": "10/03",
        "pub_ts": 1583791200,
        "link": ""
    },
    {
        "lat": 31.665718,
        "lon": 35.2395283,
        "label": "הרודיון",
        "text": "",
        "pat_num": "קבוצה מגרמניה",
        "t_start": "2020-03-03T11:00:00+02:00",
        "t_end": "2020-03-03T13:30:00+02:00",
        "pub_date": "10/03",
        "pub_ts": 1583791200,
        "link": ""
    },
    {
        "lat": 31.7043034,
        "lon": 35.2053401,
        "label": "כנסיית המולד, בית לחם",
        "text": "",
        "pat_num": "קבוצה מגרמניה",
        "t_start": "2020-03-03T15:00:00+02:00",
        "t_end": "2020-03-03T16:30:00+02:00",
        "pub_date": "10/03",
        "pub_ts": 1583791200,
        "link": ""
    },
    {
        "lat": 31.7767189,
        "lon": 35.2323198,
        "label": "מנהרות הכותל, עיר דוד",
        "text": "",
        "pat_num": "קבוצה מגרמניה",
        "t_start": "2020-03-04T09:45:00+02:00",
        "t_end": "2020-03-04T11:45:00+02:00",
        "pub_date": "10/03",
        "pub_ts": 1583791200,
        "link": ""
    },
    {
        "lat": 31.7774769,
        "lon": 35.2281299,
        "label": "מסעדה גן מוריסטן, עיר העתיקה, ירושלים",
        "text": "",
        "pat_num": "קבוצה מגרמניה",
        "t_start": "2020-03-04T12:30:00+02:00",
        "t_end": "2020-03-04T13:15:00+02:00",
        "pub_date": "10/03",
        "pub_ts": 1583791200,
        "link": ""
    },
    {
        "lat": 31.7717797,
        "lon": 35.2271781,
        "label": "כנסיית דורמיציון וחדר הסעודה האחרונה",
        "text": "",
        "pat_num": "קבוצה מגרמניה",
        "t_start": "2020-03-04T17:00:00+02:00",
        "t_end": "2020-03-04T17:30:00+02:00",
        "pub_date": "10/03",
        "pub_ts": 1583791200,
        "link": ""
    },
    {
        "lat": 31.8304502,
        "lon": 35.4549941,
        "label": "אתר תפילה בקאסר אל יהוד",
        "text": "",
        "pat_num": "קבוצה מגרמניה",
        "t_start": "2020-03-05T11:30:00+02:00",
        "t_end": "2020-03-05T13:30:00+02:00",
        "pub_date": "10/03",
        "pub_ts": 1583791200,
        "link": ""
    },
    {
        "lat": 31.3138062,
        "lon": 35.3655923,
        "label": "מצדה, כולל רכבל",
        "text": "",
        "pat_num": "קבוצה מגרמניה",
        "t_start": "2020-03-06T09:00:00+02:00",
        "t_end": "2020-03-06T13:00:00+02:00",
        "pub_date": "10/03",
        "pub_ts": 1583791200,
        "link": ""
    },
    {
        "lat": 31.1712698,
        "lon": 35.3656505,
        "label": "סופרמרקט הורדוס, ים המלח",
        "text": "",
        "pat_num": "קבוצה מגרמניה",
        "t_start": "2020-03-06T17:30:00+02:00",
        "t_end": "2020-03-06T18:00:00+02:00",
        "pub_date": "10/03",
        "pub_ts": 1583791200,
        "link": ""
    },
    {
        "lat": 32.0720017,
        "lon": 34.7675983,
        "label": "קלפי שהוצבה בבית הספר \"בית הילד\" ברחוב אהבת ציון, תל אביב",
        "text": "",
        "pat_num": "40",
        "t_start": "2020-03-02T14:00:00+02:00",
        "t_end": "2020-03-02T15:00:00+02:00",
        "pub_date": "10/03",
        "pub_ts": 1583791200,
        "link": ""
    },
    {
        "lat": 32.1094996,
        "lon": 34.8373739,
        "label": "מסעדת \"גוטה\" ברחוב הנחושת 3 ברמת החייל בתל אביב",
        "text": "",
        "pat_num": "40",
        "t_start": "2020-03-03T14:00:00+02:00",
        "t_end": "2020-03-03T15:00:00+02:00",
        "pub_date": "10/03",
        "pub_ts": 1583791200,
        "link": ""
    },
    {
        "lat": 32.1099275,
        "lon": 34.837181,
        "label": "בית קפה \"לנדבר\" ברחוב הנחושת 3 ברמת החייל בתל אביב",
        "text": "",
        "pat_num": "40",
        "t_start": "2020-03-04T14:30:00+02:00",
        "t_end": "2020-03-04T16:00:00+02:00",
        "pub_date": "10/03",
        "pub_ts": 1583791200,
        "link": ""
    },
    {
        "lat": 32.0938351,
        "lon": 34.7911753,
        "label": "בית קפה \"בוקה\" ברחוב יהודה המכבי 40 בתל אביב",
        "text": "",
        "pat_num": "40",
        "t_start": "2020-03-05T10:00:00+02:00",
        "t_end": "2020-03-05T11:00:00+02:00",
        "pub_date": "10/03",
        "pub_ts": 1583791200,
        "link": ""
    },
    {
        "lat": 32.1316734,
        "lon": 34.8084998,
        "label": "אלונית כביש 6 דרום",
        "text": "",
        "pat_num": "51",
        "t_start": "2020-02-27T12:30:00+02:00",
        "t_end": "2020-02-27T13:00:00+02:00",
        "pub_date": "10/03",
        "pub_ts": 1583791200,
        "link": ""
    },
    {
        "lat": 31.2244302,
        "lon": 34.8202529,
        "label": "חנות איקאה באר שבע",
        "text": "",
        "pat_num": "51",
        "t_start": "2020-02-29T18:00:00+02:00",
        "t_end": "2020-02-29T21:00:00+02:00",
        "pub_date": "10/03",
        "pub_ts": 1583791200,
        "link": ""
    },
    {
        "lat": 31.2426376,
        "lon": 34.8086633,
        "label": "סניף בריאותא, מרכז ביג- באר שבע",
        "text": "",
        "pat_num": "51",
        "t_start": "2020-03-05T22:00:00+02:00",
        "t_end": "2020-03-05T23:30:00+02:00",
        "pub_date": "10/03",
        "pub_ts": 1583791200,
        "link": ""
    },
    {
        "lat": 31.793745,
        "lon": 35.215224,
        "label": "קו 176 מרחוב בר אילן פינת רחוב ירמיהו ירושלים עד לתחנת דרך צמח השדה – השקמה, מעלה אדומים",
        "text": "",
        "pat_num": "52",
        "t_start": "2020-03-05T19:30:00+02:00",
        "t_end": "2020-03-05T20:30:00+02:00",
        "pub_date": "10/03",
        "pub_ts": 1583791200,
        "link": ""
    },
    {
        "lat": 31.768272,
        "lon": 35.300901,
        "label": "בית הכנסת \"שיח השדה\" ברחוב הצפצפה מעלה אדומים",
        "text": "",
        "pat_num": "52",
        "t_start": "2020-03-06T06:15:00+02:00",
        "t_end": "2020-03-06T07:00:00+02:00",
        "pub_date": "10/03",
        "pub_ts": 1583791200,
        "link": ""
    },
    {
        "lat": 31.767439,
        "lon": 35.301492,
        "label": "סופר יינות ביתן רחוב צמח השדה 29 מעלה אדומים",
        "text": "",
        "pat_num": "52",
        "t_start": "2020-03-06T07:15:00+02:00",
        "t_end": "2020-03-06T08:00:00+02:00",
        "pub_date": "10/03",
        "pub_ts": 1583791200,
        "link": ""
    },
    {
        "lat": 31.768272,
        "lon": 35.300901,
        "label": "בית הכנסת \"שיח השדה\" ברחוב הצפצפה מעלה אדומים",
        "text": "",
        "pat_num": "52",
        "t_start": "2020-03-07T08:00:00+02:00",
        "t_end": "2020-03-07T10:00:00+02:00",
        "pub_date": "10/03",
        "pub_ts": 1583791200,
        "link": ""
    },
    {
        "lat": 31.777801,
        "lon": 35.304669,
        "label": "בית כנסת \"אהבת ישראל\" רחוב דקל 1 מעלה אדומים",
        "text": "",
        "pat_num": "52",
        "t_start": "2020-03-07T16:30:00+02:00",
        "t_end": "2020-03-07T17:00:00+02:00",
        "pub_date": "10/03",
        "pub_ts": 1583791200,
        "link": ""
    },
    {
        "lat": 32.2841992,
        "lon": 35.1242567,
        "label": "בית כנסת חב\"ד בישוב ענב",
        "text": "",
        "pat_num": "57",
        "t_start": "2020-02-29T00:00:00+02:00",
        "t_end": "2020-02-29T23:59:00+02:00",
        "pub_date": "10/03",
        "pub_ts": 1583791200,
        "link": "https://t.me/MOHreport/2891?embed=1"
    },
    {
        "lat": 31.893331,
        "lon": 34.821537,
        "label": "סופרמרקט \"יש בשכונה\" חיים סירני 1, רחובות",
        "text": "",
        "pat_num": "57",
        "t_start": "2020-03-01T18:00:00+02:00",
        "t_end": "2020-03-01T18:20:00+02:00",
        "pub_date": "10/03",
        "pub_ts": 1583791200,
        "link": "https://t.me/MOHreport/2891?embed=1"
    },
    {
        "lat": 31.888133,
        "lon": 34.819082,
        "label": "סופרמרקט \"ברכול\" זכריה מדר פינת כובשי חרמון, רחובות",
        "text": "",
        "pat_num": "57",
        "t_start": "2020-03-01T18:20:00+02:00",
        "t_end": "2020-03-01T19:10:00+02:00",
        "pub_date": "10/03",
        "pub_ts": 1583791200,
        "link": "https://t.me/MOHreport/2891?embed=1"
    },
    {
        "lat": 31.864974,
        "lon": 34.814176,
        "label": "חנות Ksp מתחם בילו אין",
        "text": "",
        "pat_num": "57",
        "t_start": "2020-03-02T11:55:00+02:00",
        "t_end": "2020-03-02T12:15:00+02:00",
        "pub_date": "10/03",
        "pub_ts": 1583791200,
        "link": "https://t.me/MOHreport/2891?embed=1"
    },
    {
        "lat": 31.889146,
        "lon": 34.808668,
        "label": "קלפי נגישה, בית ספר בן צבי, רחובות",
        "text": "",
        "pat_num": "57",
        "t_start": "2020-03-02T19:25:00+02:00",
        "t_end": "2020-03-02T19:40:00+02:00",
        "pub_date": "10/03",
        "pub_ts": 1583791200,
        "link": "https://t.me/MOHreport/2891?embed=1"
    },
    {
        "lat": 31.893816,
        "lon": 34.816782,
        "label": "מעון חניכי הישיבות רחוב מנוחה ונחלה, רחובות",
        "text": "",
        "pat_num": "57",
        "t_start": "2020-03-04T08:00:00+02:00",
        "t_end": "2020-03-04T08:35:00+02:00",
        "pub_date": "10/03",
        "pub_ts": 1583791200,
        "link": "https://t.me/MOHreport/2891?embed=1"
    },
    {
        "lat": 31.888889,
        "lon": 34.786687,
        "label": "קופת חולים לאומית, טוכמן יעקב 17, קריית משה, רחובות",
        "text": "",
        "pat_num": "57",
        "t_start": "2020-03-04T09:00:00+02:00",
        "t_end": "2020-03-04T09:20:00+02:00",
        "pub_date": "10/03",
        "pub_ts": 1583791200,
        "link": "https://t.me/MOHreport/2891?embed=1"
    },
    {
        "lat": 31.893931,
        "lon": 34.807127,
        "label": "קופת חולים לאומית רחוב בילו 2, קניון רחובות",
        "text": "",
        "pat_num": "57",
        "t_start": "2020-03-04T09:40:00+02:00",
        "t_end": "2020-03-04T10:50:00+02:00",
        "pub_date": "10/03",
        "pub_ts": 1583791200,
        "link": "https://t.me/MOHreport/2891?embed=1"
    },
    {
        "lat": 31.891251,
        "lon": 34.813638,
        "label": "דף רם-עזרה 10, רחובות",
        "text": "",
        "pat_num": "57",
        "t_start": "2020-03-04T15:55:00+02:00",
        "t_end": "2020-03-04T16:10:00+02:00",
        "pub_date": "10/03",
        "pub_ts": 1583791200,
        "link": "https://t.me/MOHreport/2891?embed=1"
    },
    {
        "lat": 31.893331,
        "lon": 34.821537,
        "label": "סופרמרקט \"יש בשכונה\" חיים סירני 1, רחובות",
        "text": "",
        "pat_num": "57",
        "t_start": "2020-03-06T10:00:00+02:00",
        "t_end": "2020-03-06T10:15:00+02:00",
        "pub_date": "10/03",
        "pub_ts": 1583791200,
        "link": "https://t.me/MOHreport/2891?embed=1"
    },
    {
        "lat": 31.892086,
        "lon": 34.820554,
        "label": "סופרמרקט \"סופר טוב ומיטב\" רחוב יוסף ויינר 2, רחובות",
        "text": "",
        "pat_num": "57",
        "t_start": "2020-03-06T14:00:00+02:00",
        "t_end": "2020-03-06T14:05:00+02:00",
        "pub_date": "10/03",
        "pub_ts": 1583791200,
        "link": "https://t.me/MOHreport/2891?embed=1"
    },
    {
        "lat": 31.892086,
        "lon": 34.820554,
        "label": "סופרמרקט \"סופר טוב ומיטב\" רחוב יוסף ויינר 2, רחובות",
        "text": "",
        "pat_num": "57",
        "t_start": "2020-03-06T15:45:00+02:00",
        "t_end": "2020-03-06T16:00:00+02:00",
        "pub_date": "10/03",
        "pub_ts": 1583791200,
        "link": "https://t.me/MOHreport/2891?embed=1"
    },
    {
        "lat": 31.888989,
        "lon": 34.820181,
        "label": "בית כנסת בית מנחם צעירים, רחוב זכריה מאדר 28, רחובות",
        "text": "",
        "pat_num": "57",
        "t_start": "2020-03-07T10:00:00+02:00",
        "t_end": "2020-03-07T12:00:00+02:00",
        "pub_date": "10/03",
        "pub_ts": 1583791200,
        "link": "https://t.me/MOHreport/2891?embed=1"
    },
    {
        "lat": 31.893331,
        "lon": 34.821537,
        "label": "סופרמרקט \"יש בשכונה\" חיים סירני 1, רחובות",
        "text": "",
        "pat_num": "57",
        "t_start": "2020-03-08T08:45:00+02:00",
        "t_end": "2020-03-08T08:55:00+02:00",
        "pub_date": "10/03",
        "pub_ts": 1583791200,
        "link": "https://t.me/MOHreport/2891?embed=1"
    },
    {
        "lat": 31.893931,
        "lon": 34.807127,
        "label": "קופת חולים לאומית, רחוב בילו 2, קניון רחובות",
        "text": "",
        "pat_num": "57",
        "t_start": "2020-03-09T09:05:00+02:00",
        "t_end": "2020-03-09T09:40:00+02:00",
        "pub_date": "10/03",
        "pub_ts": 1583791200,
        "link": "https://t.me/MOHreport/2891?embed=1"
    },