{
  "points": [
    {
      "id": 400094,
      "lat": 32.4623386490001,
      "lon": 35.0466224800001,
      "label": "שופרסל אקספרס - חריש",
      "text": "",
      "stayTimes": "19:30 - 20:00",
      "t_start": "2020-04-02T17:30:00",
      "t_end": "2020-04-02T18:00:00",
      "link": ""
    },
    {
      "id": 400095,
      "lat": 32.957928569,
      "lon": 35.495673917,
      "label": "דואר, רחוב הרצל - צפת",
      "text": "",
      "stayTimes": "09:30 - 10:00",
      "t_start": "2020-04-01T07:30:00",
      "t_end": "2020-04-01T08:00:00",
      "link": ""
    },
    {
      "id": 400096,
      "lat": 31.800382739,
      "lon": 34.662396771,
      "label": "\"יש חסד\" - אשדוד",
      "text": "",
      "stayTimes": "08:00 - 09:30",
      "t_start": "2020-04-01T06:00:00",
      "t_end": "2020-04-01T07:30:00",
      "link": ""
    },
    {
      "id": 400097,
      "lat": 32.4714671240001,
      "lon": 34.9540670170001,
      "label": "B PHARM - פרדס חנה-כרכור",
      "text": "",
      "stayTimes": "14:15 - 14:30",
      "t_start": "2020-04-01T12:15:00",
      "t_end": "2020-04-01T12:30:00",
      "link": ""
    },
    {
      "id": 400098,
      "lat": 32.4714671240001,
      "lon": 34.9540670170001,
      "label": "סופר הדר סנטר - פרדס חנה-כרכור",
      "text": "",
      "stayTimes": "14:30 - 14:45",
      "t_start": "2020-04-01T12:30:00",
      "t_end": "2020-04-01T12:45:00",
      "link": ""
    },
    {
      "id": 400099,
      "lat": 31.65930159,
      "lon": 34.557084753,
      "label": "קופ\"ח לאומית שמשון - אשקלון",
      "text": "",
      "stayTimes": "11:00 - 12:30",
      "t_start": "2020-04-01T09:00:00",
      "t_end": "2020-04-01T10:30:00",
      "link": ""
    },
    {
      "id": 400100,
      "lat": 31.6619693000001,
      "lon": 34.55967,
      "label": "מיון בי\"ח ברזילי - אשקלון",
      "text": "",
      "stayTimes": "12:30 - 17:00",
      "t_start": "2020-04-01T10:30:00",
      "t_end": "2020-04-01T15:00:00",
      "link": ""
    },
    {
      "id": 400101,
      "lat": 32.0503718200001,
      "lon": 34.9505698570001,
      "label": "קופת חולים מאוחדת סניף שמאי - אלעד",
      "text": "",
      "stayTimes": "08:30 - 13:30",
      "t_start": "2020-04-01T06:30:00",
      "t_end": "2020-04-01T11:30:00",
      "link": ""
    },
    {
      "id": 400102,
      "lat": 31.9704968,
      "lon": 34.8126591000001,
      "label": "סניף ויקטורי - ראשון לציון",
      "text": "",
      "stayTimes": "08:15 - 10:30",
      "t_start": "2020-04-01T06:15:00",
      "t_end": "2020-04-01T08:30:00",
      "link": ""
    },
    {
      "id": 400103,
      "lat": 31.9708494560001,
      "lon": 34.8127716980001,
      "label": "חניון ראשון לציון של סניף ויקטורי - ראשון לציון",
      "text": "",
      "stayTimes": "10:30 - 13:00",
      "t_start": "2020-04-01T08:30:00",
      "t_end": "2020-04-01T11:00:00",
      "link": ""
    },
    {
      "id": 400104,
      "lat": 31.8867341000001,
      "lon": 35.0175692,
      "label": "סניף ויקטורי - מודיעין-מכבים-רעות",
      "text": "",
      "stayTimes": "13:00 - 14:30",
      "t_start": "2020-04-01T11:00:00",
      "t_end": "2020-04-01T12:30:00",
      "link": ""
    },
    {
      "id": 400105,
      "lat": 31.8815556180001,
      "lon": 35.013349609,
      "label": "סניף ויקטורי - מודיעין-מכבים-רעות",
      "text": "",
      "stayTimes": "14:30 - 14:30",
      "t_start": "2020-04-01T12:30:00",
      "t_end": "2020-04-01T12:30:00",
      "link": ""
    },
    {
      "id": 400106,
      "lat": 31.604209729,
      "lon": 34.7724365,
      "label": "סניף ויקטורי - קרית גת",
      "text": "",
      "stayTimes": "14:30 - 16:15",
      "t_start": "2020-04-01T12:30:00",
      "t_end": "2020-04-01T14:15:00",
      "link": ""
    },
    {
      "id": 400107,
      "lat": 31.6620182400001,
      "lon": 34.559667974,
      "label": "מיון ,ב\"ח ברזילאי - אשקלון",
      "text": "",
      "stayTimes": "16:30 - 17:30",
      "t_start": "2020-04-01T14:30:00",
      "t_end": "2020-04-01T15:30:00",
      "link": ""
    },
    {
      "id": 400108,
      "lat": 32.1831304020001,
      "lon": 34.86570677,
      "label": "שוק למהדרין - רעננה",
      "text": "",
      "stayTimes": "16:10 - 08:20",
      "t_start": "2020-04-01T14:10:00",
      "t_end": "2020-04-01T06:20:00",
      "link": ""
    },
    {
      "id": 400109,
      "lat": 31.664188487,
      "lon": 34.563273591,
      "label": "ויקטורי - אשקלון",
      "text": "",
      "stayTimes": "13:30 - 14:30",
      "t_start": "2020-04-01T11:30:00",
      "t_end": "2020-04-01T12:30:00",
      "link": ""
    },
    {
      "id": 400110,
      "lat": 31.8249657000001,
      "lon": 34.700767,
      "label": "סלע לוגיסטיקה בני דרום - בני דרום",
      "text": "",
      "stayTimes": "06:00 - 17:00",
      "t_start": "2020-04-01T04:00:00",
      "t_end": "2020-04-01T15:00:00",
      "link": ""
    },
    {
      "id": 400111,
      "lat": 32.080709703,
      "lon": 34.7910478900001,
      "label": "מחלקת ילדים א- ביה\"ח \"דנה\" איכילוב - תל אביב - יפו",
      "text": "",
      "stayTimes": "02:20 - 14:50",
      "t_start": "2020-04-01T00:20:00",
      "t_end": "2020-04-01T12:50:00",
      "link": ""
    },
    {
      "id": 400112,
      "lat": 32.0807053070001,
      "lon": 34.7910561850001,
      "label": "טיפול נמרץ ילדים- ביה\"ח \"דנה\" איכילוב - תל אביב - יפו",
      "text": "",
      "stayTimes": "14:50 - 14:50",
      "t_start": "2020-04-01T12:50:00",
      "t_end": "2020-04-01T12:50:00",
      "link": ""
    },
    {
      "id": 400113,
      "lat": 31.7884373910001,
      "lon": 35.2064509310001,
      "label": "סופר מעיין 2000 שער בנימין - כוכב יעקב",
      "text": "",
      "stayTimes": "15:30 - 17:30",
      "t_start": "2020-04-01T13:30:00",
      "t_end": "2020-04-01T15:30:00",
      "link": ""
    },
    {
      "id": 400114,
      "lat": 31.9269265130001,
      "lon": 35.038510973,
      "label": "סופר \"יש\" - מודיעין עילית",
      "text": "",
      "stayTimes": "16:00 - 17:15",
      "t_start": "2020-04-01T14:00:00",
      "t_end": "2020-04-01T15:15:00",
      "link": ""
    },
    {
      "id": 400115,
      "lat": 31.2506606790001,
      "lon": 34.7716818120001,
      "label": "סופר פארם גרנד קניון - באר שבע",
      "text": "",
      "stayTimes": "13:00 - 13:30",
      "t_start": "2020-04-01T11:00:00",
      "t_end": "2020-04-01T11:30:00",
      "link": ""
    },
    {
      "id": 400116,
      "lat": 31.2498562070001,
      "lon": 34.771189179,
      "label": "סופר לה בגרנד קניון - באר שבע",
      "text": "",
      "stayTimes": "14:00 - 15:30",
      "t_start": "2020-04-01T12:00:00",
      "t_end": "2020-04-01T13:30:00",
      "link": ""
    },
    {
      "id": 400117,
      "lat": 32.7850348010001,
      "lon": 35.5168409520001,
      "label": "מכולת משה אוחיון בשכונה 200+ - טבריה",
      "text": "",
      "stayTimes": "11:00 - 12:00",
      "t_start": "2020-04-01T09:00:00",
      "t_end": "2020-04-01T10:00:00",
      "link": ""
    },
    {
      "id": 400118,
      "lat": 31.2633917000001,
      "lon": 34.7790219,
      "label": "מגה בעיר קניון אביה - באר שבע",
      "text": "",
      "stayTimes": "19:30 - 20:30",
      "t_start": "2020-04-01T17:30:00",
      "t_end": "2020-04-01T18:30:00",
      "link": ""
    },
    {
      "id": 400119,
      "lat": 31.2434888760001,
      "lon": 34.794407703,
      "label": "קניון הנגב סופארפארם - באר שבע",
      "text": "",
      "stayTimes": "08:30 - 09:00",
      "t_start": "2020-04-02T06:30:00",
      "t_end": "2020-04-02T07:00:00",
      "link": ""
    },
    {
      "id": 400120,
      "lat": 31.2217383,
      "lon": 34.8033035,
      "label": "מתחם יאס פלנט שופרסל אקסטרא דיל - באר שבע",
      "text": "",
      "stayTimes": "09:00 - 10:30",
      "t_start": "2020-04-02T07:00:00",
      "t_end": "2020-04-02T08:30:00",
      "link": ""
    },
    {
      "id": 400121,
      "lat": 32.785659551,
      "lon": 35.5390709280001,
      "label": "חנות תבליני כהן בשוק עירוני - טבריה",
      "text": "",
      "stayTimes": "13:00 - 15:00",
      "t_start": "2020-04-01T11:00:00",
      "t_end": "2020-04-01T13:00:00",
      "link": ""
    },
    {
      "id": 400122,
      "lat": 32.0268882760001,
      "lon": 34.7464722670001,
      "label": "אירינה - בת ים",
      "text": "",
      "stayTimes": "10:00 - 11:00",
      "t_start": "2020-04-03T08:00:00",
      "t_end": "2020-04-03T09:00:00",
      "link": ""
    },
    {
      "id": 400123,
      "lat": 32.2268468,
      "lon": 34.9607505000001,
      "label": "סופר מרקט סיטי מרקט - טירה",
      "text": "",
      "stayTimes": "22:30 - 23:30",
      "t_start": "2020-04-01T20:30:00",
      "t_end": "2020-04-01T21:30:00",
      "link": ""
    },
    {
      "id": 400124,
      "lat": 32.235666184,
      "lon": 34.950557254,
      "label": "מאפיית אחים סמארה - טירה",
      "text": "",
      "stayTimes": "14:00 - 14:45",
      "t_start": "2020-04-02T12:00:00",
      "t_end": "2020-04-02T12:45:00",
      "link": ""
    },
    {
      "id": 400125,
      "lat": 32.782965618,
      "lon": 35.0154072330001,
      "label": "מכבי פארם - חיפה",
      "text": "",
      "stayTimes": "12:00 - 14:00",
      "t_start": "2020-04-01T10:00:00",
      "t_end": "2020-04-01T12:00:00",
      "link": ""
    },
    {
      "id": 400126,
      "lat": 32.0452360780001,
      "lon": 34.842521306,
      "label": "ביח תל השומר - רמת גן",
      "text": "",
      "stayTimes": "10:30 - 16:00",
      "t_start": "2020-04-02T08:30:00",
      "t_end": "2020-04-02T14:00:00",
      "link": ""
    },
    {
      "id": 400127,
      "lat": 32.0872987000001,
      "lon": 34.8271337,
      "label": "מעיין 2000 רחוב הרב קוק 5 בני ברק - בני ברק",
      "text": "",
      "stayTimes": "13:00 - 14:00",
      "t_start": "2020-04-01T11:00:00",
      "t_end": "2020-04-01T12:00:00",
      "link": ""
    },
    {
      "id": 400128,
      "lat": 32.1122901210001,
      "lon": 34.794585226,
      "label": "סוופר פארם - תל אביב - יפו",
      "text": "",
      "stayTimes": "11:00 - 12:00",
      "t_start": "2020-04-03T09:00:00",
      "t_end": "2020-04-03T10:00:00",
      "link": ""
    },
    {
      "id": 400129,
      "lat": 31.7896787760001,
      "lon": 35.205386936,
      "label": "מכולת עובדיה - ירושלים",
      "text": "",
      "stayTimes": "08:00 - 08:30",
      "t_start": "2020-04-01T06:00:00",
      "t_end": "2020-04-01T06:30:00",
      "link": ""
    },
    {
      "id": 400130,
      "lat": 32.1773179,
      "lon": 34.9033483000001,
      "label": "סופר פארם - כפר סבא",
      "text": "",
      "stayTimes": "10:00 - 10:30",
      "t_start": "2020-04-02T08:00:00",
      "t_end": "2020-04-02T08:30:00",
      "link": ""
    },
    {
      "id": 400131,
      "lat": 32.1726091,
      "lon": 34.9295943000001,
      "label": "שופרסל - כפר סבא",
      "text": "",
      "stayTimes": "10:30 - 12:00",
      "t_start": "2020-04-02T08:30:00",
      "t_end": "2020-04-02T10:00:00",
      "link": ""
    },
    {
      "id": 400132,
      "lat": 32.3120405,
      "lon": 34.8709662000001,
      "label": "סופר פרם - נתניה",
      "text": "",
      "stayTimes": "17:00 - 17:10",
      "t_start": "2020-04-02T15:00:00",
      "t_end": "2020-04-02T15:10:00",
      "link": ""
    },
    {
      "id": 400133,
      "lat": 32.3231348,
      "lon": 34.8713024,
      "label": "סופרסל  דיל - נתניה",
      "text": "",
      "stayTimes": "15:00 - 15:30",
      "t_start": "2020-04-01T13:00:00",
      "t_end": "2020-04-01T13:30:00",
      "link": ""
    },
    {
      "id": 400134,
      "lat": 32.105877881,
      "lon": 34.80971286,
      "label": "גני התערוכה. בדיקת קורונה - תל אביב - יפו",
      "text": "",
      "stayTimes": "14:00 - 14:15",
      "t_start": "2020-04-01T12:00:00",
      "t_end": "2020-04-01T12:15:00",
      "link": ""
    },
    {
      "id": 400135,
      "lat": 32.3604795000001,
      "lon": 34.8622635,
      "label": "מכולת - חבצלת השרון",
      "text": "",
      "stayTimes": "13:00 - 13:10",
      "t_start": "2020-04-03T11:00:00",
      "t_end": "2020-04-03T11:10:00",
      "link": ""
    },
    {
      "id": 400136,
      "lat": 31.785913856,
      "lon": 35.1817924740001,
      "label": "מפעל מצות - ירושלים",
      "text": "",
      "stayTimes": "00:00 - 08:00",
      "t_start": "2020-03-31T22:00:00",
      "t_end": "2020-04-01T06:00:00",
      "link": ""
    },
    {
      "id": 400137,
      "lat": 31.9446726,
      "lon": 34.8052458000001,
      "label": "הוסטל בית גיא - ראשון לציון",
      "text": "",
      "stayTimes": "09:30 - 18:00",
      "t_start": "2020-04-01T07:30:00",
      "t_end": "2020-04-01T16:00:00",
      "link": ""
    },
    {
      "id": 400138,
      "lat": 31.240496481,
      "lon": 34.7883985,
      "label": "תחנת משטרה סניף טוביהו - באר שבע",
      "text": "",
      "stayTimes": "07:30 - 16:30",
      "t_start": "2020-04-02T05:30:00",
      "t_end": "2020-04-02T14:30:00",
      "link": ""
    },
    {
      "id": 400139,
      "lat": 31.8003819670001,
      "lon": 35.2203480310001,
      "label": "מעיין 2000 - ירושלים",
      "text": "",
      "stayTimes": "09:30 - 10:00",
      "t_start": "2020-04-02T07:30:00",
      "t_end": "2020-04-02T08:00:00",
      "link": ""
    },
    {
      "id": 400140,
      "lat": 31.655729367,
      "lon": 34.5842175610001,
      "label": "בית מרקחת קופ\"ח כללית- אסף הרופא - אשקלון",
      "text": "",
      "stayTimes": "11:00 - 11:30",
      "t_start": "2020-04-01T09:00:00",
      "t_end": "2020-04-01T09:30:00",
      "link": ""
    },
    {
      "id": 400141,
      "lat": 32.0740832920001,
      "lon": 34.8404990080001,
      "label": "בית מרקחת הר סיני - בני ברק",
      "text": "",
      "stayTimes": "08:25 - 08:35",
      "t_start": "2020-04-02T06:25:00",
      "t_end": "2020-04-02T06:35:00",
      "link": ""
    },
    {
      "id": 400142,
      "lat": 32.0692707000001,
      "lon": 34.8386134,
      "label": "ברכול - רמת גן",
      "text": "",
      "stayTimes": "09:45 - 09:55",
      "t_start": "2020-04-02T07:45:00",
      "t_end": "2020-04-02T07:55:00",
      "link": ""
    },
    {
      "id": 400143,
      "lat": 32.0715922260001,
      "lon": 34.8385385560001,
      "label": "חנות עשר תעשר - בני ברק",
      "text": "",
      "stayTimes": "09:00 - 09:20",
      "t_start": "2020-04-03T07:00:00",
      "t_end": "2020-04-03T07:20:00",
      "link": ""
    },
    {
      "id": 400144,
      "lat": 31.7997442980001,
      "lon": 34.6623996050001,
      "label": "יש חסד - אשדוד",
      "text": "",
      "stayTimes": "14:30 - 15:30",
      "t_start": "2020-04-01T12:30:00",
      "t_end": "2020-04-01T13:30:00",
      "link": ""
    },
    {
      "id": 400145,
      "lat": 31.7665910000001,
      "lon": 34.6308036,
      "label": "סופר מארקט מחסני להב - אשדוד",
      "text": "",
      "stayTimes": "14:00 - 14:30",
      "t_start": "2020-04-03T12:00:00",
      "t_end": "2020-04-03T12:30:00",
      "link": ""
    },
    {
      "id": 400146,
      "lat": 32.0796136600001,
      "lon": 34.8344082950001,
      "label": "בית מרקחת - בני ברק",
      "text": "",
      "stayTimes": "09:30 - 10:00",
      "t_start": "2020-04-01T07:30:00",
      "t_end": "2020-04-01T08:00:00",
      "link": ""
    },
    {
      "id": 400147,
      "lat": 31.6731153320001,
      "lon": 34.568535766,
      "label": "סופר פארם - אשקלון",
      "text": "",
      "stayTimes": "14:00 - 15:00",
      "t_start": "2020-04-01T12:00:00",
      "t_end": "2020-04-01T13:00:00",
      "link": ""
    },
    {
      "id": 400148,
      "lat": 32.0898639000001,
      "lon": 34.8851074,
      "label": "בית מרקחת \"גוד פארם\" - פתח תקווה",
      "text": "",
      "stayTimes": "09:30 - 10:00",
      "t_start": "2020-04-03T07:30:00",
      "t_end": "2020-04-03T08:00:00",
      "link": ""
    },
    {
      "id": 400149,
      "lat": 32.0798892330001,
      "lon": 34.902398568,
      "label": "\"שופרסל\" - פתח תקווה",
      "text": "",
      "stayTimes": "13:30 - 14:15",
      "t_start": "2020-04-03T11:30:00",
      "t_end": "2020-04-03T12:15:00",
      "link": ""
    },
    {
      "id": 400150,
      "lat": 32.7219273000001,
      "lon": 35.4949277000001,
      "label": "מחלקת כלנית בבית האבות יוקרה - יבנאל",
      "text": "",
      "stayTimes": "19:00 - 07:00",
      "t_start": "2020-04-01T17:00:00",
      "t_end": "2020-04-02T05:00:00",
      "link": ""
    },
    {
      "id": 400151,
      "lat": 32.0468299,
      "lon": 34.9085715000001,
      "label": "סופר \"יש\" - בארות יצחק",
      "text": "",
      "stayTimes": "11:00 - 12:30",
      "t_start": "2020-04-01T09:00:00",
      "t_end": "2020-04-01T10:30:00",
      "link": ""
    },
    {
      "id": 400152,
      "lat": 32.1762699270001,
      "lon": 34.9341393230001,
      "label": "סופרמרקט שוק העיר - כפר סבא",
      "text": "",
      "stayTimes": "12:00 - 14:30",
      "t_start": "2020-04-03T10:00:00",
      "t_end": "2020-04-03T12:30:00",
      "link": ""
    },
    {
      "id": 400153,
      "lat": 32.0332097140001,
      "lon": 34.8910968640001,
      "label": "מרפאה - יהוד",
      "text": "",
      "stayTimes": "07:30 - 09:00",
      "t_start": "2020-04-01T05:30:00",
      "t_end": "2020-04-01T07:00:00",
      "link": ""
    },
    {
      "id": 400154,
      "lat": 32.0250675660001,
      "lon": 34.7767823610001,
      "label": "סיטי מרקט - חולון",
      "text": "",
      "stayTimes": "14:30 - 15:00",
      "t_start": "2020-04-03T12:30:00",
      "t_end": "2020-04-03T13:00:00",
      "link": ""
    },
    {
      "id": 400155,
      "lat": 31.99084162,
      "lon": 34.761078383,
      "label": "אושר עד - ראשון לציון",
      "text": "",
      "stayTimes": "11:30 - 12:47",
      "t_start": "2020-04-03T09:30:00",
      "t_end": "2020-04-03T10:47:00",
      "link": ""
    },
    {
      "id": 400156,
      "lat": 32.1058370000001,
      "lon": 34.8923941,
      "label": "סופר \"אושר עד\" - פתח תקווה",
      "text": "",
      "stayTimes": "13:00 - 14:00",
      "t_start": "2020-04-01T11:00:00",
      "t_end": "2020-04-01T12:00:00",
      "link": ""
    },
    {
      "id": 400157,
      "lat": 32.751025401,
      "lon": 35.09142602,
      "label": "בר כל - כפר חסידים א'",
      "text": "",
      "stayTimes": "15:00 - 15:15",
      "t_start": "2020-04-02T13:00:00",
      "t_end": "2020-04-02T13:15:00",
      "link": ""
    },
    {
      "id": 400158,
      "lat": 32.691790129,
      "lon": 35.371605705,
      "label": "קופת חולים כללית - דבוריה",
      "text": "",
      "stayTimes": "09:00 - 09:30",
      "t_start": "2020-04-01T07:00:00",
      "t_end": "2020-04-01T07:30:00",
      "link": ""
    },
    {
      "id": 400159,
      "lat": 31.7939895580001,
      "lon": 34.639149387,
      "label": "ינות ביתן בסיטי אשדוד - אשדוד",
      "text": "",
      "stayTimes": "18:00 - 19:00",
      "t_start": "2020-04-01T16:00:00",
      "t_end": "2020-04-01T17:00:00",
      "link": ""
    },
    {
      "id": 400160,
      "lat": 31.7829486000001,
      "lon": 34.6549948000001,
      "label": "מעדני מניה - אשדוד",
      "text": "",
      "stayTimes": "10:00 - 11:00",
      "t_start": "2020-04-01T08:00:00",
      "t_end": "2020-04-01T09:00:00",
      "link": ""
    },
    {
      "id": 400161,
      "lat": 31.241627856,
      "lon": 34.8035148760001,
      "label": "בית הפחם - באר שבע",
      "text": "",
      "stayTimes": "12:00 - 12:30",
      "t_start": "2020-04-01T10:00:00",
      "t_end": "2020-04-01T10:30:00",
      "link": ""
    },
    {
      "id": 400162,
      "lat": 32.0802792000001,
      "lon": 34.7901360000001,
      "label": "מרפאת עיניים בית חולים איכילוב - תל אביב - יפו",
      "text": "",
      "stayTimes": "11:30 - 15:00",
      "t_start": "2020-04-01T09:30:00",
      "t_end": "2020-04-01T13:00:00",
      "link": ""
    },
    {
      "id": 400163,
      "lat": 31.915902386,
      "lon": 35.0243825760001,
      "label": "רמי לוי - שילת",
      "text": "",
      "stayTimes": "09:30 - 11:00",
      "t_start": "2020-04-02T07:30:00",
      "t_end": "2020-04-02T09:00:00",
      "link": ""
    },
    {
      "id": 400164,
      "lat": 32.7219883720001,
      "lon": 35.4949278780001,
      "label": "ביא' יוקרה - יבנאל",
      "text": "",
      "stayTimes": "06:00 - 14:00",
      "t_start": "2020-04-01T04:00:00",
      "t_end": "2020-04-01T12:00:00",
      "link": ""
    },
    {
      "id": 400165,
      "lat": 32.9803820000001,
      "lon": 35.543548,
      "label": "מכולת חממי - חצור הגלילית",
      "text": "",
      "stayTimes": "10:00 - 11:00",
      "t_start": "2020-04-03T08:00:00",
      "t_end": "2020-04-03T09:00:00",
      "link": ""
    },
    {
      "id": 400166,
      "lat": 31.905703074,
      "lon": 35.007384491,
      "label": "מרפאה \"טרם\" - מודיעין-מכבים-רעות",
      "text": "",
      "stayTimes": "05:30 - 06:10",
      "t_start": "2020-04-04T03:30:00",
      "t_end": "2020-04-04T04:10:00",
      "link": ""
    },
    {
      "id": 400167,
      "lat": 32.0967365880001,
      "lon": 34.840825388,
      "label": "נתיב החסד - בני ברק",
      "text": "",
      "stayTimes": "20:00 - 20:20",
      "t_start": "2020-04-01T18:00:00",
      "t_end": "2020-04-01T18:20:00",
      "link": ""
    },
    {
      "id": 400168,
      "lat": 31.7331721460001,
      "lon": 35.197818043,
      "label": "בית הפירות - ירושלים",
      "text": "",
      "stayTimes": "18:00 - 19:00",
      "t_start": "2020-04-02T16:00:00",
      "t_end": "2020-04-02T17:00:00",
      "link": ""
    },
    {
      "id": 400169,
      "lat": 31.7316702910001,
      "lon": 35.1872594170001,
      "label": "שופרסל גילה - ירושלים",
      "text": "",
      "stayTimes": "17:00 - 18:00",
      "t_start": "2020-04-02T15:00:00",
      "t_end": "2020-04-02T16:00:00",
      "link": ""
    },
    {
      "id": 400170,
      "lat": 31.7602453000001,
      "lon": 35.1764379000001,
      "label": "קופת חולים מאוחדת קרית יובל - ירושלים",
      "text": "",
      "stayTimes": "08:00 - 08:30",
      "t_start": "2020-04-01T06:00:00",
      "t_end": "2020-04-01T06:30:00",
      "link": ""
    },
    {
      "id": 400171,
      "lat": 32.80547125,
      "lon": 35.001583135,
      "label": "נתיב החסד - חיפה",
      "text": "",
      "stayTimes": "22:00 - 22:40",
      "t_start": "2020-04-04T20:00:00",
      "t_end": "2020-04-04T20:40:00",
      "link": ""
    },
    {
      "id": 400172,
      "lat": 31.667580028,
      "lon": 34.5687015140001,
      "label": "\"שוק העיר\" - אשקלון",
      "text": "",
      "stayTimes": "10:00 - 11:00",
      "t_start": "2020-04-02T08:00:00",
      "t_end": "2020-04-02T09:00:00",
      "link": ""
    },
    {
      "id": 400173,
      "lat": 31.667580028,
      "lon": 34.5687015140001,
      "label": "\"שוק העיר\" - אשקלון",
      "text": "",
      "stayTimes": "14:30 - 15:00",
      "t_start": "2020-04-02T12:30:00",
      "t_end": "2020-04-02T13:00:00",
      "link": ""
    },
    {
      "id": 400174,
      "lat": 32.1823231000001,
      "lon": 34.8954868000001,
      "label": "ביה\"ח מאיר - כפר סבא",
      "text": "",
      "stayTimes": "08:00 - 08:30",
      "t_start": "2020-04-05T06:00:00",
      "t_end": "2020-04-05T06:30:00",
      "link": ""
    },
    {
      "id": 400175,
      "lat": 32.722020463,
      "lon": 35.494889754,
      "label": "ביא' יוקרה - יבנאל",
      "text": "",
      "stayTimes": "06:00 - 14:00",
      "t_start": "2020-04-01T04:00:00",
      "t_end": "2020-04-01T12:00:00",
      "link": ""
    },
    {
      "id": 400176,
      "lat": 32.7221167430001,
      "lon": 35.494851608,
      "label": "ביא' יוקרה - יבנאל",
      "text": "",
      "stayTimes": "06:00 - 14:30",
      "t_start": "2020-04-02T04:00:00",
      "t_end": "2020-04-02T12:30:00",
      "link": ""
    },
    {
      "id": 400177,
      "lat": 32.722020463,
      "lon": 35.4950423440001,
      "label": "ביא' יוקרה - יבנאל",
      "text": "",
      "stayTimes": "06:00 - 14:30",
      "t_start": "2020-04-03T04:00:00",
      "t_end": "2020-04-03T12:30:00",
      "link": ""
    },
    {
      "id": 400178,
      "lat": 32.1058370000001,
      "lon": 34.8923941,
      "label": "אושר עד - פתח תקווה",
      "text": "",
      "stayTimes": "12:00 - 12:30",
      "t_start": "2020-04-03T10:00:00",
      "t_end": "2020-04-03T10:30:00",
      "link": ""
    },
    {
      "id": 400179,
      "lat": 31.2477093380001,
      "lon": 34.801954994,
      "label": "קופ\"ח ג' - באר שבע",
      "text": "",
      "stayTimes": "08:30 - 09:00",
      "t_start": "2020-04-01T06:30:00",
      "t_end": "2020-04-01T07:00:00",
      "link": ""
    },
    {
      "id": 400180,
      "lat": 32.0469554490001,
      "lon": 34.8448678510001,
      "label": "מעבדה מרכזית תל השומר - רמת גן",
      "text": "",
      "stayTimes": "07:00 - 19:00",
      "t_start": "2020-04-02T05:00:00",
      "t_end": "2020-04-02T17:00:00",
      "link": ""
    },
    {
      "id": 400181,
      "lat": 32.0469554490001,
      "lon": 34.8448678510001,
      "label": "מעבדה מרכזית תל השומר - רמת גן",
      "text": "",
      "stayTimes": "07:30 - 09:00",
      "t_start": "2020-04-05T05:30:00",
      "t_end": "2020-04-05T07:00:00",
      "link": ""
    },
    {
      "id": 400182,
      "lat": 32.9612647970001,
      "lon": 35.4950951660001,
      "label": "קופ\"ח כללית , רחות הנשיא - צפת",
      "text": "",
      "stayTimes": "08:30 - 09:30",
      "t_start": "2020-04-01T06:30:00",
      "t_end": "2020-04-01T07:30:00",
      "link": ""
    },
    {
      "id": 400183,
      "lat": 32.0444342870001,
      "lon": 34.7691806880001,
      "label": "מעבדה לבריאות הציבור אבו כביר - תל אביב - יפו",
      "text": "",
      "stayTimes": "09:30 - 12:00",
      "t_start": "2020-04-05T07:30:00",
      "t_end": "2020-04-05T10:00:00",
      "link": ""
    },
    {
      "id": 400184,
      "lat": 32.0906142640001,
      "lon": 34.945982932,
      "label": "פינוי מדא לבית חולים - ראש העין",
      "text": "",
      "stayTimes": "00:00 - 00:00",
      "t_start": "2020-04-04T22:00:00",
      "t_end": "2020-04-04T22:00:00",
      "link": ""
    },
    {
      "id": 400185,
      "lat": 32.0872719320001,
      "lon": 34.8304819860001,
      "label": "קופ\"ח לאומית - בני ברק",
      "text": "",
      "stayTimes": "09:00 - 10:00",
      "t_start": "2020-04-03T07:00:00",
      "t_end": "2020-04-03T08:00:00",
      "link": ""
    },
    {
      "id": 400186,
      "lat": 31.8875278190001,
      "lon": 34.820285099,
      "label": "סופר יינות ביתן - רחובות",
      "text": "",
      "stayTimes": "18:00 - 20:00",
      "t_start": "2020-04-01T16:00:00",
      "t_end": "2020-04-01T18:00:00",
      "link": ""
    },
    {
      "id": 400187,
      "lat": 32.0551990060001,
      "lon": 34.8626548240001,
      "label": "מגה בעיר קניון קרית אונו - קרית אונו",
      "text": "",
      "stayTimes": "06:00 - 14:00",
      "t_start": "2020-04-02T04:00:00",
      "t_end": "2020-04-02T12:00:00",
      "link": ""
    },
    {
      "id": 400188,
      "lat": 32.0445779830001,
      "lon": 34.8021035450001,
      "label": "סופר אתי כל מרקט - תל אביב - יפו",
      "text": "",
      "stayTimes": "16:15 - 16:30",
      "t_start": "2020-04-02T14:15:00",
      "t_end": "2020-04-02T14:30:00",
      "link": ""
    },
    {
      "id": 400189,
      "lat": 32.07148441,
      "lon": 34.82805734,
      "label": "פרש מרקט - רמת גן",
      "text": "",
      "stayTimes": "11:00 - 12:30",
      "t_start": "2020-04-01T09:00:00",
      "t_end": "2020-04-01T10:30:00",
      "link": ""
    },
    {
      "id": 400190,
      "lat": 31.6611049270001,
      "lon": 34.589123752,
      "label": "סופר פארם קניון חוצות - אשקלון",
      "text": "",
      "stayTimes": "10:00 - 10:30",
      "t_start": "2020-04-03T08:00:00",
      "t_end": "2020-04-03T08:30:00",
      "link": ""
    },
    {
      "id": 400191,
      "lat": 32.0920991,
      "lon": 34.8387259,
      "label": "מטב - שירותי סיעוד עזרה וייעוץ לקשישים - בני ברק",
      "text": "",
      "stayTimes": "08:00 - 13:00",
      "t_start": "2020-04-01T06:00:00",
      "t_end": "2020-04-01T11:00:00",
      "link": ""
    },
    {
      "id": 400192,
      "lat": 32.7791922000001,
      "lon": 35.5029054,
      "label": "סופר מרקט יוחננוף - טבריה",
      "text": "",
      "stayTimes": "00:00 - 08:00",
      "t_start": "2020-04-02T22:00:00",
      "t_end": "2020-04-03T06:00:00",
      "link": ""
    },
    {
      "id": 400193,
      "lat": 32.0920991,
      "lon": 34.8387259,
      "label": "מטב - שירותי ייעוץ סיעוד ועזרה לקשישים - בני ברק",
      "text": "",
      "stayTimes": "08:00 - 13:00",
      "t_start": "2020-04-02T06:00:00",
      "t_end": "2020-04-02T11:00:00",
      "link": ""
    },
    {
      "id": 400194,
      "lat": 32.078894029,
      "lon": 34.8407030160001,
      "label": "יש חסד - בני ברק",
      "text": "",
      "stayTimes": "19:30 - 21:00",
      "t_start": "2020-04-02T17:30:00",
      "t_end": "2020-04-02T19:00:00",
      "link": ""
    },
    {
      "id": 400195,
      "lat": 32.691790129,
      "lon": 35.371605705,
      "label": "קופת חולים כללית - דבוריה",
      "text": "",
      "stayTimes": "09:00 - 09:30",
      "t_start": "2020-04-03T07:00:00",
      "t_end": "2020-04-03T07:30:00",
      "link": ""
    },
    {
      "id": 400196,
      "lat": 31.9471436000001,
      "lon": 34.8918284000001,
      "label": "\"סופר פארם \" שדרות דוד המלך 2 לוד - לוד",
      "text": "",
      "stayTimes": "22:00 - 23:00",
      "t_start": "2020-04-02T20:00:00",
      "t_end": "2020-04-02T21:00:00",
      "link": ""
    },
    {
      "id": 400197,
      "lat": 31.9990278000001,
      "lon": 34.94685,
      "label": "\"סופר פארם מרכז מסחרי שוהם - שוהם",
      "text": "",
      "stayTimes": "16:30 - 17:30",
      "t_start": "2020-04-03T14:30:00",
      "t_end": "2020-04-03T15:30:00",
      "link": ""
    },
    {
      "id": 400198,
      "lat": 32.166809991,
      "lon": 34.842344559,
      "label": "בן גוריון 2, הרצליה",
      "text": "",
      "stayTimes": "08:00 - 08:30",
      "t_start": "2020-04-03T06:00:00",
      "t_end": "2020-04-03T06:30:00",
      "link": ""
    },
    {
      "id": 400199,
      "lat": 31.8075112980001,
      "lon": 35.2219486020001,
      "label": "בית מרקחת רמת שלמה - ירושלים",
      "text": "",
      "stayTimes": "14:00 - 14:15",
      "t_start": "2020-04-01T12:00:00",
      "t_end": "2020-04-01T12:15:00",
      "link": ""
    },
    {
      "id": 400200,
      "lat": 31.809617378,
      "lon": 35.2187470150001,
      "label": "חנות תקשורת - ירושלים",
      "text": "",
      "stayTimes": "14:30 - 15:00",
      "t_start": "2020-04-01T12:30:00",
      "t_end": "2020-04-01T13:00:00",
      "link": ""
    },
    {
      "id": 400201,
      "lat": 31.3210790000001,
      "lon": 34.6230639,
      "label": "ויקטורי - אופקים",
      "text": "",
      "stayTimes": "13:00 - 13:30",
      "t_start": "2020-04-02T11:00:00",
      "t_end": "2020-04-02T11:30:00",
      "link": ""
    },
    {
      "id": 400202,
      "lat": 32.0279570000001,
      "lon": 34.864768,
      "label": "קופח כללית - אור יהודה",
      "text": "",
      "stayTimes": "07:30 - 08:00",
      "t_start": "2020-04-02T05:30:00",
      "t_end": "2020-04-02T06:00:00",
      "link": ""
    },
    {
      "id": 400203,
      "lat": 32.0279570000001,
      "lon": 34.864768,
      "label": "קופח כללית - אור יהודה",
      "text": "",
      "stayTimes": "11:30 - 12:00",
      "t_start": "2020-04-03T09:30:00",
      "t_end": "2020-04-03T10:00:00",
      "link": ""
    },
    {
      "id": 400204,
      "lat": 32.0667213680001,
      "lon": 34.788182084,
      "label": "לסר (חנות ביצים) - תל אביב - יפו",
      "text": "",
      "stayTimes": "09:00 - 10:00",
      "t_start": "2020-04-02T07:00:00",
      "t_end": "2020-04-02T08:00:00",
      "link": ""
    },
    {
      "id": 400205,
      "lat": 32.028290579,
      "lon": 34.7483266520001,
      "label": "בית חולים בית בלב - בת ים",
      "text": "",
      "stayTimes": "08:00 - 16:00",
      "t_start": "2020-04-05T06:00:00",
      "t_end": "2020-04-05T14:00:00",
      "link": ""
    },
    {
      "id": 400206,
      "lat": 32.0951522440001,
      "lon": 34.838317536,
      "label": "מכולת - בני ברק",
      "text": "",
      "stayTimes": "20:30 - 21:00",
      "t_start": "2020-04-02T18:30:00",
      "t_end": "2020-04-02T19:00:00",
      "link": ""
    },
    {
      "id": 400207,
      "lat": 32.1673930440001,
      "lon": 34.8412880870001,
      "label": "סופר פארם - הרצליה",
      "text": "",
      "stayTimes": "12:00 - 12:30",
      "t_start": "2020-04-05T10:00:00",
      "t_end": "2020-04-05T10:30:00",
      "link": ""
    },
    {
      "id": 400208,
      "lat": 32.167390137,
      "lon": 34.841294954,
      "label": "חנות פארם - הרצליה",
      "text": "",
      "stayTimes": "12:30 - 13:00",
      "t_start": "2020-04-05T10:30:00",
      "t_end": "2020-04-05T11:00:00",
      "link": ""
    },
    {
      "id": 400209,
      "lat": 32.1818416,
      "lon": 34.8698910000001,
      "label": "ויקטורי - רעננה",
      "text": "",
      "stayTimes": "19:00 - 20:00",
      "t_start": "2020-04-05T17:00:00",
      "t_end": "2020-04-05T18:00:00",
      "link": ""
    },
    {
      "id": 400210,
      "lat": 31.7390859130001,
      "lon": 34.981738953,
      "label": "מכולת רחוב הנורית - בית שמש",
      "text": "",
      "stayTimes": "10:00 - 10:30",
      "t_start": "2020-04-03T08:00:00",
      "t_end": "2020-04-03T08:30:00",
      "link": ""
    },
    {
      "id": 400211,
      "lat": 31.739338,
      "lon": 34.9829987000001,
      "label": "סופר \"הצלחה\" - בית שמש",
      "text": "",
      "stayTimes": "11:00 - 11:30",
      "t_start": "2020-04-03T09:00:00",
      "t_end": "2020-04-03T09:30:00",
      "link": ""
    },
    {
      "id": 400212,
      "lat": 32.7791922000001,
      "lon": 35.5029054,
      "label": "סופר מרקט יוחננוף - טבריה",
      "text": "",
      "stayTimes": "06:00 - 17:00",
      "t_start": "2020-04-01T04:00:00",
      "t_end": "2020-04-01T15:00:00",
      "link": ""
    },
    {
      "id": 400213,
      "lat": 32.7791922000001,
      "lon": 35.5029054,
      "label": "סופר מרקט יוחננוף - טבריה",
      "text": "",
      "stayTimes": "06:00 - 17:00",
      "t_start": "2020-04-02T04:00:00",
      "t_end": "2020-04-02T15:00:00",
      "link": ""
    },
    {
      "id": 400214,
      "lat": 31.6611049270001,
      "lon": 34.589126434,
      "label": "סופר פארם קניון חוצות - אשקלון",
      "text": "",
      "stayTimes": "10:00 - 10:30",
      "t_start": "2020-04-03T08:00:00",
      "t_end": "2020-04-03T08:30:00",
      "link": ""
    },
    {
      "id": 400215,
      "lat": 32.079161442,
      "lon": 34.8384144680001,
      "label": "יש חסד - בני ברק",
      "text": "",
      "stayTimes": "12:00 - 14:00",
      "t_start": "2020-04-02T10:00:00",
      "t_end": "2020-04-02T12:00:00",
      "link": ""
    },
    {
      "id": 400216,
      "lat": 32.0914802,
      "lon": 34.8858244,
      "label": "סופר \"ויקטורי\" - פתח תקווה",
      "text": "",
      "stayTimes": "21:00 - 21:40",
      "t_start": "2020-04-02T19:00:00",
      "t_end": "2020-04-02T19:40:00",
      "link": ""
    },
    {
      "id": 400217,
      "lat": 32.1058370000001,
      "lon": 34.8923941,
      "label": "סופר \"אושר עד\" - פתח תקווה",
      "text": "",
      "stayTimes": "14:00 - 15:00",
      "t_start": "2020-04-05T12:00:00",
      "t_end": "2020-04-05T13:00:00",
      "link": ""
    },
    {
      "id": 400218,
      "lat": 32.5744528000001,
      "lon": 34.9573079,
      "label": "10 TO 10 - זכרון יעקב",
      "text": "",
      "stayTimes": "16:00 - 17:00",
      "t_start": "2020-04-01T14:00:00",
      "t_end": "2020-04-01T15:00:00",
      "link": ""
    },
    {
      "id": 400219,
      "lat": 32.055586707,
      "lon": 34.8633571340001,
      "label": "קופת חולים כללית - קרית אונו",
      "text": "",
      "stayTimes": "07:30 - 13:00",
      "t_start": "2020-04-01T05:30:00",
      "t_end": "2020-04-01T11:00:00",
      "link": ""
    },
    {
      "id": 400220,
      "lat": 32.0779937,
      "lon": 34.8285547,
      "label": "סופר \"בני תורה\" - בני ברק",
      "text": "",
      "stayTimes": "21:00 - 21:30",
      "t_start": "2020-04-02T19:00:00",
      "t_end": "2020-04-02T19:30:00",
      "link": ""
    },
    {
      "id": 400221,
      "lat": 32.0788934,
      "lon": 34.8407025000001,
      "label": "סופר \"יש חסד\" - בני ברק",
      "text": "",
      "stayTimes": "10:00 - 13:00",
      "t_start": "2020-04-02T08:00:00",
      "t_end": "2020-04-02T11:00:00",
      "link": ""
    },
    {
      "id": 400222,
      "lat": 31.419078719,
      "lon": 34.5959949430001,
      "label": "מסעדת טעם לשבח - שדרות",
      "text": "",
      "stayTimes": "08:00 - 08:30",
      "t_start": "2020-04-02T06:00:00",
      "t_end": "2020-04-02T06:30:00",
      "link": ""
    },
    {
      "id": 400223,
      "lat": 32.0555648280001,
      "lon": 34.86339502,
      "label": "קופת חולים כללית - קרית אונו",
      "text": "",
      "stayTimes": "07:30 - 14:00",
      "t_start": "2020-04-02T05:30:00",
      "t_end": "2020-04-02T12:00:00",
      "link": ""
    },
    {
      "id": 400224,
      "lat": 32.0751450000001,
      "lon": 34.854613,
      "label": "סופר חביב - גבעת שמואל",
      "text": "",
      "stayTimes": "09:00 - 09:30",
      "t_start": "2020-04-03T07:00:00",
      "t_end": "2020-04-03T07:30:00",
      "link": ""
    },
    {
      "id": 400225,
      "lat": 32.0754956430001,
      "lon": 34.8548399530001,
      "label": "על המשקל - גבעת שמואל",
      "text": "",
      "stayTimes": "09:30 - 09:45",
      "t_start": "2020-04-03T07:30:00",
      "t_end": "2020-04-03T07:45:00",
      "link": ""
    },
    {
      "id": 400226,
      "lat": 32.0773136,
      "lon": 34.8423142,
      "label": "שוק העיר - בני ברק",
      "text": "",
      "stayTimes": "20:30 - 22:00",
      "t_start": "2020-04-02T18:30:00",
      "t_end": "2020-04-02T20:00:00",
      "link": ""
    },
    {
      "id": 400227,
      "lat": 31.930354962,
      "lon": 34.798596252,
      "label": "סופרפארם - נס ציונה",
      "text": "",
      "stayTimes": "08:55 - 09:05",
      "t_start": "2020-04-01T06:55:00",
      "t_end": "2020-04-01T07:05:00",
      "link": ""
    },
    {
      "id": 400228,
      "lat": 32.4407945040001,
      "lon": 34.894924458,
      "label": "יוחננוף סופר מרקט - חדרה",
      "text": "",
      "stayTimes": "10:00 - 12:00",
      "t_start": "2020-04-03T08:00:00",
      "t_end": "2020-04-03T10:00:00",
      "link": ""
    },
    {
      "id": 400229,
      "lat": 31.922140217,
      "lon": 34.7937006000001,
      "label": "סופרפארם ישפרו סנטר - נס ציונה",
      "text": "",
      "stayTimes": "18:25 - 18:45",
      "t_start": "2020-04-02T16:25:00",
      "t_end": "2020-04-02T16:45:00",
      "link": ""
    },
    {
      "id": 400230,
      "lat": 32.0751450000001,
      "lon": 34.854613,
      "label": "סופר חביב - גבעת שמואל",
      "text": "",
      "stayTimes": "09:00 - 09:30",
      "t_start": "2020-04-03T07:00:00",
      "t_end": "2020-04-03T07:30:00",
      "link": ""
    },
    {
      "id": 400231,
      "lat": 31.2543038860001,
      "lon": 34.817905528,
      "label": "סופר מחסני השוק - באר שבע",
      "text": "",
      "stayTimes": "16:00 - 21:00",
      "t_start": "2020-04-01T14:00:00",
      "t_end": "2020-04-01T19:00:00",
      "link": ""
    },
    {
      "id": 400232,
      "lat": 32.1722288730001,
      "lon": 34.9248283950001,
      "label": "מרכז לסר- ביצים - כפר סבא",
      "text": "",
      "stayTimes": "15:00 - 16:00",
      "t_start": "2020-04-06T13:00:00",
      "t_end": "2020-04-06T14:00:00",
      "link": ""
    },
    {
      "id": 400233,
      "lat": 32.0541667000001,
      "lon": 34.9638889,
      "label": "נתיב החסד - אלעד",
      "text": "",
      "stayTimes": "15:00 - 15:30",
      "t_start": "2020-04-05T13:00:00",
      "t_end": "2020-04-05T13:30:00",
      "link": ""
    },
    {
      "id": 400234,
      "lat": 32.0937264,
      "lon": 34.8172910000001,
      "label": "סופר פאם קניון אילון - רמת גן",
      "text": "",
      "stayTimes": "17:30 - 18:00",
      "t_start": "2020-04-01T15:30:00",
      "t_end": "2020-04-01T16:00:00",
      "link": ""
    },
    {
      "id": 400235,
      "lat": 31.8701542580001,
      "lon": 34.821657896,
      "label": "יוחננוף בילו סנטר - קרית עקרון",
      "text": "",
      "stayTimes": "15:00 - 16:20",
      "t_start": "2020-04-01T13:00:00",
      "t_end": "2020-04-01T14:20:00",
      "link": ""
    },
    {
      "id": 400236,
      "lat": 32.0504166260001,
      "lon": 34.9503998230001,
      "label": "כולל סנטר - אלעד",
      "text": "",
      "stayTimes": "10:45 - 11:30",
      "t_start": "2020-04-05T08:45:00",
      "t_end": "2020-04-05T09:30:00",
      "link": ""
    },
    {
      "id": 400237,
      "lat": 32.7791922000001,
      "lon": 35.5029054,
      "label": "סופר מרקט יוחננוף - טבריה",
      "text": "",
      "stayTimes": "06:00 - 14:00",
      "t_start": "2020-04-02T04:00:00",
      "t_end": "2020-04-02T12:00:00",
      "link": ""
    },
    {
      "id": 400238,
      "lat": 32.7791922000001,
      "lon": 35.5029054,
      "label": "סופר מרקט יוחננוף - טבריה",
      "text": "",
      "stayTimes": "07:00 - 13:00",
      "t_start": "2020-04-05T05:00:00",
      "t_end": "2020-04-05T11:00:00",
      "link": ""
    },
    {
      "id": 400239,
      "lat": 32.7791922000001,
      "lon": 35.5029054,
      "label": "סופר מרקט יוחננוף - טבריה",
      "text": "",
      "stayTimes": "06:00 - 14:00",
      "t_start": "2020-04-01T04:00:00",
      "t_end": "2020-04-01T12:00:00",
      "link": ""
    },
    {
      "id": 400240,
      "lat": 31.9485812,
      "lon": 34.7889725000001,
      "label": "מרכז גריאטרי ראש\"צ - ראשון לציון",
      "text": "",
      "stayTimes": "08:00 - 08:30",
      "t_start": "2020-04-05T06:00:00",
      "t_end": "2020-04-05T06:30:00",
      "link": ""
    },
    {
      "id": 400241,
      "lat": 32.0552343410001,
      "lon": 34.960695565,
      "label": "שוק מהדרין - אלעד",
      "text": "",
      "stayTimes": "15:25 - 16:00",
      "t_start": "2020-04-01T13:25:00",
      "t_end": "2020-04-01T14:00:00",
      "link": ""
    },
    {
      "id": 400242,
      "lat": 31.9628202980001,
      "lon": 34.913545292,
      "label": "מכולת - גינתון",
      "text": "",
      "stayTimes": "13:15 - 13:30",
      "t_start": "2020-04-02T11:15:00",
      "t_end": "2020-04-02T11:30:00",
      "link": ""
    },
    {
      "id": 400243,
      "lat": 32.0827834,
      "lon": 34.8426542,
      "label": "צרכניית אחיעזר - בני ברק",
      "text": "",
      "stayTimes": "12:00 - 13:00",
      "t_start": "2020-04-02T10:00:00",
      "t_end": "2020-04-02T11:00:00",
      "link": ""
    },
    {
      "id": 400244,
      "lat": 31.6760700130001,
      "lon": 34.575832205,
      "label": "ויקטורי - אשקלון",
      "text": "",
      "stayTimes": "16:00 - 17:00",
      "t_start": "2020-04-01T14:00:00",
      "t_end": "2020-04-01T15:00:00",
      "link": ""
    },
    {
      "id": 400245,
      "lat": 32.0525832270001,
      "lon": 34.9512222270001,
      "label": "סופר \"יש חסד\" - אלעד",
      "text": "",
      "stayTimes": "11:00 - 12:20",
      "t_start": "2020-04-05T09:00:00",
      "t_end": "2020-04-05T10:20:00",
      "link": ""
    },
    {
      "id": 400246,
      "lat": 32.0480153020001,
      "lon": 34.9546538440001,
      "label": "סופר \"שוק מהדרין\" - אלעד",
      "text": "",
      "stayTimes": "21:00 - 21:30",
      "t_start": "2020-04-05T19:00:00",
      "t_end": "2020-04-05T19:30:00",
      "link": ""
    },
    {
      "id": 400247,
      "lat": 31.8030403000001,
      "lon": 35.2161090000001,
      "label": "מעון אורים - ירושלים",
      "text": "",
      "stayTimes": "08:00 - 08:30",
      "t_start": "2020-04-05T06:00:00",
      "t_end": "2020-04-05T06:30:00",
      "link": ""
    },
    {
      "id": 400248,
      "lat": 32.0675613000001,
      "lon": 34.7946249,
      "label": "סופר \"אושר עד\" - תל אביב - יפו",
      "text": "",
      "stayTimes": "12:30 - 14:00",
      "t_start": "2020-04-05T10:30:00",
      "t_end": "2020-04-05T12:00:00",
      "link": ""
    },
    {
      "id": 400249,
      "lat": 32.0899773560001,
      "lon": 34.8385067240001,
      "label": "חנות ירקות \"שיווק ישיר\" - בני ברק",
      "text": "",
      "stayTimes": "13:00 - 14:00",
      "t_start": "2020-04-01T11:00:00",
      "t_end": "2020-04-01T12:00:00",
      "link": ""
    },
    {
      "id": 400250,
      "lat": 31.9094111000001,
      "lon": 34.8054978000001,
      "label": "סופר פארם שער רחובות - רחובות",
      "text": "",
      "stayTimes": "21:00 - 22:00",
      "t_start": "2020-04-03T19:00:00",
      "t_end": "2020-04-03T20:00:00",
      "link": ""
    },
    {
      "id": 400251,
      "lat": 31.3103803000001,
      "lon": 34.629463,
      "label": "מפעל שניב תעשיות נייר - אופקים",
      "text": "",
      "stayTimes": "07:30 - 12:00",
      "t_start": "2020-04-04T05:30:00",
      "t_end": "2020-04-04T10:00:00",
      "link": ""
    },
    {
      "id": 400252,
      "lat": 31.3103803000001,
      "lon": 34.629463,
      "label": "שניב תעשיית נייר - אופקים",
      "text": "",
      "stayTimes": "08:00 - 12:30",
      "t_start": "2020-04-01T06:00:00",
      "t_end": "2020-04-01T10:30:00",
      "link": ""
    },
    {
      "id": 400253,
      "lat": 31.416920222,
      "lon": 34.5902385630001,
      "label": "סופר כהן אזור התעשיה - נתיבות",
      "text": "",
      "stayTimes": "16:00 - 18:00",
      "t_start": "2020-04-05T14:00:00",
      "t_end": "2020-04-05T16:00:00",
      "link": ""
    },
    {
      "id": 400254,
      "lat": 31.3945686060001,
      "lon": 34.77711365,
      "label": "נעים מרקט - רהט",
      "text": "",
      "stayTimes": "08:00 - 08:30",
      "t_start": "2020-04-04T06:00:00",
      "t_end": "2020-04-04T06:30:00",
      "link": ""
    },
    {
      "id": 400255,
      "lat": 32.0827834,
      "lon": 34.8426542,
      "label": "צרכניית אחיעזר - בני ברק",
      "text": "",
      "stayTimes": "19:00 - 21:00",
      "t_start": "2020-04-02T17:00:00",
      "t_end": "2020-04-02T19:00:00",
      "link": ""
    },
    {
      "id": 400256,
      "lat": 32.0827834,
      "lon": 34.8426542,
      "label": "צרכניית אחיעזר - בני ברק",
      "text": "",
      "stayTimes": "09:30 - 12:30",
      "t_start": "2020-04-03T07:30:00",
      "t_end": "2020-04-03T10:30:00",
      "link": ""
    },
    {
      "id": 400257,
      "lat": 32.6750960000001,
      "lon": 35.2498850000001,
      "label": "בית מרקחת קופ\"ח נוף העמק - מגדל העמק",
      "text": "",
      "stayTimes": "10:00 - 11:00",
      "t_start": "2020-04-04T08:00:00",
      "t_end": "2020-04-04T09:00:00",
      "link": ""
    },
    {
      "id": 400258,
      "lat": 32.6821624,
      "lon": 35.2773957000001,
      "label": "בית מרקחת  של קופ\"ח כללית - יפיע",
      "text": "",
      "stayTimes": "10:00 - 10:30",
      "t_start": "2020-04-05T08:00:00",
      "t_end": "2020-04-05T08:30:00",
      "link": ""
    },
    {
      "id": 400259,
      "lat": 32.0100150000001,
      "lon": 34.8097050000001,
      "label": "סניף חצי חינם - חולון",
      "text": "",
      "stayTimes": "11:30 - 13:00",
      "t_start": "2020-04-02T09:30:00",
      "t_end": "2020-04-02T11:00:00",
      "link": ""
    },
    {
      "id": 400260,
      "lat": 32.7791922000001,
      "lon": 35.5029054,
      "label": "סופר מרקט יוחננוף - טבריה",
      "text": "",
      "stayTimes": "00:00 - 06:00",
      "t_start": "2020-04-02T22:00:00",
      "t_end": "2020-04-03T04:00:00",
      "link": ""
    },
    {
      "id": 400261,
      "lat": 32.451313,
      "lon": 34.8957780000001,
      "label": "רנטגן הלל יפה - חדרה",
      "text": "",
      "stayTimes": "14:30 - 22:30",
      "t_start": "2020-04-08T12:30:00",
      "t_end": "2020-04-08T20:30:00",
      "link": ""
    },
    {
      "id": 400262,
      "lat": 31.7553799,
      "lon": 35.2236139,
      "label": "טרם תלפיות - ירושלים",
      "text": "",
      "stayTimes": "19:00 - 20:00",
      "t_start": "2020-04-04T17:00:00",
      "t_end": "2020-04-04T18:00:00",
      "link": ""
    },
    {
      "id": 400263,
      "lat": 32.052599582,
      "lon": 34.9512085910001,
      "label": "סופר \"יש חסד\" - אלעד",
      "text": "",
      "stayTimes": "12:30 - 13:30",
      "t_start": "2020-04-02T10:30:00",
      "t_end": "2020-04-02T11:30:00",
      "link": ""
    },
    {
      "id": 400264,
      "lat": 32.4623320160001,
      "lon": 35.046626772,
      "label": "שופרסל אקספרס - חריש",
      "text": "",
      "stayTimes": "19:30 - 20:00",
      "t_start": "2020-04-07T17:30:00",
      "t_end": "2020-04-07T18:00:00",
      "link": ""
    },
    {
      "id": 400265,
      "lat": 31.6109624000001,
      "lon": 34.7546495,
      "label": "ברכת אלעזר - קרית גת",
      "text": "",
      "stayTimes": "12:30 - 14:30",
      "t_start": "2020-04-03T10:30:00",
      "t_end": "2020-04-03T12:30:00",
      "link": ""
    },
    {
      "id": 400266,
      "lat": 31.7970699000001,
      "lon": 34.6486206000001,
      "label": "שוק העיר - אשדוד",
      "text": "",
      "stayTimes": "08:45 - 16:00",
      "t_start": "2020-04-01T06:45:00",
      "t_end": "2020-04-01T14:00:00",
      "link": ""
    },
    {
      "id": 400267,
      "lat": 31.7970699000001,
      "lon": 34.6486206000001,
      "label": "שוק העיר - אשדוד",
      "text": "",
      "stayTimes": "16:00 - 19:30",
      "t_start": "2020-04-02T14:00:00",
      "t_end": "2020-04-02T17:30:00",
      "link": ""
    },
    {
      "id": 400268,
      "lat": 31.7617113000001,
      "lon": 35.1977669,
      "label": "מרפאת מאוחדת בגבעת מרדכי - ירושלים",
      "text": "",
      "stayTimes": "10:00 - 12:00",
      "t_start": "2020-04-01T08:00:00",
      "t_end": "2020-04-01T10:00:00",
      "link": ""
    },
    {
      "id": 400269,
      "lat": 31.7617156000001,
      "lon": 35.1977709000001,
      "label": "בית מרקחת מאוחדת בגבעת מרדכי - ירושלים",
      "text": "",
      "stayTimes": "10:00 - 12:00",
      "t_start": "2020-04-01T08:00:00",
      "t_end": "2020-04-01T10:00:00",
      "link": ""
    },
    {
      "id": 400270,
      "lat": 31.856344994,
      "lon": 35.2198147080001,
      "label": "גלאט עוף - ירושלים",
      "text": "",
      "stayTimes": "08:00 - 08:30",
      "t_start": "2020-04-01T06:00:00",
      "t_end": "2020-04-01T06:30:00",
      "link": ""
    },
    {
      "id": 400271,
      "lat": 32.032746655,
      "lon": 34.851054907,
      "label": "סופר יוחננוף - אור יהודה",
      "text": "",
      "stayTimes": "13:30 - 15:30",
      "t_start": "2020-04-01T11:30:00",
      "t_end": "2020-04-01T13:30:00",
      "link": ""
    },
    {
      "id": 400272,
      "lat": 31.2567036,
      "lon": 35.2087649000001,
      "label": "חנות \"אדלר דגים\" - ערד",
      "text": "",
      "stayTimes": "12:00 - 12:10",
      "t_start": "2020-04-03T10:00:00",
      "t_end": "2020-04-03T10:10:00",
      "link": ""
    },
    {
      "id": 400273,
      "lat": 31.2563912970001,
      "lon": 35.20824499,
      "label": "חנות ירקות\" ברכת הדה\" - ערד",
      "text": "",
      "stayTimes": "12:10 - 12:40",
      "t_start": "2020-04-03T10:10:00",
      "t_end": "2020-04-03T10:40:00",
      "link": ""
    },
    {
      "id": 400274,
      "lat": 32.083679573,
      "lon": 34.827650249,
      "label": "עריית בני ברק - בני ברק",
      "text": "",
      "stayTimes": "08:00 - 11:00",
      "t_start": "2020-04-02T06:00:00",
      "t_end": "2020-04-02T09:00:00",
      "link": ""
    },
    {
      "id": 400275,
      "lat": 32.0862991000001,
      "lon": 34.8348894000001,
      "label": "רשת נתיב החסד - בני ברק",
      "text": "",
      "stayTimes": "07:00 - 09:00",
      "t_start": "2020-04-07T05:00:00",
      "t_end": "2020-04-07T07:00:00",
      "link": ""
    },
    {
      "id": 400276,
      "lat": 32.0891573540001,
      "lon": 34.8440267920001,
      "label": "רשת נתיב החסד - בני ברק",
      "text": "",
      "stayTimes": "12:30 - 13:00",
      "t_start": "2020-04-07T10:30:00",
      "t_end": "2020-04-07T11:00:00",
      "link": ""
    },
    {
      "id": 400277,
      "lat": 32.0796249000001,
      "lon": 34.8411712000001,
      "label": "ברכול - בני ברק",
      "text": "",
      "stayTimes": "11:00 - 12:00",
      "t_start": "2020-04-07T09:00:00",
      "t_end": "2020-04-07T10:00:00",
      "link": ""
    },
    {
      "id": 400278,
      "lat": 32.086883636,
      "lon": 34.826847243,
      "label": "רשת נתיב החסד - בני ברק",
      "text": "",
      "stayTimes": "09:30 - 10:30",
      "t_start": "2020-04-07T07:30:00",
      "t_end": "2020-04-07T08:30:00",
      "link": ""
    },
    {
      "id": 400279,
      "lat": 31.7199276870001,
      "lon": 35.0896630180001,
      "label": "for home - צור הדסה",
      "text": "",
      "stayTimes": "17:00 - 18:00",
      "t_start": "2020-04-02T15:00:00",
      "t_end": "2020-04-02T16:00:00",
      "link": ""
    },
    {
      "id": 400280,
      "lat": 32.0692707000001,
      "lon": 34.8386134,
      "label": "ברכול - רמת גן",
      "text": "",
      "stayTimes": "09:00 - 12:30",
      "t_start": "2020-04-06T07:00:00",
      "t_end": "2020-04-06T10:30:00",
      "link": ""
    },
    {
      "id": 400281,
      "lat": 31.7970699000001,
      "lon": 34.6486206000001,
      "label": "שוק העיר - אשדוד",
      "text": "",
      "stayTimes": "08:45 - 16:00",
      "t_start": "2020-04-01T06:45:00",
      "t_end": "2020-04-01T14:00:00",
      "link": ""
    },
    {
      "id": 400282,
      "lat": 32.090804238,
      "lon": 34.8389328600001,
      "label": "יש חסד - בני ברק",
      "text": "",
      "stayTimes": "11:30 - 12:00",
      "t_start": "2020-04-03T09:30:00",
      "t_end": "2020-04-03T10:00:00",
      "link": ""
    },
    {
      "id": 400283,
      "lat": 32.0859644000001,
      "lon": 34.8315077,
      "label": "מעיין 2000 - בני ברק",
      "text": "",
      "stayTimes": "10:30 - 12:00",
      "t_start": "2020-04-02T08:30:00",
      "t_end": "2020-04-02T10:00:00",
      "link": ""
    },
    {
      "id": 400284,
      "lat": 32.0905592940001,
      "lon": 34.8345385960001,
      "label": "מעיין 2000 - בני ברק",
      "text": "",
      "stayTimes": "08:30 - 11:00",
      "t_start": "2020-04-03T06:30:00",
      "t_end": "2020-04-03T09:00:00",
      "link": ""
    },
    {
      "id": 400285,
      "lat": 32.0751126710001,
      "lon": 34.838131892,
      "label": "נתיב החסד - בני ברק",
      "text": "",
      "stayTimes": "09:00 - 10:00",
      "t_start": "2020-04-05T07:00:00",
      "t_end": "2020-04-05T08:00:00",
      "link": ""
    },
    {
      "id": 400286,
      "lat": 32.1028236000001,
      "lon": 34.8361701000001,
      "label": "שופרסל דיל - בני ברק",
      "text": "",
      "stayTimes": "21:00 - 22:00",
      "t_start": "2020-04-04T19:00:00",
      "t_end": "2020-04-04T20:00:00",
      "link": ""
    },
    {
      "id": 400287,
      "lat": 32.1018083000001,
      "lon": 34.8298623000001,
      "label": "רמי לוי - בני ברק",
      "text": "",
      "stayTimes": "18:00 - 19:00",
      "t_start": "2020-04-06T16:00:00",
      "t_end": "2020-04-06T17:00:00",
      "link": ""
    },
    {
      "id": 400288,
      "lat": 32.098441286,
      "lon": 34.8242140410001,
      "label": "ויקטורי בקניון איילון - רמת גן",
      "text": "",
      "stayTimes": "19:00 - 20:00",
      "t_start": "2020-04-06T17:00:00",
      "t_end": "2020-04-06T18:00:00",
      "link": ""
    },
    {
      "id": 400289,
      "lat": 32.0467100000001,
      "lon": 34.8428520000001,
      "label": "מתחם קורונה תל השומר - רמת גן",
      "text": "",
      "stayTimes": "15:00 - 18:00",
      "t_start": "2020-04-02T13:00:00",
      "t_end": "2020-04-02T16:00:00",
      "link": ""
    },
    {
      "id": 400290,
      "lat": 31.987137402,
      "lon": 34.765414671,
      "label": "שופרסל - ראשון לציון",
      "text": "",
      "stayTimes": "06:00 - 15:00",
      "t_start": "2020-04-01T04:00:00",
      "t_end": "2020-04-01T13:00:00",
      "link": ""
    },
    {
      "id": 400291,
      "lat": 32.0905605450001,
      "lon": 34.8670575350001,
      "label": "בית חולים בלינסון - פתח תקווה",
      "text": "",
      "stayTimes": "07:45 - 12:15",
      "t_start": "2020-04-06T05:45:00",
      "t_end": "2020-04-06T10:15:00",
      "link": ""
    },
    {
      "id": 400292,
      "lat": 32.0885748740001,
      "lon": 34.889485597,
      "label": "קופת חולים לאומית - פתח תקווה",
      "text": "",
      "stayTimes": "08:00 - 08:20",
      "t_start": "2020-04-02T06:00:00",
      "t_end": "2020-04-02T06:20:00",
      "link": ""
    },
    {
      "id": 400293,
      "lat": 32.0885839650001,
      "lon": 34.889469504,
      "label": "קופת חולים לאומית - פתח תקווה",
      "text": "",
      "stayTimes": "08:00 - 08:20",
      "t_start": "2020-04-05T06:00:00",
      "t_end": "2020-04-05T06:20:00",
      "link": ""
    },
    {
      "id": 400294,
      "lat": 32.0801900000001,
      "lon": 34.8754429000001,
      "label": "טרם מוקד רפואה דחופה - פתח תקווה",
      "text": "",
      "stayTimes": "22:20 - 00:00",
      "t_start": "2020-04-03T20:20:00",
      "t_end": "2020-04-02T22:00:00",
      "link": ""
    },
    {
      "id": 400295,
      "lat": 32.0967519980001,
      "lon": 34.840960135,
      "label": "נתיב החסד - בני ברק",
      "text": "",
      "stayTimes": "12:00 - 14:30",
      "t_start": "2020-04-05T10:00:00",
      "t_end": "2020-04-05T12:30:00",
      "link": ""
    },
    {
      "id": 400296,
      "lat": 32.0986354120001,
      "lon": 34.839776977,
      "label": "נתיב החסד - בני ברק",
      "text": "",
      "stayTimes": "14:30 - 16:30",
      "t_start": "2020-04-05T12:30:00",
      "t_end": "2020-04-05T14:30:00",
      "link": ""
    },
    {
      "id": 400297,
      "lat": 32.0974892090001,
      "lon": 34.836421236,
      "label": "נתיב החסד - בני ברק",
      "text": "",
      "stayTimes": "08:00 - 09:00",
      "t_start": "2020-04-05T06:00:00",
      "t_end": "2020-04-05T07:00:00",
      "link": ""
    },
    {
      "id": 400298,
      "lat": 32.1018083000001,
      "lon": 34.8298623000001,
      "label": "רמי לוי - בני ברק",
      "text": "",
      "stayTimes": "22:00 - 23:30",
      "t_start": "2020-04-04T20:00:00",
      "t_end": "2020-04-04T21:30:00",
      "link": ""
    },
    {
      "id": 400299,
      "lat": 31.8030403000001,
      "lon": 35.2161090000001,
      "label": "בית אבות שומרי חומות - ירושלים",
      "text": "",
      "stayTimes": "08:00 - 08:30",
      "t_start": "2020-04-03T06:00:00",
      "t_end": "2020-04-03T06:30:00",
      "link": ""
    },
    {
      "id": 400300,
      "lat": 31.9397089340001,
      "lon": 35.038911462,
      "label": "מאפיית הודיה - מודיעין עילית",
      "text": "",
      "stayTimes": "18:30 - 08:45",
      "t_start": "2020-04-02T16:30:00",
      "t_end": "2020-04-02T06:45:00",
      "link": ""
    },
    {
      "id": 400301,
      "lat": 32.1655278000001,
      "lon": 34.8419696,
      "label": "קופת חולים מאוחדת - הרצליה",
      "text": "",
      "stayTimes": "13:30 - 14:00",
      "t_start": "2020-04-05T11:30:00",
      "t_end": "2020-04-05T12:00:00",
      "link": ""
    },
    {
      "id": 400302,
      "lat": 32.0827834,
      "lon": 34.8426542,
      "label": "צרכניה אחיעזר - בני ברק",
      "text": "",
      "stayTimes": "19:00 - 20:00",
      "t_start": "2020-04-05T17:00:00",
      "t_end": "2020-04-05T18:00:00",
      "link": ""
    },
    {
      "id": 400303,
      "lat": 31.9839168010001,
      "lon": 34.7689122560001,
      "label": "סופר רמי לוי מתחם G סינמה סיטי - ראשון לציון",
      "text": "",
      "stayTimes": "12:30 - 13:06",
      "t_start": "2020-04-06T10:30:00",
      "t_end": "2020-04-06T11:06:00",
      "link": ""
    },
    {
      "id": 400304,
      "lat": 32.0833881,
      "lon": 34.8405592,
      "label": "קופ\"ח מכבי בני ברק רח\" קהנמן 64 - בני ברק",
      "text": "",
      "stayTimes": "17:40 - 18:10",
      "t_start": "2020-04-06T15:40:00",
      "t_end": "2020-04-06T16:10:00",
      "link": ""
    },
    {
      "id": 400305,
      "lat": 31.764983806,
      "lon": 35.1494208570001,
      "label": "מח' תינוקות בי\"ח הדסה - ירושלים",
      "text": "",
      "stayTimes": "07:00 - 14:00",
      "t_start": "2020-04-06T05:00:00",
      "t_end": "2020-04-06T12:00:00",
      "link": ""
    },
    {
      "id": 400306,
      "lat": 31.7649503000001,
      "lon": 35.1494106000001,
      "label": "מח' תינוקות בהדסה - ירושלים",
      "text": "",
      "stayTimes": "07:00 - 15:00",
      "t_start": "2020-04-02T05:00:00",
      "t_end": "2020-04-02T13:00:00",
      "link": ""
    },
    {
      "id": 400307,
      "lat": 31.7649503000001,
      "lon": 35.1494106000001,
      "label": "מח' תינוקות בהדסה - ירושלים",
      "text": "",
      "stayTimes": "07:00 - 15:00",
      "t_start": "2020-04-01T05:00:00",
      "t_end": "2020-04-01T13:00:00",
      "link": ""
    },
    {
      "id": 400308,
      "lat": 31.7868018410001,
      "lon": 35.2099549070001,
      "label": "מוקד ערב של קופת חולים מאוחדת - ירושלים",
      "text": "",
      "stayTimes": "21:00 - 23:00",
      "t_start": "2020-04-05T19:00:00",
      "t_end": "2020-04-05T21:00:00",
      "link": ""
    },
    {
      "id": 400309,
      "lat": 31.7867898440001,
      "lon": 35.2099478700001,
      "label": "קופת חולים מאוחדת - ירושלים",
      "text": "",
      "stayTimes": "12:00 - 12:45",
      "t_start": "2020-04-06T10:00:00",
      "t_end": "2020-04-06T10:45:00",
      "link": ""
    },
    {
      "id": 400310,
      "lat": 32.0504127,
      "lon": 34.9504010000001,
      "label": "כולל סטור - אלעד",
      "text": "",
      "stayTimes": "17:00 - 17:30",
      "t_start": "2020-04-02T15:00:00",
      "t_end": "2020-04-02T15:30:00",
      "link": ""
    },
    {
      "id": 400311,
      "lat": 32.1058543,
      "lon": 34.9402346000001,
      "label": "סופר \"יינות ביתן\" - ראש העין",
      "text": "",
      "stayTimes": "18:00 - 18:30",
      "t_start": "2020-04-02T16:00:00",
      "t_end": "2020-04-02T16:30:00",
      "link": ""
    },
    {
      "id": 400312,
      "lat": 32.0742854000001,
      "lon": 34.8699868,
      "label": "שופר סל שלי/קיון גנים - פתח תקווה",
      "text": "",
      "stayTimes": "12:00 - 12:30",
      "t_start": "2020-04-01T10:00:00",
      "t_end": "2020-04-01T10:30:00",
      "link": ""
    },
    {
      "id": 400313,
      "lat": 31.7888178960001,
      "lon": 35.338612448,
      "label": "ליאן יצור ושיווק בע\"מ - מעלה אדומים",
      "text": "",
      "stayTimes": "08:00 - 08:30",
      "t_start": "2020-04-01T06:00:00",
      "t_end": "2020-04-01T06:30:00",
      "link": ""
    },
    {
      "id": 400314,
      "lat": 31.7888409,
      "lon": 35.3386003000001,
      "label": "יקב ציון - מעלה אדומים",
      "text": "",
      "stayTimes": "08:00 - 08:30",
      "t_start": "2020-04-01T06:00:00",
      "t_end": "2020-04-01T06:30:00",
      "link": ""
    },
    {
      "id": 400315,
      "lat": 31.7905403,
      "lon": 35.3337349,
      "label": "מאפיית ביכורים - מעלה אדומים",
      "text": "",
      "stayTimes": "08:00 - 08:30",
      "t_start": "2020-04-01T06:00:00",
      "t_end": "2020-04-01T06:30:00",
      "link": ""
    },
    {
      "id": 400316,
      "lat": 31.793080375,
      "lon": 35.3351584710001,
      "label": "מפעל מיה - מעלה אדומים",
      "text": "",
      "stayTimes": "08:00 - 08:30",
      "t_start": "2020-04-01T06:00:00",
      "t_end": "2020-04-01T06:30:00",
      "link": ""
    },
    {
      "id": 400317,
      "lat": 31.7928283000001,
      "lon": 34.6535121000001,
      "label": "מרקט בראש צעיר - אשדוד",
      "text": "",
      "stayTimes": "12:00 - 12:30",
      "t_start": "2020-04-03T10:00:00",
      "t_end": "2020-04-03T10:30:00",
      "link": ""
    },
    {
      "id": 400318,
      "lat": 31.7892705800001,
      "lon": 35.2181986470001,
      "label": "קופת חולים מאוחדת פסגת זאב - ירושלים",
      "text": "",
      "stayTimes": "16:45 - 17:00",
      "t_start": "2020-04-05T14:45:00",
      "t_end": "2020-04-05T15:00:00",
      "link": ""
    },
    {
      "id": 400319,
      "lat": 32.0862991000001,
      "lon": 34.8348894000001,
      "label": "נתיב החסד - בני ברק",
      "text": "",
      "stayTimes": "11:00 - 11:30",
      "t_start": "2020-04-03T09:00:00",
      "t_end": "2020-04-03T09:30:00",
      "link": ""
    },
    {
      "id": 400320,
      "lat": 32.0840122000001,
      "lon": 34.8342287,
      "label": "מכולת מילר - בני ברק",
      "text": "",
      "stayTimes": "11:00 - 11:30",
      "t_start": "2020-04-02T09:00:00",
      "t_end": "2020-04-02T09:30:00",
      "link": ""
    },
    {
      "id": 400321,
      "lat": 32.131060201,
      "lon": 34.8938519270001,
      "label": "הנגר 3, הוד השרון",
      "text": "",
      "stayTimes": "09:00 - 17:00",
      "t_start": "2020-04-01T07:00:00",
      "t_end": "2020-04-01T15:00:00",
      "link": ""
    },
    {
      "id": 400322,
      "lat": 32.1557439000001,
      "lon": 34.8911459,
      "label": "\"שקדיה\" - הוד השרון",
      "text": "",
      "stayTimes": "08:00 - 08:30",
      "t_start": "2020-04-08T06:00:00",
      "t_end": "2020-04-08T06:30:00",
      "link": ""
    },
    {
      "id": 400323,
      "lat": 32.1558361,
      "lon": 34.8911464,
      "label": "בית מרקחת של מכבי - הוד השרון",
      "text": "",
      "stayTimes": "08:00 - 08:30",
      "t_start": "2020-04-08T06:00:00",
      "t_end": "2020-04-08T06:30:00",
      "link": ""
    },
    {
      "id": 400324,
      "lat": 32.1558146,
      "lon": 34.8910203,
      "label": "מעדניה - הוד השרון",
      "text": "",
      "stayTimes": "08:00 - 08:30",
      "t_start": "2020-04-08T06:00:00",
      "t_end": "2020-04-08T06:30:00",
      "link": ""
    },
    {
      "id": 400325,
      "lat": 32.1591120000001,
      "lon": 34.8883456,
      "label": "מגה בעיר - הוד השרון",
      "text": "",
      "stayTimes": "08:00 - 08:30",
      "t_start": "2020-04-08T06:00:00",
      "t_end": "2020-04-08T06:30:00",
      "link": ""
    },
    {
      "id": 400326,
      "lat": 32.1690857,
      "lon": 34.8775149000001,
      "label": "חנות משק - גבעת ח\"ן",
      "text": "",
      "stayTimes": "08:00 - 08:30",
      "t_start": "2020-04-08T06:00:00",
      "t_end": "2020-04-08T06:30:00",
      "link": ""
    },
    {
      "id": 400327,
      "lat": 32.1432281,
      "lon": 34.891664,
      "label": "סופר בקניון עזריאל - הוד השרון",
      "text": "",
      "stayTimes": "08:00 - 08:30",
      "t_start": "2020-04-08T06:00:00",
      "t_end": "2020-04-08T06:30:00",
      "link": ""
    },
    {
      "id": 400328,
      "lat": 32.0710518220001,
      "lon": 34.8022676530001,
      "label": "בית הקברות רמב\"מ - גבעתיים",
      "text": "",
      "stayTimes": "08:00 - 21:00",
      "t_start": "2020-04-08T06:00:00",
      "t_end": "2020-04-08T19:00:00",
      "link": ""
    },
    {
      "id": 400329,
      "lat": 32.779623171,
      "lon": 35.5114331830001,
      "label": "הנשיא ויצמן 1017, טבריה",
      "text": "",
      "stayTimes": "12:00 - 13:30",
      "t_start": "2020-04-07T10:00:00",
      "t_end": "2020-04-07T11:30:00",
      "link": ""
    },
    {
      "id": 400330,
      "lat": 32.7792120440001,
      "lon": 35.50291163,
      "label": "החרושת 10, טבריה",
      "text": "",
      "stayTimes": "13:45 - 14:15",
      "t_start": "2020-04-07T11:45:00",
      "t_end": "2020-04-07T12:15:00",
      "link": ""
    },
    {
      "id": 400331,
      "lat": 32.0967416670001,
      "lon": 34.8858377930001,
      "label": "\"צמיגי המושבה\" - פתח תקווה",
      "text": "",
      "stayTimes": "07:00 - 14:00",
      "t_start": "2020-04-03T05:00:00",
      "t_end": "2020-04-03T12:00:00",
      "link": ""
    },
    {
      "id": 400332,
      "lat": 32.096705764,
      "lon": 34.8856532980001,
      "label": "סופר \"יינות ביתן\" - פתח תקווה",
      "text": "",
      "stayTimes": "12:00 - 13:00",
      "t_start": "2020-04-03T10:00:00",
      "t_end": "2020-04-03T11:00:00",
      "link": ""
    },
    {
      "id": 400333,
      "lat": 32.7791922000001,
      "lon": 35.5029054,
      "label": "סופר מרקט יוחננוף - טבריה",
      "text": "",
      "stayTimes": "07:30 - 07:45",
      "t_start": "2020-04-05T05:30:00",
      "t_end": "2020-04-05T05:45:00",
      "link": ""
    },
    {
      "id": 400334,
      "lat": 32.0556009000001,
      "lon": 34.8631348000001,
      "label": "סופר \"מגה\" - קרית אונו",
      "text": "",
      "stayTimes": "07:00 - 07:30",
      "t_start": "2020-04-07T05:00:00",
      "t_end": "2020-04-07T05:30:00",
      "link": ""
    },
    {
      "id": 400335,
      "lat": 32.0880423,
      "lon": 34.8884476000001,
      "label": "סניף דואר - פתח תקווה",
      "text": "",
      "stayTimes": "12:00 - 12:30",
      "t_start": "2020-04-07T10:00:00",
      "t_end": "2020-04-07T10:30:00",
      "link": ""
    },
    {
      "id": 400336,
      "lat": 32.4587389500001,
      "lon": 35.0443252960001,
      "label": "שופרסל אקספרס - חריש",
      "text": "",
      "stayTimes": "08:00 - 08:30",
      "t_start": "2020-04-06T06:00:00",
      "t_end": "2020-04-06T06:30:00",
      "link": ""
    },
    {
      "id": 400337,
      "lat": 32.0796249000001,
      "lon": 34.8411712000001,
      "label": "בר כל - בני ברק",
      "text": "",
      "stayTimes": "12:30 - 14:00",
      "t_start": "2020-04-07T10:30:00",
      "t_end": "2020-04-07T12:00:00",
      "link": ""
    },
    {
      "id": 400338,
      "lat": 32.795186373,
      "lon": 35.5246994020001,
      "label": "קופת חולים רקתי - טבריה",
      "text": "",
      "stayTimes": "08:30 - 09:00",
      "t_start": "2020-04-03T06:30:00",
      "t_end": "2020-04-03T07:00:00",
      "link": ""
    },
    {
      "id": 400339,
      "lat": 33.087312642,
      "lon": 35.174014722,
      "label": "מרכולית קיבוץ חניתה - חניתה",
      "text": "",
      "stayTimes": "15:00 - 15:30",
      "t_start": "2020-04-01T13:00:00",
      "t_end": "2020-04-01T13:30:00",
      "link": ""
    },
    {
      "id": 400340,
      "lat": 33.0873216310001,
      "lon": 35.174017404,
      "label": "מרכולית קיבוץ חניתה - חניתה",
      "text": "",
      "stayTimes": "09:00 - 09:30",
      "t_start": "2020-04-03T07:00:00",
      "t_end": "2020-04-03T07:30:00",
      "link": ""
    },
    {
      "id": 400341,
      "lat": 31.7553923200001,
      "lon": 35.223620322,
      "label": "טרם - ירושלים",
      "text": "",
      "stayTimes": "09:30 - 10:30",
      "t_start": "2020-04-06T07:30:00",
      "t_end": "2020-04-06T08:30:00",
      "link": ""
    },
    {
      "id": 400342,
      "lat": 32.05697,
      "lon": 34.8662897,
      "label": "נתח קצבים - קרית אונו",
      "text": "",
      "stayTimes": "11:00 - 12:00",
      "t_start": "2020-04-03T09:00:00",
      "t_end": "2020-04-03T10:00:00",
      "link": ""
    },
    {
      "id": 400343,
      "lat": 32.052559,
      "lon": 34.9512194000001,
      "label": "סופרמרקט יש חסד - אלעד",
      "text": "",
      "stayTimes": "06:30 - 19:00",
      "t_start": "2020-04-01T04:30:00",
      "t_end": "2020-04-01T17:00:00",
      "link": ""
    },
    {
      "id": 400344,
      "lat": 32.052559,
      "lon": 34.9512194000001,
      "label": "סופרמרקט יש חסד - אלעד",
      "text": "",
      "stayTimes": "08:00 - 08:30",
      "t_start": "2020-04-02T06:00:00",
      "t_end": "2020-04-02T06:30:00",
      "link": ""
    },
    {
      "id": 400345,
      "lat": 32.052559,
      "lon": 34.9512194000001,
      "label": "סופרמרקט יש חסד - אלעד",
      "text": "",
      "stayTimes": "05:00 - 23:30",
      "t_start": "2020-04-03T03:00:00",
      "t_end": "2020-04-03T21:30:00",
      "link": ""
    },
    {
      "id": 400346,
      "lat": 32.0513154550001,
      "lon": 34.959995506,
      "label": "בית מרקחת קופ'ח מאוחדת - אלעד",
      "text": "",
      "stayTimes": "16:00 - 16:30",
      "t_start": "2020-04-02T14:00:00",
      "t_end": "2020-04-02T14:30:00",
      "link": ""
    },
    {
      "id": 400347,
      "lat": 32.0523487,
      "lon": 34.961865,
      "label": "מרכז מסחרי נחלת יצחק - אלעד",
      "text": "",
      "stayTimes": "16:30 - 22:00",
      "t_start": "2020-04-02T14:30:00",
      "t_end": "2020-04-02T20:00:00",
      "link": ""
    },
    {
      "id": 400348,
      "lat": 31.8652568000001,
      "lon": 35.1681530000001,
      "label": "סופר מחסני השוק - גבעת זאב",
      "text": "",
      "stayTimes": "21:30 - 22:30",
      "t_start": "2020-04-07T19:30:00",
      "t_end": "2020-04-07T20:30:00",
      "link": ""
    },
    {
      "id": 400349,
      "lat": 31.8652905930001,
      "lon": 35.1678811200001,
      "label": "מרקטו 2000 - גבעת זאב",
      "text": "",
      "stayTimes": "11:00 - 11:30",
      "t_start": "2020-04-08T09:00:00",
      "t_end": "2020-04-08T09:30:00",
      "link": ""
    },
    {
      "id": 400350,
      "lat": 31.785263688,
      "lon": 35.1830198820001,
      "label": "אושר עד - ירושלים",
      "text": "",
      "stayTimes": "18:00 - 19:00",
      "t_start": "2020-04-02T16:00:00",
      "t_end": "2020-04-02T17:00:00",
      "link": ""
    },
    {
      "id": 400351,
      "lat": 32.182369911,
      "lon": 34.8955200460001,
      "label": "בית חולים מאיר - כפר סבא",
      "text": "",
      "stayTimes": "19:00 - 19:30",
      "t_start": "2020-04-08T17:00:00",
      "t_end": "2020-04-08T17:30:00",
      "link": ""
    },
    {
      "id": 400352,
      "lat": 31.7926447730001,
      "lon": 35.2241985920001,
      "label": "סופר - ירושלים",
      "text": "",
      "stayTimes": "09:00 - 09:30",
      "t_start": "2020-04-05T07:00:00",
      "t_end": "2020-04-05T07:30:00",
      "link": ""
    },
    {
      "id": 400353,
      "lat": 31.796121,
      "lon": 35.2260880000001,
      "label": "מעלות דפנה 48, ירושלים",
      "text": "",
      "stayTimes": "08:00 - 08:30",
      "t_start": "2020-04-02T06:00:00",
      "t_end": "2020-04-02T06:30:00",
      "link": ""
    },
    {
      "id": 400354,
      "lat": 31.937298766,
      "lon": 35.043176385,
      "label": "ברכת הרשבי - מודיעין עילית",
      "text": "",
      "stayTimes": "13:00 - 13:15",
      "t_start": "2020-04-05T11:00:00",
      "t_end": "2020-04-05T11:15:00",
      "link": ""
    },
    {
      "id": 400355,
      "lat": 32.4659574090001,
      "lon": 34.9787887540001,
      "label": "הדקלים 20, פרדס חנה-כרכור",
      "text": "",
      "stayTimes": "08:00 - 08:30",
      "t_start": "2020-04-04T06:00:00",
      "t_end": "2020-04-04T06:30:00",
      "link": ""
    },
    {
      "id": 400356,
      "lat": 31.0649096000001,
      "lon": 35.0183159000001,
      "label": "קייטרינג השף והסועד - דימונה",
      "text": "",
      "stayTimes": "10:00 - 11:00",
      "t_start": "2020-04-03T08:00:00",
      "t_end": "2020-04-03T09:00:00",
      "link": ""
    },
    {
      "id": 400357,
      "lat": 32.0927754000001,
      "lon": 34.9662168,
      "label": "סופר פארם גבעת טל - ראש העין",
      "text": "",
      "stayTimes": "10:30 - 11:00",
      "t_start": "2020-04-02T08:30:00",
      "t_end": "2020-04-02T09:00:00",
      "link": ""
    },
    {
      "id": 400358,
      "lat": 32.092372347,
      "lon": 34.966180136,
      "label": "שופר סל גבעת טל - ראש העין",
      "text": "",
      "stayTimes": "10:30 - 12:00",
      "t_start": "2020-04-02T08:30:00",
      "t_end": "2020-04-02T10:00:00",
      "link": ""
    },
    {
      "id": 400359,
      "lat": 31.7904638750001,
      "lon": 35.208752379,
      "label": "כללית סניף מקור ברוך - ירושלים",
      "text": "",
      "stayTimes": "08:00 - 17:00",
      "t_start": "2020-04-03T06:00:00",
      "t_end": "2020-04-03T15:00:00",
      "link": ""
    },
    {
      "id": 400360,
      "lat": 31.2240555000001,
      "lon": 34.8221812,
      "label": "סופר דאבח - באר שבע",
      "text": "",
      "stayTimes": "10:00 - 10:30",
      "t_start": "2020-04-02T08:00:00",
      "t_end": "2020-04-02T08:30:00",
      "link": ""
    },
    {
      "id": 400361,
      "lat": 31.2399623270001,
      "lon": 34.7938285870001,
      "label": "מחסני השוק - באר שבע",
      "text": "",
      "stayTimes": "11:00 - 12:00",
      "t_start": "2020-04-02T09:00:00",
      "t_end": "2020-04-02T10:00:00",
      "link": ""
    },
    {
      "id": 400362,
      "lat": 31.764963902,
      "lon": 35.1494119290001,
      "label": "מיון קורונה עין כרם - ירושלים",
      "text": "",
      "stayTimes": "10:00 - 16:00",
      "t_start": "2020-04-03T08:00:00",
      "t_end": "2020-04-03T14:00:00",
      "link": ""
    },
    {
      "id": 400363,
      "lat": 31.7631179000001,
      "lon": 35.2293939,
      "label": "כללית אבו טור - ירושלים",
      "text": "",
      "stayTimes": "15:48 - 16:18",
      "t_start": "2020-04-04T13:48:00",
      "t_end": "2020-04-04T14:18:00",
      "link": ""
    },
    {
      "id": 400364,
      "lat": 31.774297,
      "lon": 35.2118468,
      "label": "בכרך ביטוחים - ירושלים",
      "text": "",
      "stayTimes": "08:00 - 17:00",
      "t_start": "2020-04-02T06:00:00",
      "t_end": "2020-04-02T15:00:00",
      "link": ""
    },
    {
      "id": 400365,
      "lat": 32.4351603000001,
      "lon": 34.9089263000001,
      "label": "שופרסל דיל שערי חדרה - חדרה",
      "text": "",
      "stayTimes": "11:00 - 12:00",
      "t_start": "2020-04-05T09:00:00",
      "t_end": "2020-04-05T10:00:00",
      "link": ""
    },
    {
      "id": 400366,
      "lat": 32.4362153000001,
      "lon": 34.9211945000001,
      "label": "בנק הפועלים - חדרה",
      "text": "",
      "stayTimes": "09:00 - 10:00",
      "t_start": "2020-04-05T07:00:00",
      "t_end": "2020-04-05T08:00:00",
      "link": ""
    },
    {
      "id": 400367,
      "lat": 32.0470929000001,
      "lon": 34.8435289,
      "label": "תל השומר  מרכז טכנולוגית MRI - רמת גן",
      "text": "",
      "stayTimes": "14:00 - 16:30",
      "t_start": "2020-04-02T12:00:00",
      "t_end": "2020-04-02T14:30:00",
      "link": ""
    },
    {
      "id": 400368,
      "lat": 32.4357942,
      "lon": 34.9163935,
      "label": "קופרת חולים כללית קורן - חדרה",
      "text": "",
      "stayTimes": "08:00 - 08:30",
      "t_start": "2020-04-05T06:00:00",
      "t_end": "2020-04-05T06:30:00",
      "link": ""
    },
    {
      "id": 400369,
      "lat": 31.7511262,
      "lon": 35.2154249000001,
      "label": "רמי לוי תלפיות - ירושלים",
      "text": "",
      "stayTimes": "11:00 - 12:00",
      "t_start": "2020-04-02T09:00:00",
      "t_end": "2020-04-02T10:00:00",
      "link": ""
    },
    {
      "id": 400370,
      "lat": 32.782399287,
      "lon": 35.5080564730001,
      "label": "החרושת 10, טבריה",
      "text": "",
      "stayTimes": "15:00 - 23:00",
      "t_start": "2020-04-01T13:00:00",
      "t_end": "2020-04-01T21:00:00",
      "link": ""
    },
    {
      "id": 400371,
      "lat": 32.779222567,
      "lon": 35.502919379,
      "label": "החרושת 10, טבריה",
      "text": "",
      "stayTimes": "15:00 - 23:00",
      "t_start": "2020-04-02T13:00:00",
      "t_end": "2020-04-02T21:00:00",
      "link": ""
    },
    {
      "id": 400372,
      "lat": 32.779217556,
      "lon": 35.502913419,
      "label": "החרושת 10, טבריה",
      "text": "",
      "stayTimes": "08:00 - 16:00",
      "t_start": "2020-04-03T06:00:00",
      "t_end": "2020-04-03T14:00:00",
      "link": ""
    },
    {
      "id": 400373,
      "lat": 32.4054100320001,
      "lon": 35.048642769,
      "label": "אטליז אחמד זוהדי עת'אמנה - באקה אל-גרביה",
      "text": "",
      "stayTimes": "10:00 - 10:45",
      "t_start": "2020-04-03T08:00:00",
      "t_end": "2020-04-03T08:45:00",
      "link": ""
    },
    {
      "id": 400374,
      "lat": 31.9648014000001,
      "lon": 34.7920651000001,
      "label": "פיצריה ירושלמית - ראשון לציון",
      "text": "",
      "stayTimes": "11:00 - 16:30",
      "t_start": "2020-04-03T09:00:00",
      "t_end": "2020-04-03T14:30:00",
      "link": ""
    },
    {
      "id": 400375,
      "lat": 31.9648014000001,
      "lon": 34.7920651000001,
      "label": "פיצריה ירושלמית - ראשון לציון",
      "text": "",
      "stayTimes": "15:00 - 22:00",
      "t_start": "2020-04-04T13:00:00",
      "t_end": "2020-04-04T20:00:00",
      "link": ""
    },
    {
      "id": 400376,
      "lat": 31.9648014000001,
      "lon": 34.7920651000001,
      "label": "פיצריה ירושלמית - ראשון לציון",
      "text": "",
      "stayTimes": "13:00 - 22:00",
      "t_start": "2020-04-05T11:00:00",
      "t_end": "2020-04-05T20:00:00",
      "link": ""
    },
    {
      "id": 400377,
      "lat": 31.9648014000001,
      "lon": 34.7920651000001,
      "label": "פיצריה ירושלמית - ראשון לציון",
      "text": "",
      "stayTimes": "15:00 - 22:00",
      "t_start": "2020-04-06T13:00:00",
      "t_end": "2020-04-06T20:00:00",
      "link": ""
    },
    {
      "id": 400378,
      "lat": 31.7656617000001,
      "lon": 35.1491024000001,
      "label": "בית חולים הדסה עין כרם, מיון קורונה - ירושלים",
      "text": "",
      "stayTimes": "13:00 - 22:00",
      "t_start": "2020-04-03T11:00:00",
      "t_end": "2020-04-03T20:00:00",
      "link": ""
    },
    {
      "id": 400379,
      "lat": 31.8030403000001,
      "lon": 35.2161090000001,
      "label": "מעון הורים שומרי החומות - ירושלים",
      "text": "",
      "stayTimes": "08:00 - 08:30",
      "t_start": "2020-04-06T06:00:00",
      "t_end": "2020-04-06T06:30:00",
      "link": ""
    },
    {
      "id": 400380,
      "lat": 31.7852588000001,
      "lon": 35.1830189,
      "label": "אושר עד גבעת שאול - ירושלים",
      "text": "",
      "stayTimes": "17:00 - 19:00",
      "t_start": "2020-04-05T15:00:00",
      "t_end": "2020-04-05T17:00:00",
      "link": ""
    },
    {
      "id": 400381,
      "lat": 31.771007561,
      "lon": 35.183845385,
      "label": "שפע ברכת השם - בית וגן - ירושלים",
      "text": "",
      "stayTimes": "12:00 - 13:00",
      "t_start": "2020-04-07T10:00:00",
      "t_end": "2020-04-07T11:00:00",
      "link": ""
    },
    {
      "id": 400382,
      "lat": 31.9639343200001,
      "lon": 34.8054251470001,
      "label": "מכון פזיוטרפיה של \"מכבי\" - ראשון לציון",
      "text": "",
      "stayTimes": "11:50 - 12:20",
      "t_start": "2020-04-02T09:50:00",
      "t_end": "2020-04-02T10:20:00",
      "link": ""
    },
    {
      "id": 400383,
      "lat": 31.7967383000001,
      "lon": 35.2198338000001,
      "label": "מכולת שכונתית - זול כאן - ירושלים",
      "text": "",
      "stayTimes": "08:00 - 20:00",
      "t_start": "2020-04-02T06:00:00",
      "t_end": "2020-04-02T18:00:00",
      "link": ""
    },
    {
      "id": 400384,
      "lat": 32.3283018290001,
      "lon": 34.8567293560001,
      "label": "חנות חשמל של רובי - נתניה",
      "text": "",
      "stayTimes": "10:30 - 16:30",
      "t_start": "2020-04-05T08:30:00",
      "t_end": "2020-04-05T14:30:00",
      "link": ""
    },
    {
      "id": 400385,
      "lat": 32.7890532000001,
      "lon": 35.5335639,
      "label": "יהודה הלוי 113, טבריה",
      "text": "",
      "stayTimes": "12:30 - 18:00",
      "t_start": "2020-04-06T10:30:00",
      "t_end": "2020-04-06T16:00:00",
      "link": ""
    },
    {
      "id": 400386,
      "lat": 32.7789031,
      "lon": 35.5167485000001,
      "label": "אור חיים 11, טבריה",
      "text": "",
      "stayTimes": "11:00 - 11:45",
      "t_start": "2020-04-05T09:00:00",
      "t_end": "2020-04-05T09:45:00",
      "link": ""
    },
    {
      "id": 400387,
      "lat": 31.791939063,
      "lon": 35.2045534440001,
      "label": "סופרמרקט שערי רווחה - ירושלים",
      "text": "",
      "stayTimes": "22:00 - 23:30",
      "t_start": "2020-04-04T20:00:00",
      "t_end": "2020-04-04T21:30:00",
      "link": ""
    },
    {
      "id": 400388,
      "lat": 31.7950911890001,
      "lon": 35.201727186,
      "label": "מאוחדת - ירושלים",
      "text": "",
      "stayTimes": "17:00 - 17:30",
      "t_start": "2020-04-02T15:00:00",
      "t_end": "2020-04-02T15:30:00",
      "link": ""
    },
    {
      "id": 400389,
      "lat": 32.0773136,
      "lon": 34.8423142,
      "label": "שוק העיר - בני ברק",
      "text": "",
      "stayTimes": "09:00 - 10:30",
      "t_start": "2020-04-08T07:00:00",
      "t_end": "2020-04-08T08:30:00",
      "link": ""
    },
    {
      "id": 400390,
      "lat": 31.7998277,
      "lon": 34.6623938000001,
      "label": "סופר מרקט 'יש חסד' - אשדוד",
      "text": "",
      "stayTimes": "14:00 - 14:30",
      "t_start": "2020-04-02T12:00:00",
      "t_end": "2020-04-02T12:30:00",
      "link": ""
    },
    {
      "id": 400391,
      "lat": 31.79952067,
      "lon": 34.6643245280001,
      "label": "צרכניית אחיעזר אשדוד ג' - אשדוד",
      "text": "",
      "stayTimes": "21:00 - 21:30",
      "t_start": "2020-04-04T19:00:00",
      "t_end": "2020-04-04T19:30:00",
      "link": ""
    },
    {
      "id": 400392,
      "lat": 32.4587369380001,
      "lon": 35.044326749,
      "label": "שופר סל אקספרס - חריש",
      "text": "",
      "stayTimes": "08:00 - 08:30",
      "t_start": "2020-04-08T06:00:00",
      "t_end": "2020-04-08T06:30:00",
      "link": ""
    },
    {
      "id": 400393,
      "lat": 31.943012986,
      "lon": 35.2221031450001,
      "label": "\"יינות ביתן\" - בית אל",
      "text": "",
      "stayTimes": "12:45 - 13:00",
      "t_start": "2020-04-03T10:45:00",
      "t_end": "2020-04-03T11:00:00",
      "link": ""
    },
    {
      "id": 400394,
      "lat": 31.7932316000001,
      "lon": 35.3288288000001,
      "label": "מפעל \"הר שפי\" - מעלה אדומים",
      "text": "",
      "stayTimes": "08:00 - 17:00",
      "t_start": "2020-04-01T06:00:00",
      "t_end": "2020-04-01T15:00:00",
      "link": ""
    },
    {
      "id": 400395,
      "lat": 31.7932316000001,
      "lon": 35.3288288000001,
      "label": "מפעל \"הר שפי\" - מעלה אדומים",
      "text": "",
      "stayTimes": "08:00 - 17:00",
      "t_start": "2020-04-02T06:00:00",
      "t_end": "2020-04-02T15:00:00",
      "link": ""
    },
    {
      "id": 400396,
      "lat": 31.7932316000001,
      "lon": 35.3288288000001,
      "label": "מפעל \"הר שפי\" - מעלה אדומים",
      "text": "",
      "stayTimes": "08:00 - 17:00",
      "t_start": "2020-04-05T06:00:00",
      "t_end": "2020-04-05T15:00:00",
      "link": ""
    },
    {
      "id": 400397,
      "lat": 32.098634814,
      "lon": 34.839774403,
      "label": "סופר \"נתיב החסד\" - בני ברק",
      "text": "",
      "stayTimes": "20:00 - 22:00",
      "t_start": "2020-04-02T18:00:00",
      "t_end": "2020-04-02T20:00:00",
      "link": ""
    },
    {
      "id": 400398,
      "lat": 32.098920718,
      "lon": 34.829725981,
      "label": "סופר אושר עד - בני ברק",
      "text": "",
      "stayTimes": "07:00 - 23:00",
      "t_start": "2020-04-01T05:00:00",
      "t_end": "2020-04-01T21:00:00",
      "link": ""
    },
    {
      "id": 400399,
      "lat": 32.0989166300001,
      "lon": 34.829719563,
      "label": "סופר אושר עד - בני ברק",
      "text": "",
      "stayTimes": "07:00 - 23:00",
      "t_start": "2020-04-02T05:00:00",
      "t_end": "2020-04-02T21:00:00",
      "link": ""
    },
    {
      "id": 400400,
      "lat": 32.098936624,
      "lon": 34.829752802,
      "label": "סופר אושר עד - בני ברק",
      "text": "",
      "stayTimes": "07:00 - 18:00",
      "t_start": "2020-04-03T05:00:00",
      "t_end": "2020-04-03T16:00:00",
      "link": ""
    },
    {
      "id": 400401,
      "lat": 32.0989093530001,
      "lon": 34.829728135,
      "label": "סופר אושר עד - בני ברק",
      "text": "",
      "stayTimes": "07:00 - 23:00",
      "t_start": "2020-04-05T05:00:00",
      "t_end": "2020-04-05T21:00:00",
      "link": ""
    },
    {
      "id": 400402,
      "lat": 32.098967524,
      "lon": 34.829788212,
      "label": "סופר אושר עד - בני ברק",
      "text": "",
      "stayTimes": "07:00 - 23:00",
      "t_start": "2020-04-06T05:00:00",
      "t_end": "2020-04-06T21:00:00",
      "link": ""
    },
    {
      "id": 400403,
      "lat": 32.0988889000001,
      "lon": 34.8297222,
      "label": "סופר עושר עד - בני ברק",
      "text": "",
      "stayTimes": "07:00 - 23:00",
      "t_start": "2020-04-07T05:00:00",
      "t_end": "2020-04-07T21:00:00",
      "link": ""
    },
    {
      "id": 400404,
      "lat": 31.7948177000001,
      "lon": 34.6407751,
      "label": "סופר פאפא - אשדוד",
      "text": "",
      "stayTimes": "14:00 - 14:30",
      "t_start": "2020-04-07T12:00:00",
      "t_end": "2020-04-07T12:30:00",
      "link": ""
    },
    {
      "id": 400405,
      "lat": 32.7890532000001,
      "lon": 35.5335639,
      "label": "יהודה הלוי 113, טבריה",
      "text": "",
      "stayTimes": "12:30 - 18:00",
      "t_start": "2020-04-06T10:30:00",
      "t_end": "2020-04-06T16:00:00",
      "link": ""
    },
    {
      "id": 400406,
      "lat": 32.779251238,
      "lon": 35.516785172,
      "label": "דואר ישראל - טבריה",
      "text": "",
      "stayTimes": "11:00 - 11:45",
      "t_start": "2020-04-05T09:00:00",
      "t_end": "2020-04-05T09:45:00",
      "link": ""
    },
    {
      "id": 400407,
      "lat": 31.7937868810001,
      "lon": 35.3337773370001,
      "label": "רמי לוי - סניף מעלה אדומים - מעלה אדומים",
      "text": "",
      "stayTimes": "10:00 - 12:00",
      "t_start": "2020-04-07T08:00:00",
      "t_end": "2020-04-07T10:00:00",
      "link": ""
    },
    {
      "id": 400408,
      "lat": 32.079536365,
      "lon": 34.835004128,
      "label": "מכולת נחמיה - בני ברק",
      "text": "",
      "stayTimes": "10:00 - 10:30",
      "t_start": "2020-04-06T08:00:00",
      "t_end": "2020-04-06T08:30:00",
      "link": ""
    },
    {
      "id": 400409,
      "lat": 32.0860317030001,
      "lon": 34.830396831,
      "label": "בית מרקחת קופ\"ח מכבי - בני ברק",
      "text": "",
      "stayTimes": "11:30 - 12:00",
      "t_start": "2020-04-03T09:30:00",
      "t_end": "2020-04-03T10:00:00",
      "link": ""
    },
    {
      "id": 400410,
      "lat": 31.795607363,
      "lon": 35.2144395610001,
      "label": "בית כנסת באבוב - ירושלים",
      "text": "",
      "stayTimes": "16:00 - 18:00",
      "t_start": "2020-04-03T14:00:00",
      "t_end": "2020-04-03T16:00:00",
      "link": ""
    },
    {
      "id": 400411,
      "lat": 32.0796249000001,
      "lon": 34.8411712000001,
      "label": "ברכל - בני ברק",
      "text": "",
      "stayTimes": "10:00 - 11:00",
      "t_start": "2020-04-03T08:00:00",
      "t_end": "2020-04-03T09:00:00",
      "link": ""
    },
    {
      "id": 400412,
      "lat": 32.085704353,
      "lon": 34.8394937350001,
      "label": "דני פירות וירקות - בני ברק",
      "text": "",
      "stayTimes": "18:00 - 18:30",
      "t_start": "2020-04-02T16:00:00",
      "t_end": "2020-04-02T16:30:00",
      "link": ""
    },
    {
      "id": 400413,
      "lat": 31.4173985,
      "lon": 34.6148693000001,
      "label": "רמי לוי בית הגדי - בית הגדי",
      "text": "",
      "stayTimes": "10:30 - 11:30",
      "t_start": "2020-04-02T08:30:00",
      "t_end": "2020-04-02T09:30:00",
      "link": ""
    },
    {
      "id": 400414,
      "lat": 31.9661207720001,
      "lon": 34.8019810280001,
      "label": "חניון ניסן יעקובי - ראשון לציון",
      "text": "",
      "stayTimes": "06:30 - 15:00",
      "t_start": "2020-04-05T04:30:00",
      "t_end": "2020-04-05T13:00:00",
      "link": ""
    },
    {
      "id": 400415,
      "lat": 31.9662154370001,
      "lon": 34.8024273450001,
      "label": "חניון \"ניסן יעקובי\" - ראשון לציון",
      "text": "",
      "stayTimes": "06:30 - 15:00",
      "t_start": "2020-04-03T04:30:00",
      "t_end": "2020-04-03T13:00:00",
      "link": ""
    },
    {
      "id": 400416,
      "lat": 31.9661062120001,
      "lon": 34.801959561,
      "label": "חניון ניסן יעקובי - ראשון לציון",
      "text": "",
      "stayTimes": "06:30 - 15:00",
      "t_start": "2020-04-02T04:30:00",
      "t_end": "2020-04-02T13:00:00",
      "link": ""
    },
    {
      "id": 400417,
      "lat": 31.9660843670001,
      "lon": 34.801972441,
      "label": "חניון ניסן יעקובי - ראשון לציון",
      "text": "",
      "stayTimes": "06:30 - 15:00",
      "t_start": "2020-04-01T04:30:00",
      "t_end": "2020-04-01T13:00:00",
      "link": ""
    },
    {
      "id": 400418,
      "lat": 31.7919300120001,
      "lon": 35.2045671670001,
      "label": "סופר \"שערי רווחה\" - ירושלים",
      "text": "",
      "stayTimes": "16:30 - 16:45",
      "t_start": "2020-04-05T14:30:00",
      "t_end": "2020-04-05T14:45:00",
      "link": ""
    },
    {
      "id": 400419,
      "lat": 31.7947479000001,
      "lon": 35.2084070000001,
      "label": "בית מרקחת בקניון \"רב שפע\" - ירושלים",
      "text": "",
      "stayTimes": "21:00 - 21:20",
      "t_start": "2020-04-05T19:00:00",
      "t_end": "2020-04-05T19:20:00",
      "link": ""
    },
    {
      "id": 400420,
      "lat": 31.75548095,
      "lon": 35.2236184770001,
      "label": "טרם סניף היילת - ירושלים",
      "text": "",
      "stayTimes": "09:30 - 10:30",
      "t_start": "2020-04-06T07:30:00",
      "t_end": "2020-04-06T08:30:00",
      "link": ""
    },
    {
      "id": 400421,
      "lat": 32.3969300000001,
      "lon": 35.035914,
      "label": "סופר אל באיין-כפר גת - ג'ת",
      "text": "",
      "stayTimes": "12:00 - 13:00",
      "t_start": "2020-04-06T10:00:00",
      "t_end": "2020-04-06T11:00:00",
      "link": ""
    },
    {
      "id": 400422,
      "lat": 32.928587823,
      "lon": 35.3255591390001,
      "label": "שופרסל ביג - כרמיאל",
      "text": "",
      "stayTimes": "20:00 - 21:00",
      "t_start": "2020-04-01T18:00:00",
      "t_end": "2020-04-01T19:00:00",
      "link": ""
    },
    {
      "id": 400423,
      "lat": 32.7930742,
      "lon": 35.5343003,
      "label": "גלידות פלדמן - טבריה",
      "text": "",
      "stayTimes": "13:30 - 14:30",
      "t_start": "2020-04-08T11:30:00",
      "t_end": "2020-04-08T12:30:00",
      "link": ""
    },
    {
      "id": 400424,
      "lat": 32.7931494000001,
      "lon": 35.5336308,
      "label": "חנות חד פעמי מולטי סרביס - טבריה",
      "text": "",
      "stayTimes": "20:30 - 21:30",
      "t_start": "2020-04-07T18:30:00",
      "t_end": "2020-04-07T19:30:00",
      "link": ""
    },
    {
      "id": 400425,
      "lat": 32.7892867370001,
      "lon": 35.5350182060001,
      "label": "סופרמרקט שופרסל דיל - טבריה",
      "text": "",
      "stayTimes": "12:00 - 13:30",
      "t_start": "2020-04-08T10:00:00",
      "t_end": "2020-04-08T11:30:00",
      "link": ""
    },
    {
      "id": 400426,
      "lat": 32.7892461500001,
      "lon": 35.535012841,
      "label": "סופרמרקט שופרסל דיל - טבריה",
      "text": "",
      "stayTimes": "18:00 - 20:00",
      "t_start": "2020-04-07T16:00:00",
      "t_end": "2020-04-07T18:00:00",
      "link": ""
    },
    {
      "id": 400427,
      "lat": 31.9332564040001,
      "lon": 35.0476894970001,
      "label": "\"ברקול\" - מודיעין עילית",
      "text": "",
      "stayTimes": "21:00 - 21:30",
      "t_start": "2020-04-02T19:00:00",
      "t_end": "2020-04-02T19:30:00",
      "link": ""
    },
    {
      "id": 400428,
      "lat": 32.081199322,
      "lon": 34.8224394480001,
      "label": "שיווק ישיר - בני ברק",
      "text": "",
      "stayTimes": "08:00 - 09:00",
      "t_start": "2020-04-03T06:00:00",
      "t_end": "2020-04-03T07:00:00",
      "link": ""
    },
    {
      "id": 400429,
      "lat": 32.0806874,
      "lon": 34.8407821000001,
      "label": "מאפיית וישניץ - בני ברק",
      "text": "",
      "stayTimes": "08:00 - 09:00",
      "t_start": "2020-04-03T06:00:00",
      "t_end": "2020-04-03T07:00:00",
      "link": ""
    },
    {
      "id": 400430,
      "lat": 32.077318516,
      "lon": 34.8423142010001,
      "label": "שוק העיר - בני ברק",
      "text": "",
      "stayTimes": "16:00 - 17:00",
      "t_start": "2020-04-05T14:00:00",
      "t_end": "2020-04-05T15:00:00",
      "link": ""
    },
    {
      "id": 400431,
      "lat": 31.7641922,
      "lon": 35.1947682000001,
      "label": "מכולת מעיין - ירושלים",
      "text": "",
      "stayTimes": "13:30 - 14:00",
      "t_start": "2020-04-03T11:30:00",
      "t_end": "2020-04-03T12:00:00",
      "link": ""
    },
    {
      "id": 400432,
      "lat": 32.1058370000001,
      "lon": 34.8923941,
      "label": "אושר עד - פתח תקווה",
      "text": "",
      "stayTimes": "06:30 - 21:00",
      "t_start": "2020-04-01T04:30:00",
      "t_end": "2020-04-01T19:00:00",
      "link": ""
    },
    {
      "id": 400433,
      "lat": 31.7949715680001,
      "lon": 35.2248724610001,
      "label": "קופת חולים כללית מעלות דפנה - ירושלים",
      "text": "",
      "stayTimes": "08:00 - 09:30",
      "t_start": "2020-04-01T06:00:00",
      "t_end": "2020-04-01T07:30:00",
      "link": ""
    },
    {
      "id": 400434,
      "lat": 31.9429862000001,
      "lon": 34.8759535,
      "label": "מוטי מרקט - לוד",
      "text": "",
      "stayTimes": "10:30 - 12:30",
      "t_start": "2020-04-07T08:30:00",
      "t_end": "2020-04-07T10:30:00",
      "link": ""
    },
    {
      "id": 400435,
      "lat": 32.7791922000001,
      "lon": 35.5029054,
      "label": "סופרמרקט יוחננוף - טבריה",
      "text": "",
      "stayTimes": "14:00 - 16:00",
      "t_start": "2020-04-06T12:00:00",
      "t_end": "2020-04-06T14:00:00",
      "link": ""
    },
    {
      "id": 400436,
      "lat": 32.0908013000001,
      "lon": 34.8389312,
      "label": "חנות \"יש\" - בני ברק",
      "text": "",
      "stayTimes": "14:30 - 15:30",
      "t_start": "2020-04-06T12:30:00",
      "t_end": "2020-04-06T13:30:00",
      "link": ""
    },
    {
      "id": 400437,
      "lat": 32.0899676000001,
      "lon": 34.8385091000001,
      "label": "שיווק ישיר - בני ברק",
      "text": "",
      "stayTimes": "16:00 - 16:45",
      "t_start": "2020-04-06T14:00:00",
      "t_end": "2020-04-06T14:45:00",
      "link": ""
    },
    {
      "id": 400438,
      "lat": 31.2362658540001,
      "lon": 34.775116574,
      "label": "מחסני השוק - באר שבע",
      "text": "",
      "stayTimes": "15:30 - 16:30",
      "t_start": "2020-04-02T13:30:00",
      "t_end": "2020-04-02T14:30:00",
      "link": ""
    },
    {
      "id": 400439,
      "lat": 32.7246002000001,
      "lon": 35.0581080000001,
      "label": "מרפאת מאוחדת סניף ראשי - עספיא",
      "text": "",
      "stayTimes": "08:20 - 08:50",
      "t_start": "2020-04-05T06:20:00",
      "t_end": "2020-04-05T06:50:00",
      "link": ""
    },
    {
      "id": 400440,
      "lat": 31.7867965,
      "lon": 34.6446318000001,
      "label": "מכולת הציונות - אשדוד",
      "text": "",
      "stayTimes": "17:30 - 18:00",
      "t_start": "2020-04-06T15:30:00",
      "t_end": "2020-04-06T16:00:00",
      "link": ""
    },
    {
      "id": 400441,
      "lat": 31.7829486000001,
      "lon": 34.6549948000001,
      "label": "חנות מניה - אשדוד",
      "text": "",
      "stayTimes": "15:00 - 16:00",
      "t_start": "2020-04-04T13:00:00",
      "t_end": "2020-04-04T14:00:00",
      "link": ""
    },
    {
      "id": 400442,
      "lat": 31.9485812,
      "lon": 34.7889725000001,
      "label": "מרכז גריאטרי מלבן - ראשון לציון",
      "text": "",
      "stayTimes": "07:00 - 15:00",
      "t_start": "2020-04-01T05:00:00",
      "t_end": "2020-04-01T13:00:00",
      "link": ""
    },
    {
      "id": 400443,
      "lat": 31.9485812,
      "lon": 34.7889725000001,
      "label": "מרכז גריאטרי מלבן - ראשון לציון",
      "text": "",
      "stayTimes": "07:00 - 15:00",
      "t_start": "2020-04-03T05:00:00",
      "t_end": "2020-04-03T13:00:00",
      "link": ""
    },
    {
      "id": 400444,
      "lat": 31.9485812,
      "lon": 34.7889725000001,
      "label": "מרכז גריאטרי מלבן - ראשון לציון",
      "text": "",
      "stayTimes": "07:00 - 15:00",
      "t_start": "2020-04-05T05:00:00",
      "t_end": "2020-04-05T13:00:00",
      "link": ""
    },
    {
      "id": 400445,
      "lat": 32.1023710000001,
      "lon": 35.207100978,
      "label": "סופרפארם גוד פארם - אריאל",
      "text": "",
      "stayTimes": "10:00 - 10:15",
      "t_start": "2020-04-08T08:00:00",
      "t_end": "2020-04-08T08:15:00",
      "link": ""
    },