{
  "points": [
    {
      "id": 278963,
      "lat": 30.9812812000001,
      "lon": 34.9473032000001,
      "label": "בית העלמין - ירוחם",
      "text": "",
      "stayTimes": "08:30 - 09:00",
      "t_start": "2020-03-30T06:30:00",
      "t_end": "2020-03-30T07:00:00",
      "link": ""
    },
    {
      "id": 278964,
      "lat": 31.697706963,
      "lon": 34.575005391,
      "label": "ויקטורי - אשקלון",
      "text": "",
      "stayTimes": "09:00 - 10:10",
      "t_start": "2020-03-26T07:00:00",
      "t_end": "2020-03-26T08:10:00",
      "link": ""
    },
    {
      "id": 278965,
      "lat": 32.9605311,
      "lon": 35.4994390000001,
      "label": "סופר מחסני השוק - צפת",
      "text": "",
      "stayTimes": "14:00 - 14:30",
      "t_start": "2020-03-31T12:00:00",
      "t_end": "2020-03-31T12:30:00",
      "link": ""
    },
    {
      "id": 278966,
      "lat": 32.057107,
      "lon": 34.8691424,
      "label": "סופר פארם - גני תקווה",
      "text": "",
      "stayTimes": "09:30 - 09:45",
      "t_start": "2020-03-27T07:30:00",
      "t_end": "2020-03-27T07:45:00",
      "link": ""
    },
    {
      "id": 278967,
      "lat": 31.926893912,
      "lon": 35.0416824800001,
      "label": "מרכול  רחוב נתיבות המשפט פינת מסילת יוסף - מודיעין עילית",
      "text": "",
      "stayTimes": "18:50 - 19:10",
      "t_start": "2020-03-26T16:50:00",
      "t_end": "2020-03-26T17:10:00",
      "link": ""
    },
    {
      "id": 278968,
      "lat": 31.7789552,
      "lon": 34.6570806,
      "label": "מיון ביה\"ח אסותא - אשדוד",
      "text": "",
      "stayTimes": "17:00 - 17:30",
      "t_start": "2020-03-26T15:00:00",
      "t_end": "2020-03-26T15:30:00",
      "link": ""
    },
    {
      "id": 278969,
      "lat": 31.9911338060001,
      "lon": 34.7607513570001,
      "label": "מאפיית קראמבל - ראשון לציון",
      "text": "",
      "stayTimes": "23:00 - 23:30",
      "t_start": "2020-03-26T21:00:00",
      "t_end": "2020-03-26T21:30:00",
      "link": ""
    },
    {
      "id": 278970,
      "lat": 32.0257730000001,
      "lon": 34.90142,
      "label": "שופרסל - יהוד",
      "text": "",
      "stayTimes": "13:15 - 14:15",
      "t_start": "2020-03-27T11:15:00",
      "t_end": "2020-03-27T12:15:00",
      "link": ""
    },
    {
      "id": 278971,
      "lat": 32.031388733,
      "lon": 34.85544191,
      "label": "סופר סיטי נווה סביון - אור יהודה",
      "text": "",
      "stayTimes": "16:00 - 16:30",
      "t_start": "2020-03-27T14:00:00",
      "t_end": "2020-03-27T14:30:00",
      "link": ""
    },
    {
      "id": 278972,
      "lat": 32.7219273000001,
      "lon": 35.4949277000001,
      "label": "בית אבות יוקרה - יבנאל",
      "text": "",
      "stayTimes": "22:00 - 06:00",
      "t_start": "2020-03-27T20:00:00",
      "t_end": "2020-03-28T04:00:00",
      "link": ""
    },
    {
      "id": 278973,
      "lat": 31.245815979,
      "lon": 34.776824193,
      "label": "קופת חולים כללית ט - באר שבע",
      "text": "",
      "stayTimes": "10:30 - 11:00",
      "t_start": "2020-03-27T08:30:00",
      "t_end": "2020-03-27T09:00:00",
      "link": ""
    },
    {
      "id": 278974,
      "lat": 32.078923337,
      "lon": 34.8392821350001,
      "label": "בית אבות והדרת פני זקן - בני ברק",
      "text": "",
      "stayTimes": "08:00 - 12:00",
      "t_start": "2020-03-27T06:00:00",
      "t_end": "2020-03-27T10:00:00",
      "link": ""
    },
    {
      "id": 278975,
      "lat": 32.078923337,
      "lon": 34.8392821350001,
      "label": "בית אבות והדרת פני זקן - בני ברק",
      "text": "",
      "stayTimes": "08:00 - 12:00",
      "t_start": "2020-03-26T06:00:00",
      "t_end": "2020-03-26T10:00:00",
      "link": ""
    },
    {
      "id": 278976,
      "lat": 33.0083233,
      "lon": 35.1171239,
      "label": "בית חולים הגליל - נהריה",
      "text": "",
      "stayTimes": "16:00 - 20:00",
      "t_start": "2020-03-29T14:00:00",
      "t_end": "2020-03-29T18:00:00",
      "link": ""
    },
    {
      "id": 278977,
      "lat": 31.6619693000001,
      "lon": 34.55967,
      "label": "מיון ברזילי - אשקלון",
      "text": "",
      "stayTimes": "14:30 - 17:00",
      "t_start": "2020-03-27T12:30:00",
      "t_end": "2020-03-27T15:00:00",
      "link": ""
    },
    {
      "id": 278978,
      "lat": 30.6111034,
      "lon": 34.7986178,
      "label": "מכולת \"הסלסלה\" - מצפה רמון",
      "text": "",
      "stayTimes": "12:00 - 13:00",
      "t_start": "2020-03-26T10:00:00",
      "t_end": "2020-03-26T11:00:00",
      "link": ""
    },
    {
      "id": 278979,
      "lat": 31.8122742190001,
      "lon": 35.1952146290001,
      "label": "זול ובגדול קניון רמות. - ירושלים",
      "text": "",
      "stayTimes": "10:00 - 11:00",
      "t_start": "2020-03-26T08:00:00",
      "t_end": "2020-03-26T09:00:00",
      "link": ""
    },
    {
      "id": 278980,
      "lat": 32.1461142410001,
      "lon": 34.803998865,
      "label": "\"שופרסל\" סניף גלילות - הרצליה",
      "text": "",
      "stayTimes": "06:00 - 14:30",
      "t_start": "2020-03-27T04:00:00",
      "t_end": "2020-03-27T12:30:00",
      "link": ""
    },
    {
      "id": 278981,
      "lat": 31.991863,
      "lon": 34.7750457000001,
      "label": "ביקור רופא - ראשון לציון",
      "text": "",
      "stayTimes": "21:11 - 22:50",
      "t_start": "2020-03-28T19:11:00",
      "t_end": "2020-03-28T20:50:00",
      "link": ""
    },
    {
      "id": 278982,
      "lat": 32.1967184600001,
      "lon": 34.8775121680001,
      "label": "הום סנטר קניון רננים - רעננה",
      "text": "",
      "stayTimes": "19:00 - 20:00",
      "t_start": "2020-03-26T17:00:00",
      "t_end": "2020-03-26T18:00:00",
      "link": ""
    },
    {
      "id": 278983,
      "lat": 32.1967184600001,
      "lon": 34.8775121680001,
      "label": "פירות גינוסר - רעננה",
      "text": "",
      "stayTimes": "20:00 - 20:30",
      "t_start": "2020-03-26T18:00:00",
      "t_end": "2020-03-26T18:30:00",
      "link": ""
    },
    {
      "id": 278984,
      "lat": 31.6621588,
      "lon": 34.5788590000001,
      "label": "סופר האחים - אשקלון",
      "text": "",
      "stayTimes": "15:30 - 15:45",
      "t_start": "2020-03-26T13:30:00",
      "t_end": "2020-03-26T13:45:00",
      "link": ""
    },
    {
      "id": 278985,
      "lat": 32.056400791,
      "lon": 34.7697736750001,
      "label": "שופרסל - תל אביב - יפו",
      "text": "",
      "stayTimes": "10:30 - 12:30",
      "t_start": "2020-03-26T08:30:00",
      "t_end": "2020-03-26T10:30:00",
      "link": ""
    },
    {
      "id": 278986,
      "lat": 32.014196616,
      "lon": 34.766959027,
      "label": "מוקד מכבי חולון - חולון",
      "text": "",
      "stayTimes": "19:00 - 20:15",
      "t_start": "2020-03-26T17:00:00",
      "t_end": "2020-03-26T18:15:00",
      "link": ""
    },
    {
      "id": 278987,
      "lat": 32.05711304,
      "lon": 34.8695085620001,
      "label": "סופר AM/PM אבאבן גבירול 14 תא - תל אביב - יפו",
      "text": "",
      "stayTimes": "19:00 - 21:00",
      "t_start": "2020-03-28T17:00:00",
      "t_end": "2020-03-28T19:00:00",
      "link": ""
    },
    {
      "id": 278988,
      "lat": 32.069616593,
      "lon": 34.78259316,
      "label": "טיב טעם - החשמונאים 91 תא - תל אביב - יפו",
      "text": "",
      "stayTimes": "19:30 - 21:30",
      "t_start": "2020-03-29T17:30:00",
      "t_end": "2020-03-29T19:30:00",
      "link": ""
    },
    {
      "id": 278989,
      "lat": 31.6659504360001,
      "lon": 34.562813997,
      "label": "קונדטוריה לה טורט - אשקלון",
      "text": "",
      "stayTimes": "11:00 - 11:30",
      "t_start": "2020-03-27T09:00:00",
      "t_end": "2020-03-27T09:30:00",
      "link": ""
    },
    {
      "id": 278990,
      "lat": 31.6622785000001,
      "lon": 34.5592871000001,
      "label": "יחידת המחשוב- בי\"ח ברזילי - אשקלון",
      "text": "",
      "stayTimes": "08:00 - 19:00",
      "t_start": "2020-03-26T06:00:00",
      "t_end": "2020-03-26T17:00:00",
      "link": ""
    },
    {
      "id": 278991,
      "lat": 32.1811562,
      "lon": 34.897049,
      "label": "בי\"ח מאיר- מרפאה לתיירות מרפא, נלקחה בדיקה - כפר סבא",
      "text": "",
      "stayTimes": "13:20 - 13:30",
      "t_start": "2020-03-29T11:20:00",
      "t_end": "2020-03-29T11:30:00",
      "link": ""
    },
    {
      "id": 278992,
      "lat": 32.345488,
      "lon": 34.855896,
      "label": "בית חולים לניאדו - נתניה",
      "text": "",
      "stayTimes": "16:00 - 16:30",
      "t_start": "2020-03-26T14:00:00",
      "t_end": "2020-03-26T14:30:00",
      "link": ""
    },
    {
      "id": 278993,
      "lat": 31.665293945,
      "lon": 34.566231895,
      "label": "מאוחדת - אשקלון",
      "text": "",
      "stayTimes": "09:20 - 09:30",
      "t_start": "2020-03-29T07:20:00",
      "t_end": "2020-03-29T07:30:00",
      "link": ""
    },
    {
      "id": 278994,
      "lat": 31.947558379,
      "lon": 34.891374737,
      "label": "מוקד טרם - לוד - לוד",
      "text": "",
      "stayTimes": "23:15 - 01:00",
      "t_start": "2020-03-27T21:15:00",
      "t_end": "2020-03-26T23:00:00",
      "link": ""
    },
    {
      "id": 278995,
      "lat": 31.9266720000001,
      "lon": 34.8777440000001,
      "label": "סופר פארם קרית הממשלה רמלה - רמלה",
      "text": "",
      "stayTimes": "11:30 - 13:00",
      "t_start": "2020-03-27T09:30:00",
      "t_end": "2020-03-27T11:00:00",
      "link": ""
    },
    {
      "id": 278996,
      "lat": 31.938458558,
      "lon": 35.0452013440001,
      "label": "בית ספר מעלותבת שבע בקומה א במרפסת הדרומית - מודיעין עילית",
      "text": "",
      "stayTimes": "08:00 - 09:00",
      "t_start": "2020-03-27T06:00:00",
      "t_end": "2020-03-27T07:00:00",
      "link": ""
    },
    {
      "id": 278997,
      "lat": 32.2759974000001,
      "lon": 34.9201281000001,
      "label": "סופר פארם - קדימה-צורן",
      "text": "",
      "stayTimes": "13:55 - 14:55",
      "t_start": "2020-03-26T11:55:00",
      "t_end": "2020-03-26T12:55:00",
      "link": ""
    },
    {
      "id": 278998,
      "lat": 32.2797850480001,
      "lon": 34.8537296210001,
      "label": "קופת חולים כללית - נתניה",
      "text": "",
      "stayTimes": "09:20 - 09:45",
      "t_start": "2020-03-27T07:20:00",
      "t_end": "2020-03-27T07:45:00",
      "link": ""
    },
    {
      "id": 278999,
      "lat": 32.2797850480001,
      "lon": 34.8537296210001,
      "label": "בית מרחקת קופת חולים כללית - נתניה",
      "text": "",
      "stayTimes": "09:45 - 10:00",
      "t_start": "2020-03-27T07:45:00",
      "t_end": "2020-03-27T08:00:00",
      "link": ""
    },
    {
      "id": 279000,
      "lat": 31.884983436,
      "lon": 34.7387132640001,
      "label": "שופרסל דיל - יבנה",
      "text": "",
      "stayTimes": "09:00 - 10:00",
      "t_start": "2020-03-27T07:00:00",
      "t_end": "2020-03-27T08:00:00",
      "link": ""
    },
    {
      "id": 279001,
      "lat": 32.4418197000001,
      "lon": 34.9130742,
      "label": "קופת חולים כללית דגני חדרה - חדרה",
      "text": "",
      "stayTimes": "13:00 - 14:00",
      "t_start": "2020-03-26T11:00:00",
      "t_end": "2020-03-26T12:00:00",
      "link": ""
    },
    {
      "id": 279002,
      "lat": 32.532988947,
      "lon": 35.148568518,
      "label": "סופר פארם שכ' עין איברהים אום אל פאחם - אום אל-פחם",
      "text": "",
      "stayTimes": "15:00 - 15:30",
      "t_start": "2020-03-27T13:00:00",
      "t_end": "2020-03-27T13:30:00",
      "link": ""
    },
    {
      "id": 279003,
      "lat": 32.4418197000001,
      "lon": 34.9130742,
      "label": "קופת חולים כללית דגני חדרה - חדרה",
      "text": "",
      "stayTimes": "12:00 - 13:00",
      "t_start": "2020-03-26T10:00:00",
      "t_end": "2020-03-26T11:00:00",
      "link": ""
    },
    {
      "id": 279004,
      "lat": 32.5217420000001,
      "lon": 34.9420900000001,
      "label": "קופת חלוים כללית - בנימינה-גבעת עדה",
      "text": "",
      "stayTimes": "10:00 - 11:00",
      "t_start": "2020-03-26T08:00:00",
      "t_end": "2020-03-26T09:00:00",
      "link": ""
    },
    {
      "id": 279005,
      "lat": 32.0827176180001,
      "lon": 34.8263688160001,
      "label": "סופר מרקט \" יש בשכונה\" - בני ברק",
      "text": "",
      "stayTimes": "12:00 - 12:30",
      "t_start": "2020-03-27T10:00:00",
      "t_end": "2020-03-27T10:30:00",
      "link": ""
    },
    {
      "id": 279006,
      "lat": 32.1018083000001,
      "lon": 34.8298623000001,
      "label": "רמי לוי - בני ברק",
      "text": "",
      "stayTimes": "13:00 - 14:00",
      "t_start": "2020-03-27T11:00:00",
      "t_end": "2020-03-27T12:00:00",
      "link": ""
    },
    {
      "id": 279007,
      "lat": 31.78866678,
      "lon": 35.2184726240001,
      "label": "קופת חולים מאוחדת סניף א-טור - ירושלים",
      "text": "",
      "stayTimes": "16:00 - 16:00",
      "t_start": "2020-03-26T14:00:00",
      "t_end": "2020-03-26T14:00:00",
      "link": ""
    },
    {
      "id": 279008,
      "lat": 32.0258672000001,
      "lon": 34.8593382,
      "label": "סופר יש - אור יהודה",
      "text": "",
      "stayTimes": "18:00 - 18:30",
      "t_start": "2020-03-26T16:00:00",
      "t_end": "2020-03-26T16:30:00",
      "link": ""
    },
    {
      "id": 279009,
      "lat": 32.0882709090001,
      "lon": 34.8252846180001,
      "label": "טיפת חלב הרצוג - בני ברק",
      "text": "",
      "stayTimes": "12:00 - 12:30",
      "t_start": "2020-03-27T10:00:00",
      "t_end": "2020-03-27T10:30:00",
      "link": ""
    },
    {
      "id": 279010,
      "lat": 32.7074447730001,
      "lon": 35.1735545060001,
      "label": "סופר אחים דוד - רמת ישי",
      "text": "",
      "stayTimes": "06:00 - 15:00",
      "t_start": "2020-03-26T04:00:00",
      "t_end": "2020-03-26T13:00:00",
      "link": ""
    },
    {
      "id": 279011,
      "lat": 32.7078946680001,
      "lon": 35.173445702,
      "label": "סופר האחים דוד - רמת ישי",
      "text": "",
      "stayTimes": "06:00 - 15:43",
      "t_start": "2020-03-29T04:00:00",
      "t_end": "2020-03-29T13:43:00",
      "link": ""
    },
    {
      "id": 279012,
      "lat": 32.708734233,
      "lon": 35.172954857,
      "label": "סופר האחים דוד - רמת ישי",
      "text": "",
      "stayTimes": "13:30 - 18:00",
      "t_start": "2020-03-30T11:30:00",
      "t_end": "2020-03-30T16:00:00",
      "link": ""
    },
    {
      "id": 279013,
      "lat": 31.755914444,
      "lon": 34.990648364,
      "label": "סופר פארם- ביג פשן - בית שמש",
      "text": "",
      "stayTimes": "16:15 - 16:45",
      "t_start": "2020-03-26T14:15:00",
      "t_end": "2020-03-26T14:45:00",
      "link": ""
    },
    {
      "id": 279014,
      "lat": 31.788912419,
      "lon": 34.6643911580001,
      "label": "מכבי פארם ,רובע ז, מרכזון רשבי , אשדוד בין השעות 11:00-11:15 - אשדוד",
      "text": "",
      "stayTimes": "08:00 - 08:00",
      "t_start": "2020-03-29T06:00:00",
      "t_end": "2020-03-29T06:00:00",
      "link": ""
    },
    {
      "id": 279015,
      "lat": 32.6782684,
      "lon": 35.2433929000001,
      "label": "שופרסל פרץ סנטר מגדל העמק - מגדל העמק",
      "text": "",
      "stayTimes": "13:30 - 14:30",
      "t_start": "2020-03-27T11:30:00",
      "t_end": "2020-03-27T12:30:00",
      "link": ""
    },
    {
      "id": 279016,
      "lat": 32.0897515830001,
      "lon": 34.8670658130001,
      "label": "בית חולים בלינסון - פתח תקווה",
      "text": "",
      "stayTimes": "04:00 - 07:00",
      "t_start": "2020-03-29T02:00:00",
      "t_end": "2020-03-29T05:00:00",
      "link": ""
    },
    {
      "id": 279017,
      "lat": 32.0327898580001,
      "lon": 34.8510575890001,
      "label": "יוחננוף - אור יהודה",
      "text": "",
      "stayTimes": "07:00 - 07:30",
      "t_start": "2020-03-27T05:00:00",
      "t_end": "2020-03-27T05:30:00",
      "link": ""
    },
    {
      "id": 279018,
      "lat": 32.1058370000001,
      "lon": 34.8923941,
      "label": "אושר עד - פתח תקווה",
      "text": "",
      "stayTimes": "16:00 - 17:30",
      "t_start": "2020-03-26T14:00:00",
      "t_end": "2020-03-26T15:30:00",
      "link": ""
    },
    {
      "id": 279019,
      "lat": 32.085266862,
      "lon": 34.830416728,
      "label": "בית הכנסת מבעלזא - בני ברק",
      "text": "",
      "stayTimes": "17:00 - 17:30",
      "t_start": "2020-03-28T15:00:00",
      "t_end": "2020-03-28T15:30:00",
      "link": ""
    },
    {
      "id": 279020,
      "lat": 32.0899863330001,
      "lon": 34.8282752060001,
      "label": "ישיבה סלבודקה - בני ברק",
      "text": "",
      "stayTimes": "08:00 - 08:00",
      "t_start": "2020-04-21T06:00:00",
      "t_end": "2020-03-23T06:00:00",
      "link": ""
    },
    {
      "id": 279021,
      "lat": 32.0603095640001,
      "lon": 34.8161362490001,
      "label": "מאפיית האחים - גבעתיים",
      "text": "",
      "stayTimes": "07:00 - 08:00",
      "t_start": "2020-03-27T05:00:00",
      "t_end": "2020-03-27T06:00:00",
      "link": ""
    },
    {
      "id": 279022,
      "lat": 32.060656055,
      "lon": 34.8161008880001,
      "label": "חוות נעמי - חנות גבינות - גבעתיים",
      "text": "",
      "stayTimes": "08:00 - 09:00",
      "t_start": "2020-03-27T06:00:00",
      "t_end": "2020-03-27T07:00:00",
      "link": ""
    },
    {
      "id": 279023,
      "lat": 31.781289971,
      "lon": 35.220061996,
      "label": "בית כנסת קהל חסידים נאות הפסגה - מודיעין עילית",
      "text": "",
      "stayTimes": "09:15 - 10:45",
      "t_start": "2020-03-26T07:15:00",
      "t_end": "2020-03-26T08:45:00",
      "link": ""
    },
    {
      "id": 279024,
      "lat": 32.0874281590001,
      "lon": 34.8369161680001,
      "label": "בית ספר תלמוד תורה קרולין - בני ברק",
      "text": "",
      "stayTimes": "08:30 - 12:15",
      "t_start": "2020-03-26T06:30:00",
      "t_end": "2020-03-26T10:15:00",
      "link": ""
    },
    {
      "id": 279025,
      "lat": 32.621038034,
      "lon": 35.3165950600001,
      "label": "פנימית ג' העמק עפולה - עפולה",
      "text": "",
      "stayTimes": "16:30 - 17:00",
      "t_start": "2020-03-29T14:30:00",
      "t_end": "2020-03-29T15:00:00",
      "link": ""
    },
    {
      "id": 279026,
      "lat": 32.611947877,
      "lon": 35.290123898,
      "label": "קופת כללית עומר - עפולה",
      "text": "",
      "stayTimes": "08:10 - 08:15",
      "t_start": "2020-03-29T06:10:00",
      "t_end": "2020-03-29T06:15:00",
      "link": ""
    },
    {
      "id": 279027,
      "lat": 32.621038034,
      "lon": 35.3165950600001,
      "label": "מיון העמק - עפולה",
      "text": "",
      "stayTimes": "08:30 - 16:30",
      "t_start": "2020-03-29T06:30:00",
      "t_end": "2020-03-29T14:30:00",
      "link": ""
    },
    {
      "id": 279028,
      "lat": 32.6036290660001,
      "lon": 35.2985224650001,
      "label": "רשת ויקטורי - עפולה",
      "text": "",
      "stayTimes": "09:30 - 10:30",
      "t_start": "2020-03-27T07:30:00",
      "t_end": "2020-03-27T08:30:00",
      "link": ""
    },
    {
      "id": 279029,
      "lat": 32.6066989,
      "lon": 35.2913046,
      "label": "בנק מזרחי טפחות - עפולה",
      "text": "",
      "stayTimes": "08:00 - 15:00",
      "t_start": "2020-03-26T06:00:00",
      "t_end": "2020-03-26T13:00:00",
      "link": ""
    },
    {
      "id": 279030,
      "lat": 31.7961974,
      "lon": 34.6658564000001,
      "label": "הנדסת מערכות 6410 אלתא מערכות בע\"מ - אשדוד",
      "text": "",
      "stayTimes": "07:30 - 16:30",
      "t_start": "2020-03-26T05:30:00",
      "t_end": "2020-03-26T14:30:00",
      "link": ""
    },
    {
      "id": 279031,
      "lat": 31.781289971,
      "lon": 35.220061996,
      "label": "בית כנסת קהל חסידים - מודיעין עילית",
      "text": "",
      "stayTimes": "10:15 - 12:00",
      "t_start": "2020-03-28T08:15:00",
      "t_end": "2020-03-28T10:00:00",
      "link": ""
    },
    {
      "id": 279032,
      "lat": 32.250529855,
      "lon": 34.9188569030001,
      "label": "ירקות ופירות אבנר - תל מונד",
      "text": "",
      "stayTimes": "09:00 - 11:00",
      "t_start": "2020-03-26T07:00:00",
      "t_end": "2020-03-26T09:00:00",
      "link": ""
    },
    {
      "id": 279033,
      "lat": 31.618339125,
      "lon": 34.752510682,
      "label": "סופרמרקט \"שפע ברכה\" - קרית גת",
      "text": "",
      "stayTimes": "11:30 - 13:00",
      "t_start": "2020-03-27T09:30:00",
      "t_end": "2020-03-27T11:00:00",
      "link": ""
    },
    {
      "id": 279034,
      "lat": 32.90338337,
      "lon": 35.280494596,
      "label": "סופר שלי כרמיאל - כרמיאל",
      "text": "",
      "stayTimes": "14:00 - 15:00",
      "t_start": "2020-03-29T12:00:00",
      "t_end": "2020-03-29T13:00:00",
      "link": ""
    },
    {
      "id": 279035,
      "lat": 33.0078689630001,
      "lon": 35.093251561,
      "label": "הרמיתג סיטי - חנות למשקאות חריפות - נהריה",
      "text": "",
      "stayTimes": "14:00 - 14:15",
      "t_start": "2020-03-26T12:00:00",
      "t_end": "2020-03-26T12:15:00",
      "link": ""
    },
    {
      "id": 279036,
      "lat": 31.9497430210001,
      "lon": 34.8903589280001,
      "label": "סניף חיסכון - לוד",
      "text": "",
      "stayTimes": "08:00 - 08:30",
      "t_start": "2020-03-30T06:00:00",
      "t_end": "2020-03-30T06:30:00",
      "link": ""
    },
    {
      "id": 279037,
      "lat": 31.9497430210001,
      "lon": 34.8903589280001,
      "label": "סניף חסכון - לוד",
      "text": "",
      "stayTimes": "10:00 - 10:30",
      "t_start": "2020-03-29T08:00:00",
      "t_end": "2020-03-29T08:30:00",
      "link": ""
    },
    {
      "id": 279038,
      "lat": 31.947558379,
      "lon": 34.891374737,
      "label": "טרם - לוד",
      "text": "",
      "stayTimes": "11:00 - 12:00",
      "t_start": "2020-03-29T09:00:00",
      "t_end": "2020-03-29T10:00:00",
      "link": ""
    },
    {
      "id": 279039,
      "lat": 31.7923851190001,
      "lon": 34.8242100000001,
      "label": "מחסני השוק - יד בנימין",
      "text": "",
      "stayTimes": "17:00 - 17:30",
      "t_start": "2020-03-26T15:00:00",
      "t_end": "2020-03-26T15:30:00",
      "link": ""
    },
    {
      "id": 279040,
      "lat": 32.0468299,
      "lon": 34.9085715000001,
      "label": "סופרמרקט יש חסד מתחם פאוור סנטר - בארות יצחק",
      "text": "",
      "stayTimes": "14:00 - 14:30",
      "t_start": "2020-03-27T12:00:00",
      "t_end": "2020-03-27T12:30:00",
      "link": ""
    },
    {
      "id": 279041,
      "lat": 32.0152498,
      "lon": 34.7567722000001,
      "label": "סופר דוש - בת ים",
      "text": "",
      "stayTimes": "11:30 - 12:15",
      "t_start": "2020-03-29T09:30:00",
      "t_end": "2020-03-29T10:15:00",
      "link": ""
    },
    {
      "id": 279042,
      "lat": 31.9328128120001,
      "lon": 35.045095127,
      "label": "צרכניית בר כל - מודיעין עילית",
      "text": "",
      "stayTimes": "09:00 - 10:00",
      "t_start": "2020-03-26T07:00:00",
      "t_end": "2020-03-26T08:00:00",
      "link": ""
    },
    {
      "id": 279043,
      "lat": 30.6115821540001,
      "lon": 34.7972554090001,
      "label": "יצאו כל בני המשפחה לישיבה \"מדברה כעדן\" - מצפה רמון",
      "text": "",
      "stayTimes": "11:30 - 12:30",
      "t_start": "2020-03-28T09:30:00",
      "t_end": "2020-03-28T10:30:00",
      "link": ""
    },
    {
      "id": 279044,
      "lat": 31.7997442980001,
      "lon": 34.6623996050001,
      "label": "מוקד טרם - אשדוד",
      "text": "",
      "stayTimes": "01:00 - 02:00",
      "t_start": "2020-03-28T23:00:00",
      "t_end": "2020-03-29T00:00:00",
      "link": ""
    },
    {
      "id": 279045,
      "lat": 31.7997442980001,
      "lon": 34.6623996050001,
      "label": "מוקד טרם - אשדוד",
      "text": "",
      "stayTimes": "10:30 - 11:05",
      "t_start": "2020-03-29T08:30:00",
      "t_end": "2020-03-29T09:05:00",
      "link": ""
    },
    {
      "id": 279046,
      "lat": 32.0894035000001,
      "lon": 34.8297563,
      "label": "בית ספר בית יעקב - בני ברק",
      "text": "",
      "stayTimes": "06:00 - 07:00",
      "t_start": "2020-03-28T04:00:00",
      "t_end": "2020-03-28T05:00:00",
      "link": ""
    },
    {
      "id": 279047,
      "lat": 31.7931710980001,
      "lon": 34.63977012,
      "label": "סיטי  מרכז בריאות האשה - אשדוד",
      "text": "",
      "stayTimes": "17:00 - 18:00",
      "t_start": "2020-03-30T15:00:00",
      "t_end": "2020-03-30T16:00:00",
      "link": ""
    },
    {
      "id": 279048,
      "lat": 32.2696101280001,
      "lon": 34.888102858,
      "label": "מכולת \"הצרכניה\" - אבן יהודה",
      "text": "",
      "stayTimes": "16:00 - 16:30",
      "t_start": "2020-03-26T14:00:00",
      "t_end": "2020-03-26T14:30:00",
      "link": ""
    },
    {
      "id": 279049,
      "lat": 32.2926403000001,
      "lon": 34.8624596000001,
      "label": "רמי לוי - נתניה",
      "text": "",
      "stayTimes": "16:45 - 17:20",
      "t_start": "2020-03-26T14:45:00",
      "t_end": "2020-03-26T15:20:00",
      "link": ""
    },
    {
      "id": 279050,
      "lat": 32.3205556,
      "lon": 34.8711111000001,
      "label": "ויקטורי - נתניה",
      "text": "",
      "stayTimes": "13:50 - 14:10",
      "t_start": "2020-03-27T11:50:00",
      "t_end": "2020-03-27T12:10:00",
      "link": ""
    },
    {
      "id": 279051,
      "lat": 32.3212566510001,
      "lon": 34.8727711230001,
      "label": "תחנת דלק \"סדש\" - נתניה",
      "text": "",
      "stayTimes": "14:10 - 14:20",
      "t_start": "2020-03-27T12:10:00",
      "t_end": "2020-03-27T12:20:00",
      "link": ""
    },
    {
      "id": 279052,
      "lat": 31.922300819,
      "lon": 34.8102361430001,
      "label": "סופר פרם - נס ציונה",
      "text": "",
      "stayTimes": "12:00 - 12:30",
      "t_start": "2020-03-26T10:00:00",
      "t_end": "2020-03-26T10:30:00",
      "link": ""
    },
    {
      "id": 279053,
      "lat": 31.9223019,
      "lon": 34.810235,
      "label": "מגה בעיר - נס ציונה",
      "text": "",
      "stayTimes": "13:00 - 13:15",
      "t_start": "2020-03-26T11:00:00",
      "t_end": "2020-03-26T11:15:00",
      "link": ""
    },
    {
      "id": 279054,
      "lat": 32.7910993240001,
      "lon": 34.965111936,
      "label": "בדיקת קורונה - חיפה",
      "text": "",
      "stayTimes": "11:00 - 11:02",
      "t_start": "2020-03-30T09:00:00",
      "t_end": "2020-03-30T09:02:00",
      "link": ""
    },
    {
      "id": 279055,
      "lat": 32.1541555580001,
      "lon": 34.841306807,
      "label": "פרי וירק אמירים - הרצליה",
      "text": "",
      "stayTimes": "15:15 - 15:30",
      "t_start": "2020-03-26T13:15:00",
      "t_end": "2020-03-26T13:30:00",
      "link": ""
    },
    {
      "id": 279056,
      "lat": 32.1538782000001,
      "lon": 34.8417392000001,
      "label": "מגה בעיר נוה אמירים - הרצליה",
      "text": "",
      "stayTimes": "15:30 - 16:00",
      "t_start": "2020-03-26T13:30:00",
      "t_end": "2020-03-26T14:00:00",
      "link": ""
    },
    {
      "id": 279057,
      "lat": 31.7526283400001,
      "lon": 35.216555892,
      "label": "מוסך \"לובינסקי\", סניף תלפיות - ירושלים",
      "text": "",
      "stayTimes": "09:00 - 09:20",
      "t_start": "2020-03-26T07:00:00",
      "t_end": "2020-03-26T07:20:00",
      "link": ""
    },
    {
      "id": 279058,
      "lat": 32.522902952,
      "lon": 35.3240745430001,
      "label": "קופת חולים כללית - צנדלה",
      "text": "",
      "stayTimes": "14:15 - 14:30",
      "t_start": "2020-03-29T12:15:00",
      "t_end": "2020-03-29T12:30:00",
      "link": ""
    },
    {
      "id": 279059,
      "lat": 31.930992632,
      "lon": 35.0396411290001,
      "label": "טרם רפואה דחופה - מודיעין עילית",
      "text": "",
      "stayTimes": "17:50 - 18:30",
      "t_start": "2020-03-30T15:50:00",
      "t_end": "2020-03-30T16:30:00",
      "link": ""
    },
    {
      "id": 279060,
      "lat": 31.930264417,
      "lon": 35.038611476,
      "label": "קופת חולים מכבי- אבני עזר - מודיעין עילית",
      "text": "",
      "stayTimes": "10:00 - 08:00",
      "t_start": "2020-03-30T08:00:00",
      "t_end": "2020-03-30T06:00:00",
      "link": ""
    },
    {
      "id": 279061,
      "lat": 32.0948349940001,
      "lon": 34.847044666,
      "label": "חברת אגוז סוכנויות ביטוח קומה 3 - פתח תקווה",
      "text": "",
      "stayTimes": "12:00 - 19:00",
      "t_start": "2020-03-26T10:00:00",
      "t_end": "2020-03-26T17:00:00",
      "link": ""
    },
    {
      "id": 279062,
      "lat": 31.9879464570001,
      "lon": 34.761568975,
      "label": "חנות חצי חינם אזור התעשיה חדש ראשון לציון - ראשון לציון",
      "text": "",
      "stayTimes": "18:00 - 19:00",
      "t_start": "2020-03-26T16:00:00",
      "t_end": "2020-03-26T17:00:00",
      "link": ""
    },
    {
      "id": 279063,
      "lat": 31.9546520000001,
      "lon": 34.8210651000001,
      "label": "שופרסל במגדלי העיר - ראשון לציון",
      "text": "",
      "stayTimes": "07:00 - 07:30",
      "t_start": "2020-03-27T05:00:00",
      "t_end": "2020-03-27T05:30:00",
      "link": ""
    },
    {
      "id": 279064,
      "lat": 31.9541288930001,
      "lon": 34.823334382,
      "label": "חנות תבלינים נאגר שכון המזרח - ראשון לציון",
      "text": "",
      "stayTimes": "07:30 - 08:00",
      "t_start": "2020-03-27T05:30:00",
      "t_end": "2020-03-27T06:00:00",
      "link": ""
    },
    {
      "id": 279065,
      "lat": 32.0304685630001,
      "lon": 34.8815170390001,
      "label": "בורקס יון - יהוד",
      "text": "",
      "stayTimes": "10:00 - 10:30",
      "t_start": "2020-03-27T08:00:00",
      "t_end": "2020-03-27T08:30:00",
      "link": ""
    },
    {
      "id": 279066,
      "lat": 31.245938736,
      "lon": 34.780019775,
      "label": "מחסני השוק- שכונה ט - באר שבע",
      "text": "",
      "stayTimes": "11:00 - 11:30",
      "t_start": "2020-03-26T09:00:00",
      "t_end": "2020-03-26T09:30:00",
      "link": ""
    },
    {
      "id": 279067,
      "lat": 31.8980818000001,
      "lon": 34.8213172000001,
      "label": "קואופ מחסני השוק - רחובות",
      "text": "",
      "stayTimes": "10:00 - 13:00",
      "t_start": "2020-03-26T08:00:00",
      "t_end": "2020-03-26T11:00:00",
      "link": ""
    },
    {
      "id": 279068,
      "lat": 31.884731082,
      "lon": 35.0054970580001,
      "label": "סופר טוב בשכונה מוריה - מודיעין - מודיעין-מכבים-רעות",
      "text": "",
      "stayTimes": "09:00 - 09:30",
      "t_start": "2020-03-26T07:00:00",
      "t_end": "2020-03-26T07:30:00",
      "link": ""
    },
    {
      "id": 279069,
      "lat": 31.7494454000001,
      "lon": 34.9874426000001,
      "label": "חנות ממתקי קובי - מודיעין-מכבים-רעות",
      "text": "",
      "stayTimes": "13:00 - 14:00",
      "t_start": "2020-03-27T11:00:00",
      "t_end": "2020-03-27T12:00:00",
      "link": ""
    },
    {
      "id": 279070,
      "lat": 31.8868552000001,
      "lon": 34.9611475,
      "label": "סופר מקרקט רמי לוי ישפרו - מודיעין-מכבים-רעות",
      "text": "",
      "stayTimes": "19:00 - 20:00",
      "t_start": "2020-03-26T17:00:00",
      "t_end": "2020-03-26T18:00:00",
      "link": ""
    },
    {
      "id": 279071,
      "lat": 31.8899802,
      "lon": 34.9613115000001,
      "label": "סופר יוחננוף ישפרו מודיעין - מודיעין-מכבים-רעות",
      "text": "",
      "stayTimes": "21:00 - 21:15",
      "t_start": "2020-03-26T19:00:00",
      "t_end": "2020-03-26T19:15:00",
      "link": ""
    },
    {
      "id": 279072,
      "lat": 31.8905441000001,
      "lon": 34.9659634000001,
      "label": "שופרסל ישפרו מודיעין - מודיעין-מכבים-רעות",
      "text": "",
      "stayTimes": "21:15 - 21:30",
      "t_start": "2020-03-26T19:15:00",
      "t_end": "2020-03-26T19:30:00",
      "link": ""
    },
    {
      "id": 279073,
      "lat": 32.094804551,
      "lon": 34.783406647,
      "label": "סופר דרייב סטור תל אביב - תל אביב - יפו",
      "text": "",
      "stayTimes": "10:00 - 10:10",
      "t_start": "2020-03-26T08:00:00",
      "t_end": "2020-03-26T08:10:00",
      "link": ""
    },
    {
      "id": 279074,
      "lat": 31.8808251290001,
      "lon": 35.2448973400001,
      "label": "סופר יינות ביתן - כוכב יעקב",
      "text": "",
      "stayTimes": "13:00 - 14:00",
      "t_start": "2020-03-26T11:00:00",
      "t_end": "2020-03-26T12:00:00",
      "link": ""
    },
    {
      "id": 279075,
      "lat": 31.396469,
      "lon": 34.757193,
      "label": "קופת חולים לאומית - רהט",
      "text": "",
      "stayTimes": "16:30 - 17:30",
      "t_start": "2020-03-29T14:30:00",
      "t_end": "2020-03-29T15:30:00",
      "link": ""
    },
    {
      "id": 279076,
      "lat": 31.7789552,
      "lon": 34.6570806,
      "label": "אסותא - אשדוד",
      "text": "",
      "stayTimes": "05:00 - 06:00",
      "t_start": "2020-03-27T03:00:00",
      "t_end": "2020-03-27T04:00:00",
      "link": ""
    },
    {
      "id": 279077,
      "lat": 31.9389251000001,
      "lon": 34.8857412,
      "label": "מד\"א לוד - לוד",
      "text": "",
      "stayTimes": "14:00 - 23:30",
      "t_start": "2020-03-26T12:00:00",
      "t_end": "2020-03-26T21:30:00",
      "link": ""
    },
    {
      "id": 279078,
      "lat": 31.946992998,
      "lon": 34.839328315,
      "label": "היפר דודו - באר יעקב",
      "text": "",
      "stayTimes": "17:00 - 18:00",
      "t_start": "2020-03-29T15:00:00",
      "t_end": "2020-03-29T16:00:00",
      "link": ""
    },
    {
      "id": 279079,
      "lat": 31.9223019,
      "lon": 34.810235,
      "label": "סופר מגה בעיר - נס ציונה",
      "text": "",
      "stayTimes": "16:00 - 16:20",
      "t_start": "2020-03-29T14:00:00",
      "t_end": "2020-03-29T14:20:00",
      "link": ""
    },
    {
      "id": 279080,
      "lat": 32.477495,
      "lon": 34.9449760000001,
      "label": "משרדי החברה - קיסריה",
      "text": "",
      "stayTimes": "08:00 - 08:00",
      "t_start": "2020-03-26T06:00:00",
      "t_end": "2020-03-26T06:00:00",
      "link": ""
    },
    {
      "id": 279081,
      "lat": 31.9660531000001,
      "lon": 34.8394177000001,
      "label": "מכון דיאליזה בי\"ח אסף הרופא - באר יעקב",
      "text": "",
      "stayTimes": "08:00 - 16:00",
      "t_start": "2020-03-27T06:00:00",
      "t_end": "2020-03-27T14:00:00",
      "link": ""
    },
    {
      "id": 279082,
      "lat": 31.905703074,
      "lon": 35.007384491,
      "label": "טרם מודיעין - מודיעין-מכבים-רעות",
      "text": "",
      "stayTimes": "08:00 - 08:10",
      "t_start": "2020-03-30T06:00:00",
      "t_end": "2020-03-30T06:10:00",
      "link": ""
    },
    {
      "id": 279083,
      "lat": 31.9325015700001,
      "lon": 35.0422681960001,
      "label": "בית כנסת קהל חסידים נאות הפסגה - מודיעין עילית",
      "text": "",
      "stayTimes": "10:15 - 11:45",
      "t_start": "2020-03-26T08:15:00",
      "t_end": "2020-03-26T09:45:00",
      "link": ""
    },
    {
      "id": 279084,
      "lat": 31.9325163660001,
      "lon": 35.04226149,
      "label": "בית כנסת קהל חסידים נאות הפסגה - מודיעין עילית",
      "text": "",
      "stayTimes": "19:40 - 20:00",
      "t_start": "2020-03-27T17:40:00",
      "t_end": "2020-03-27T18:00:00",
      "link": ""
    },
    {
      "id": 279085,
      "lat": 31.932615438,
      "lon": 35.0422571190001,
      "label": "בית כנסת קהל חסידים נאות הפסגה - מודיעין עילית",
      "text": "",
      "stayTimes": "10:10 - 12:00",
      "t_start": "2020-03-28T08:10:00",
      "t_end": "2020-03-28T10:00:00",
      "link": ""
    },
    {
      "id": 279086,
      "lat": 31.9277091000001,
      "lon": 35.0472917000001,
      "label": "בית כנסת קהל חסדים נאות הפסגה - מודיעין עילית",
      "text": "",
      "stayTimes": "20:15 - 20:35",
      "t_start": "2020-03-28T18:15:00",
      "t_end": "2020-03-28T18:35:00",
      "link": ""
    },
    {
      "id": 279087,
      "lat": 32.0952446000001,
      "lon": 34.8747432000001,
      "label": "בית כנסת רימון - בני ברק - בני ברק",
      "text": "",
      "stayTimes": "05:00 - 06:00",
      "t_start": "2020-03-27T03:00:00",
      "t_end": "2020-03-27T04:00:00",
      "link": ""
    },
    {
      "id": 279088,
      "lat": 31.9540840070001,
      "lon": 34.890321778,
      "label": "סןפר אושר עד - לוד",
      "text": "",
      "stayTimes": "11:00 - 12:00",
      "t_start": "2020-03-26T09:00:00",
      "t_end": "2020-03-26T10:00:00",
      "link": ""
    },
    {
      "id": 279089,
      "lat": 32.8330348440001,
      "lon": 34.9851329100001,
      "label": "בי\"ח רמב\"ם מיון ממוגן - חיפה",
      "text": "",
      "stayTimes": "08:00 - 09:00",
      "t_start": "2020-03-31T06:00:00",
      "t_end": "2020-03-31T07:00:00",
      "link": ""
    },
    {
      "id": 279090,
      "lat": 32.839700341,
      "lon": 35.0814334740001,
      "label": "מכון רנטגן קופ\"ח מכבי - קרית מוצקין",
      "text": "",
      "stayTimes": "12:15 - 12:35",
      "t_start": "2020-03-30T10:15:00",
      "t_end": "2020-03-30T10:35:00",
      "link": ""
    },
    {
      "id": 279091,
      "lat": 31.9397848410001,
      "lon": 35.0387858180001,
      "label": "מאפה יהודה - מודיעין עילית",
      "text": "",
      "stayTimes": "20:00 - 21:00",
      "t_start": "2020-03-26T18:00:00",
      "t_end": "2020-03-26T19:00:00",
      "link": ""
    },
    {
      "id": 279092,
      "lat": 31.9398782000001,
      "lon": 35.0464255000001,
      "label": "סופר ברכל - מודיעין עילית",
      "text": "",
      "stayTimes": "10:30 - 11:00",
      "t_start": "2020-03-29T08:30:00",
      "t_end": "2020-03-29T09:00:00",
      "link": ""
    },
    {
      "id": 279093,
      "lat": 30.6124486000001,
      "lon": 34.7972646000001,
      "label": "בית כנסת צמח דוד - מצפה רמון",
      "text": "",
      "stayTimes": "08:00 - 09:00",
      "t_start": "2020-03-26T06:00:00",
      "t_end": "2020-03-26T07:00:00",
      "link": ""
    },
    {
      "id": 279094,
      "lat": 32.957928569,
      "lon": 35.495673917,
      "label": "דואר, רחוב הרצל - צפת",
      "text": "",
      "stayTimes": "09:30 - 10:00",
      "t_start": "2020-04-01T07:30:00",
      "t_end": "2020-04-01T08:00:00",
      "link": ""
    },
    {
      "id": 279095,
      "lat": 32.1514060000001,
      "lon": 34.8433383,
      "label": "סופר פארם צמרות - הרצליה",
      "text": "",
      "stayTimes": "11:00 - 11:30",
      "t_start": "2020-03-27T09:00:00",
      "t_end": "2020-03-27T09:30:00",
      "link": ""
    },
    {
      "id": 279096,
      "lat": 32.0768945,
      "lon": 34.7794344000001,
      "label": "מרפאת אהרונוב קופת חולים כללית - תל אביב - יפו",
      "text": "",
      "stayTimes": "08:10 - 08:30",
      "t_start": "2020-03-26T06:10:00",
      "t_end": "2020-03-26T06:30:00",
      "link": ""
    },
    {
      "id": 279097,
      "lat": 32.076895349,
      "lon": 34.779641654,
      "label": "אחות קופת חולים כללית סניף אהרונוב - אצל אחות הקופה - תל אביב - יפו",
      "text": "",
      "stayTimes": "08:00 - 08:00",
      "t_start": "2020-03-27T06:00:00",
      "t_end": "2020-03-27T06:00:00",
      "link": ""
    },
    {
      "id": 279098,
      "lat": 32.066643599,
      "lon": 34.809899199,
      "label": "סופר פארם - גבעתיים",
      "text": "",
      "stayTimes": "16:00 - 17:00",
      "t_start": "2020-03-26T14:00:00",
      "t_end": "2020-03-26T15:00:00",
      "link": ""
    },
    {
      "id": 279099,
      "lat": 32.066315,
      "lon": 34.8109544000001,
      "label": "מגה - גבעתיים",
      "text": "",
      "stayTimes": "17:00 - 18:00",
      "t_start": "2020-03-26T15:00:00",
      "t_end": "2020-03-26T16:00:00",
      "link": ""
    },
    {
      "id": 279100,
      "lat": 32.0452360780001,
      "lon": 34.842521306,
      "label": "בית חולים תל השומר - רמת גן",
      "text": "",
      "stayTimes": "07:00 - 17:30",
      "t_start": "2020-03-27T05:00:00",
      "t_end": "2020-03-27T15:30:00",
      "link": ""
    },
    {
      "id": 279101,
      "lat": 31.9396634170001,
      "lon": 35.084150101,
      "label": "מרפאת ד\"ר יוסלזון - מודיעין עילית",
      "text": "",
      "stayTimes": "13:00 - 13:30",
      "t_start": "2020-03-26T11:00:00",
      "t_end": "2020-03-26T11:30:00",
      "link": ""
    },
    {
      "id": 279102,
      "lat": 31.990937665,
      "lon": 34.8484808000001,
      "label": "בית מרקחת בכפר חבד - שייך לקופת חולים כללית - כפר חב\"ד",
      "text": "",
      "stayTimes": "08:00 - 08:00",
      "t_start": "2020-03-26T06:00:00",
      "t_end": "2020-03-26T06:00:00",
      "link": ""
    },
    {
      "id": 279103,
      "lat": 31.8868552000001,
      "lon": 34.9611475,
      "label": "רמי לוי הסניף הישן - מודיעין-מכבים-רעות",
      "text": "",
      "stayTimes": "16:00 - 17:00",
      "t_start": "2020-03-26T14:00:00",
      "t_end": "2020-03-26T15:00:00",
      "link": ""
    },
    {
      "id": 279104,
      "lat": 31.814293956,
      "lon": 34.7764854500001,
      "label": "עלי מוריה בגדרה. מוסד בית למטופלי צרכים מיוחדים - גדרה",
      "text": "",
      "stayTimes": "08:00 - 14:30",
      "t_start": "2020-03-28T06:00:00",
      "t_end": "2020-03-28T12:30:00",
      "link": ""
    },
    {
      "id": 279105,
      "lat": 33.004353242,
      "lon": 35.0976022630001,
      "label": "חנות דגים מול קשת וטעמים - נהריה",
      "text": "",
      "stayTimes": "13:35 - 13:40",
      "t_start": "2020-03-26T11:35:00",
      "t_end": "2020-03-26T11:40:00",
      "link": ""
    },
    {
      "id": 279106,
      "lat": 33.004353242,
      "lon": 35.0976022630001,
      "label": "סופר קשת טעמים - נהריה",
      "text": "",
      "stayTimes": "13:00 - 13:15",
      "t_start": "2020-03-26T11:00:00",
      "t_end": "2020-03-26T11:15:00",
      "link": ""
    },
    {
      "id": 279107,
      "lat": 32.8047780000001,
      "lon": 35.0033715000001,
      "label": "שוק מהדרין - חיפה",
      "text": "",
      "stayTimes": "11:00 - 11:30",
      "t_start": "2020-03-27T09:00:00",
      "t_end": "2020-03-27T09:30:00",
      "link": ""
    },
    {
      "id": 279108,
      "lat": 32.0860142430001,
      "lon": 34.831381514,
      "label": "מכולת מעיין 2000 - בני ברק",
      "text": "",
      "stayTimes": "12:00 - 12:30",
      "t_start": "2020-03-27T10:00:00",
      "t_end": "2020-03-27T10:30:00",
      "link": ""
    },
    {
      "id": 279109,
      "lat": 32.078745123,
      "lon": 34.8817765150001,
      "label": "מרפאת מכבי - פתח תקווה",
      "text": "",
      "stayTimes": "13:00 - 17:00",
      "t_start": "2020-03-26T11:00:00",
      "t_end": "2020-03-26T15:00:00",
      "link": ""
    },
    {
      "id": 279110,
      "lat": 32.0452360780001,
      "lon": 34.842521306,
      "label": "בי\"ח תל השומר, כירורגית ג', עובד כאח במחלקה - רמת גן",
      "text": "",
      "stayTimes": "07:00 - 15:00",
      "t_start": "2020-03-27T05:00:00",
      "t_end": "2020-03-27T13:00:00",
      "link": ""
    },
    {
      "id": 279111,
      "lat": 32.0525778960001,
      "lon": 34.9511771420001,
      "label": "סופר \"יש חסד\" - אלעד",
      "text": "",
      "stayTimes": "20:00 - 22:00",
      "t_start": "2020-03-26T18:00:00",
      "t_end": "2020-03-26T20:00:00",
      "link": ""
    },
    {
      "id": 279112,
      "lat": 31.946164696,
      "lon": 34.892746296,
      "label": "קופת חולים כללית - לוד",
      "text": "",
      "stayTimes": "09:30 - 09:40",
      "t_start": "2020-03-29T07:30:00",
      "t_end": "2020-03-29T07:40:00",
      "link": ""
    },
    {
      "id": 279113,
      "lat": 31.947558379,
      "lon": 34.891374737,
      "label": "טרם לוד - לוד",
      "text": "",
      "stayTimes": "14:48 - 16:40",
      "t_start": "2020-03-28T12:48:00",
      "t_end": "2020-03-28T14:40:00",
      "link": ""
    },
    {
      "id": 279114,
      "lat": 31.947558379,
      "lon": 34.891374737,
      "label": "טרם לוד - לוד",
      "text": "",
      "stayTimes": "13:42 - 14:47",
      "t_start": "2020-03-27T11:42:00",
      "t_end": "2020-03-27T12:47:00",
      "link": ""
    },
    {
      "id": 279115,
      "lat": 32.094288229,
      "lon": 34.873943995,
      "label": "מקוה נוה גן הטבלת כלים - פתח תקווה",
      "text": "",
      "stayTimes": "10:30 - 10:35",
      "t_start": "2020-03-29T08:30:00",
      "t_end": "2020-03-29T08:35:00",
      "link": ""
    },
    {
      "id": 279116,
      "lat": 32.1061208,
      "lon": 34.8926523000001,
      "label": "האופה מבגדד - פתח תקווה",
      "text": "",
      "stayTimes": "08:30 - 08:35",
      "t_start": "2020-03-27T06:30:00",
      "t_end": "2020-03-27T06:35:00",
      "link": ""
    },
    {
      "id": 279117,
      "lat": 32.1009073320001,
      "lon": 34.8955843370001,
      "label": "\"פעמית סטור\" רחוב הרב פינטו מסעוד 20 סגולה  פתח תקווה - פתח תקווה",
      "text": "",
      "stayTimes": "10:00 - 10:10",
      "t_start": "2020-03-29T08:00:00",
      "t_end": "2020-03-29T08:10:00",
      "link": ""
    },
    {
      "id": 279118,
      "lat": 31.9540840070001,
      "lon": 34.890321778,
      "label": "מרכול אושר עד - לוד",
      "text": "",
      "stayTimes": "19:00 - 20:30",
      "t_start": "2020-03-26T17:00:00",
      "t_end": "2020-03-26T18:30:00",
      "link": ""
    },
    {
      "id": 279119,
      "lat": 31.9352911140001,
      "lon": 35.0456768170001,
      "label": "ישבה בשער חנות בגדים - מודיעין עילית",
      "text": "",
      "stayTimes": "17:00 - 17:05",
      "t_start": "2020-03-26T15:00:00",
      "t_end": "2020-03-26T15:05:00",
      "link": ""
    },
    {
      "id": 279120,
      "lat": 31.926966529,
      "lon": 35.049148265,
      "label": "שחמט חנות לכלים ח\"פ באבני נזר וברכול טוב בנתיבות המשפט 5 - מודיעין עילית",
      "text": "",
      "stayTimes": "11:00 - 13:30",
      "t_start": "2020-03-27T09:00:00",
      "t_end": "2020-03-27T11:30:00",
      "link": ""
    },
    {
      "id": 279121,
      "lat": 32.7917232900001,
      "lon": 34.9648657970001,
      "label": "דרייב אין חיפה - חיפה",
      "text": "",
      "stayTimes": "11:00 - 11:10",
      "t_start": "2020-03-30T09:00:00",
      "t_end": "2020-03-30T09:10:00",
      "link": ""
    },
    {
      "id": 279122,
      "lat": 32.1831267790001,
      "lon": 34.887803793,
      "label": "מעון השקמה - רעננה",
      "text": "",
      "stayTimes": "06:30 - 14:00",
      "t_start": "2020-03-28T04:30:00",
      "t_end": "2020-03-28T12:00:00",
      "link": ""
    },
    {
      "id": 279123,
      "lat": 32.1558361,
      "lon": 34.8911464,
      "label": "בית מרקחת מכבי - הוד השרון",
      "text": "",
      "stayTimes": "09:30 - 10:00",
      "t_start": "2020-03-27T07:30:00",
      "t_end": "2020-03-27T08:00:00",
      "link": ""
    },
    {
      "id": 279124,
      "lat": 31.5302503770001,
      "lon": 34.6052180730001,
      "label": "בית הכנסת שדרות משעול ברנר 3 - שדרות",
      "text": "",
      "stayTimes": "06:00 - 06:45",
      "t_start": "2020-03-31T04:00:00",
      "t_end": "2020-03-25T04:45:00",
      "link": ""
    },
    {
      "id": 279125,
      "lat": 33.0083894800001,
      "lon": 35.117156675,
      "label": "מין ילדים ב\"ח גליל מערבי נהריה - נהריה",
      "text": "",
      "stayTimes": "14:30 - 18:30",
      "t_start": "2020-03-30T12:30:00",
      "t_end": "2020-03-30T16:30:00",
      "link": ""
    },
    {
      "id": 279126,
      "lat": 32.100848867,
      "lon": 34.8935707580001,
      "label": "סופר קשת טעמים - פתח תקווה",
      "text": "",
      "stayTimes": "21:30 - 22:00",
      "t_start": "2020-03-26T19:30:00",
      "t_end": "2020-03-26T20:00:00",
      "link": ""
    },
    {
      "id": 279127,
      "lat": 32.0525778960001,
      "lon": 34.9511771420001,
      "label": "סופר יש חסד - אלעד",
      "text": "",
      "stayTimes": "08:30 - 15:30",
      "t_start": "2020-03-26T06:30:00",
      "t_end": "2020-03-26T13:30:00",
      "link": ""
    },
    {
      "id": 279128,
      "lat": 32.0525778960001,
      "lon": 34.9511771420001,
      "label": "סופר יש חסד - אלעד",
      "text": "",
      "stayTimes": "08:30 - 15:30",
      "t_start": "2020-03-29T06:30:00",
      "t_end": "2020-03-29T13:30:00",
      "link": ""
    },
    {
      "id": 279129,
      "lat": 32.7181118,
      "lon": 35.1218255000001,
      "label": "בית אבות \"נוף טבעון\" - קרית טבעון",
      "text": "",
      "stayTimes": "05:30 - 13:00",
      "t_start": "2020-03-26T03:30:00",
      "t_end": "2020-03-26T11:00:00",
      "link": ""
    },
    {
      "id": 279130,
      "lat": 32.6694444,
      "lon": 35.2375000000001,
      "label": "אושר עד - מגדל העמק",
      "text": "",
      "stayTimes": "17:00 - 20:00",
      "t_start": "2020-03-26T15:00:00",
      "t_end": "2020-03-26T18:00:00",
      "link": ""
    },
    {
      "id": 279131,
      "lat": 31.5215131740001,
      "lon": 34.5951254350001,
      "label": "מוקד \"טרם\" - שדרות",
      "text": "",
      "stayTimes": "19:30 - 20:30",
      "t_start": "2020-03-28T17:30:00",
      "t_end": "2020-03-28T18:30:00",
      "link": ""
    },
    {
      "id": 279132,
      "lat": 32.0751490930001,
      "lon": 34.774745726,
      "label": "דואר ישראל - תל אביב - יפו",
      "text": "",
      "stayTimes": "13:00 - 13:30",
      "t_start": "2020-03-27T11:00:00",
      "t_end": "2020-03-27T11:30:00",
      "link": ""
    },
    {
      "id": 279133,
      "lat": 32.4704617,
      "lon": 35.0387773,
      "label": "שופר סל דיל רחוב גפן 1 - חריש",
      "text": "",
      "stayTimes": "17:00 - 19:30",
      "t_start": "2020-03-29T15:00:00",
      "t_end": "2020-03-29T17:30:00",
      "link": ""
    },
    {
      "id": 279134,
      "lat": 31.6183140000001,
      "lon": 34.752508,
      "label": "סופרמרקט \"שפע ברכה\" - קרית גת",
      "text": "",
      "stayTimes": "11:30 - 13:00",
      "t_start": "2020-03-27T09:30:00",
      "t_end": "2020-03-27T11:00:00",
      "link": ""
    },
    {
      "id": 279135,
      "lat": 31.3987851210001,
      "lon": 34.5982936,
      "label": "קופת חולים כללית - מעגלים",
      "text": "",
      "stayTimes": "08:00 - 08:00",
      "t_start": "2020-03-30T06:00:00",
      "t_end": "2020-03-30T06:00:00",
      "link": ""
    },
    {
      "id": 279136,
      "lat": 31.3987851210001,
      "lon": 34.5982936,
      "label": "קופת חולים כללית - מעגלים",
      "text": "",
      "stayTimes": "11:30 - 12:00",
      "t_start": "2020-03-29T09:30:00",
      "t_end": "2020-03-29T10:00:00",
      "link": ""
    },
    {
      "id": 279137,
      "lat": 32.621038034,
      "lon": 35.3165950600001,
      "label": "מיון בית חולים העמק - עפולה",
      "text": "",
      "stayTimes": "15:00 - 18:30",
      "t_start": "2020-03-30T13:00:00",
      "t_end": "2020-03-30T16:30:00",
      "link": ""
    },
    {
      "id": 279138,
      "lat": 32.257580621,
      "lon": 34.918657904,
      "label": "מכולת - תל מונד",
      "text": "",
      "stayTimes": "17:30 - 20:00",
      "t_start": "2020-03-26T15:30:00",
      "t_end": "2020-03-26T18:00:00",
      "link": ""
    },
    {
      "id": 279139,
      "lat": 32.257580621,
      "lon": 34.918657904,
      "label": "מכולת - תל מונד",
      "text": "",
      "stayTimes": "07:45 - 14:30",
      "t_start": "2020-03-27T05:45:00",
      "t_end": "2020-03-27T12:30:00",
      "link": ""
    },
    {
      "id": 279140,
      "lat": 31.9257367000001,
      "lon": 34.8638844000001,
      "label": "שופרסל דיל קניון עזריאלי - רמלה",
      "text": "",
      "stayTimes": "09:00 - 10:00",
      "t_start": "2020-03-29T07:00:00",
      "t_end": "2020-03-29T08:00:00",
      "link": ""
    },
    {
      "id": 279141,
      "lat": 32.2926403000001,
      "lon": 34.8624596000001,
      "label": "רמי לוי - נתניה",
      "text": "",
      "stayTimes": "16:45 - 17:00",
      "t_start": "2020-03-26T14:45:00",
      "t_end": "2020-03-26T15:00:00",
      "link": ""
    },
    {
      "id": 279142,
      "lat": 32.5355323090001,
      "lon": 34.911462414,
      "label": "קופ\"ח לאומית ג'יסר - ג'סר א-זרקא",
      "text": "",
      "stayTimes": "10:30 - 10:45",
      "t_start": "2020-03-31T08:30:00",
      "t_end": "2020-03-31T08:45:00",
      "link": ""
    },
    {
      "id": 279143,
      "lat": 32.452217019,
      "lon": 34.8967286010001,
      "label": "מיון חלופי הלל יפה - חדרה",
      "text": "",
      "stayTimes": "12:00 - 14:30",
      "t_start": "2020-03-31T10:00:00",
      "t_end": "2020-03-31T12:30:00",
      "link": ""
    },
    {
      "id": 279144,
      "lat": 32.7880209,
      "lon": 34.9681521000001,
      "label": "סופר מרקט - חיפה",
      "text": "",
      "stayTimes": "06:30 - 07:00",
      "t_start": "2020-03-29T04:30:00",
      "t_end": "2020-03-29T05:00:00",
      "link": ""
    },
    {
      "id": 279145,
      "lat": 32.924457622,
      "lon": 35.2770565450001,
      "label": "מרכז קניות דבאח - דייר אל-אסד",
      "text": "",
      "stayTimes": "13:00 - 14:00",
      "t_start": "2020-03-27T11:00:00",
      "t_end": "2020-03-27T12:00:00",
      "link": ""
    },
    {
      "id": 279146,
      "lat": 31.8870629620001,
      "lon": 34.7852496190001,
      "label": "מכולת שכונתית - רחובות",
      "text": "",
      "stayTimes": "10:00 - 11:00",
      "t_start": "2020-03-26T08:00:00",
      "t_end": "2020-03-26T09:00:00",
      "link": ""
    },
    {
      "id": 279147,
      "lat": 32.0219027800001,
      "lon": 34.741265705,
      "label": "סופר דוש - בת ים",
      "text": "",
      "stayTimes": "11:00 - 13:00",
      "t_start": "2020-03-29T09:00:00",
      "t_end": "2020-03-29T11:00:00",
      "link": ""
    },
    {
      "id": 279148,
      "lat": 32.0749602000001,
      "lon": 34.8731998000001,
      "label": "מאפיית שיבולת השרון - פתח תקווה",
      "text": "",
      "stayTimes": "09:30 - 09:30",
      "t_start": "2020-03-27T07:30:00",
      "t_end": "2020-03-27T07:30:00",
      "link": ""
    },
    {
      "id": 279149,
      "lat": 31.781982939,
      "lon": 35.200601911,
      "label": "קריית הממשלה משרד התיירות לשכת השר קומה 5 - ירושלים",
      "text": "",
      "stayTimes": "07:30 - 15:30",
      "t_start": "2020-03-26T05:30:00",
      "t_end": "2020-03-26T13:30:00",
      "link": ""
    },
    {
      "id": 279150,
      "lat": 32.0792146840001,
      "lon": 34.8413412690001,
      "label": "סופר בר כל - בני ברק",
      "text": "",
      "stayTimes": "10:30 - 11:30",
      "t_start": "2020-03-27T08:30:00",
      "t_end": "2020-03-27T09:30:00",
      "link": ""
    },
    {
      "id": 279151,
      "lat": 31.794561023,
      "lon": 34.6397458180001,
      "label": "יינות ביתן - אשדוד",
      "text": "",
      "stayTimes": "15:30 - 16:00",
      "t_start": "2020-03-26T13:30:00",
      "t_end": "2020-03-26T14:00:00",
      "link": ""
    },
    {
      "id": 279152,
      "lat": 31.8095496,
      "lon": 34.6557235000001,
      "label": "ACE  סטאר סנטר - אשדוד",
      "text": "",
      "stayTimes": "16:00 - 16:30",
      "t_start": "2020-03-26T14:00:00",
      "t_end": "2020-03-26T14:30:00",
      "link": ""
    },
    {
      "id": 279153,
      "lat": 32.5355323090001,
      "lon": 34.911462414,
      "label": "קופ\"ח לאומית - ג'סר א-זרקא",
      "text": "",
      "stayTimes": "10:30 - 11:30",
      "t_start": "2020-03-31T08:30:00",
      "t_end": "2020-03-31T09:30:00",
      "link": ""
    },
    {
      "id": 279154,
      "lat": 32.0806592660001,
      "lon": 34.84119832,
      "label": "מאפיית הצבי - בני ברק",
      "text": "",
      "stayTimes": "12:00 - 14:00",
      "t_start": "2020-03-27T10:00:00",
      "t_end": "2020-03-27T12:00:00",
      "link": ""
    },
    {
      "id": 279155,
      "lat": 31.796859268,
      "lon": 35.241855844,
      "label": "בית חולים הדסה הר הצופים - ירושלים",
      "text": "",
      "stayTimes": "17:00 - 20:00",
      "t_start": "2020-03-26T15:00:00",
      "t_end": "2020-03-26T18:00:00",
      "link": ""
    },
    {
      "id": 279156,
      "lat": 31.6023045000001,
      "lon": 34.773082,
      "label": "מחסני השוק\" - קרית גת",
      "text": "",
      "stayTimes": "09:00 - 19:00",
      "t_start": "2020-03-26T07:00:00",
      "t_end": "2020-03-26T17:00:00",
      "link": ""
    },
    {
      "id": 279157,
      "lat": 31.2732440680001,
      "lon": 34.8072657880001,
      "label": "בית כנסת מניין בחוץ \"תפילת חנה\" - באר שבע",
      "text": "",
      "stayTimes": "18:00 - 19:00",
      "t_start": "2020-03-28T16:00:00",
      "t_end": "2020-03-28T17:00:00",
      "link": ""
    },
    {
      "id": 279158,
      "lat": 31.2135308480001,
      "lon": 34.8110135210001,
      "label": "סופר \"אושר עד\" עם מסיכה וכפפות - באר שבע",
      "text": "",
      "stayTimes": "11:30 - 15:00",
      "t_start": "2020-03-29T09:30:00",
      "t_end": "2020-03-29T13:00:00",
      "link": ""
    },
    {
      "id": 279159,
      "lat": 31.7916523050001,
      "lon": 34.658572753,
      "label": "מכולת \"שפע מרקט\" - אשדוד",
      "text": "",
      "stayTimes": "13:00 - 21:30",
      "t_start": "2020-03-26T11:00:00",
      "t_end": "2020-03-26T19:30:00",
      "link": ""
    },
    {
      "id": 279160,
      "lat": 31.792432606,
      "lon": 34.658815647,
      "label": "מכולת שפע מרקט - אשדוד",
      "text": "",
      "stayTimes": "08:00 - 15:30",
      "t_start": "2020-03-27T06:00:00",
      "t_end": "2020-03-27T13:30:00",
      "link": ""
    },
    {
      "id": 279161,
      "lat": 32.1057149260001,
      "lon": 34.891570143,
      "label": "סוכנות רכב סוזוקי - פתח תקווה",
      "text": "",
      "stayTimes": "09:00 - 13:00",
      "t_start": "2020-03-27T07:00:00",
      "t_end": "2020-03-27T11:00:00",
      "link": ""
    },
    {
      "id": 279162,
      "lat": 32.1057149260001,
      "lon": 34.891570143,
      "label": "סוכנות רכב סוזוקי - פתח תקווה",
      "text": "",
      "stayTimes": "09:00 - 16:00",
      "t_start": "2020-03-26T07:00:00",
      "t_end": "2020-03-26T14:00:00",
      "link": ""
    },
    {
      "id": 279163,
      "lat": 32.061210427,
      "lon": 34.8620077160001,
      "label": "סופר  חביב - קרית אונו",
      "text": "",
      "stayTimes": "20:00 - 20:30",
      "t_start": "2020-03-26T18:00:00",
      "t_end": "2020-03-26T18:30:00",
      "link": ""
    },
    {
      "id": 279164,
      "lat": 32.0721784,
      "lon": 35.2690455000001,
      "label": "מרכז מסחרי לב עלי - עלי",
      "text": "",
      "stayTimes": "10:30 - 11:15",
      "t_start": "2020-03-27T08:30:00",
      "t_end": "2020-03-27T09:15:00",
      "link": ""
    },
    {
      "id": 279165,
      "lat": 32.063788016,
      "lon": 35.2645001400001,
      "label": "SO GOOD- תחנת דלק - עלי",
      "text": "",
      "stayTimes": "12:20 - 12:30",
      "t_start": "2020-03-27T10:20:00",
      "t_end": "2020-03-27T10:30:00",
      "link": ""
    },
    {
      "id": 279166,
      "lat": 33.0083233,
      "lon": 35.1171239,
      "label": "ביהח נהריה - נהריה",
      "text": "",
      "stayTimes": "16:00 - 19:00",
      "t_start": "2020-03-30T14:00:00",
      "t_end": "2020-03-30T17:00:00",
      "link": ""
    },
    {
      "id": 279167,
      "lat": 32.052669242,
      "lon": 34.9612677380001,
      "label": "מקולת \"מזל וברכה\" מרכז נחלת יצחק - אלעד",
      "text": "",
      "stayTimes": "16:00 - 16:30",
      "t_start": "2020-03-26T14:00:00",
      "t_end": "2020-03-16T14:30:00",
      "link": ""
    },
    {
      "id": 279168,
      "lat": 31.87270998,
      "lon": 34.813879625,
      "label": "בית חולים קפלן - רחובות",
      "text": "",
      "stayTimes": "09:00 - 11:00",
      "t_start": "2020-03-31T07:00:00",
      "t_end": "2020-03-31T09:00:00",
      "link": ""
    },
    {
      "id": 279169,
      "lat": 32.2832404500001,
      "lon": 34.8535821420001,
      "label": "קואופ שופ , סניף לב יסמין - נתניה",
      "text": "",
      "stayTimes": "10:30 - 10:45",
      "t_start": "2020-03-26T08:30:00",
      "t_end": "2020-03-26T08:45:00",
      "link": ""
    },
    {
      "id": 279170,
      "lat": 32.7532866,
      "lon": 35.1009724,
      "label": "בר כל במועצה - רכסים",
      "text": "",
      "stayTimes": "08:30 - 09:30",
      "t_start": "2020-03-29T06:30:00",
      "t_end": "2020-03-29T07:30:00",
      "link": ""
    },
    {
      "id": 279171,
      "lat": 32.096165646,
      "lon": 34.8360369970001,
      "label": "מכולת \"משביר לעמו\" - בני ברק",
      "text": "",
      "stayTimes": "11:30 - 12:00",
      "t_start": "2020-03-27T09:30:00",
      "t_end": "2020-03-27T10:00:00",
      "link": ""
    },
    {
      "id": 279172,
      "lat": 32.0915515,
      "lon": 34.8247563,
      "label": "סופר פארם ליד מכון מור - בני ברק",
      "text": "",
      "stayTimes": "11:50 - 12:30",
      "t_start": "2020-03-27T09:50:00",
      "t_end": "2020-03-27T10:30:00",
      "link": ""
    },
    {
      "id": 279173,
      "lat": 31.940569591,
      "lon": 35.042258572,
      "label": "חנות \"שפע ברכה\" - מודיעין עילית",
      "text": "",
      "stayTimes": "14:30 - 15:30",
      "t_start": "2020-03-26T12:30:00",
      "t_end": "2020-03-26T13:30:00",
      "link": ""
    },
    {
      "id": 279174,
      "lat": 32.0259967590001,
      "lon": 34.859341719,
      "label": "חנות ירקות של סמיר - אור יהודה",
      "text": "",
      "stayTimes": "11:30 - 12:00",
      "t_start": "2020-03-26T09:30:00",
      "t_end": "2020-03-26T10:00:00",
      "link": ""
    },
    {
      "id": 279175,
      "lat": 32.078031837,
      "lon": 34.831525936,
      "label": "בית כנסת אשכנז - בני ברק",
      "text": "",
      "stayTimes": "08:00 - 10:00",
      "t_start": "2020-03-28T06:00:00",
      "t_end": "2020-03-28T08:00:00",
      "link": ""
    },
    {
      "id": 279176,
      "lat": 32.1040390370001,
      "lon": 34.8105286380001,
      "label": "בדיקת קורונה - דרייב אין - תל אביב - יפו",
      "text": "",
      "stayTimes": "10:00 - 11:00",
      "t_start": "2020-03-30T08:00:00",
      "t_end": "2020-03-30T09:00:00",
      "link": ""
    },
    {
      "id": 279177,
      "lat": 32.074351183,
      "lon": 34.886955851,
      "label": "מיני מרקט - פתח תקווה",
      "text": "",
      "stayTimes": "18:00 - 19:00",
      "t_start": "2020-03-26T16:00:00",
      "t_end": "2020-03-26T17:00:00",
      "link": ""
    },
    {
      "id": 279178,
      "lat": 32.0452360780001,
      "lon": 34.842521306,
      "label": "משמרת בוקר עבודה במחלקת המטו אונקולוגית תל השומר - תל אביב - יפו",
      "text": "",
      "stayTimes": "07:00 - 19:00",
      "t_start": "2020-03-27T05:00:00",
      "t_end": "2020-03-27T17:00:00",
      "link": ""
    },
    {
      "id": 279179,
      "lat": 32.0472987380001,
      "lon": 34.845037228,
      "label": "עבדה בקר במחלקת המטו אונולוגית מבוגרים תל השומר - תל אביב - יפו",
      "text": "",
      "stayTimes": "07:00 - 19:00",
      "t_start": "2020-03-30T05:00:00",
      "t_end": "2020-03-30T17:00:00",
      "link": ""
    },
    {
      "id": 279180,
      "lat": 32.924752084,
      "lon": 35.0938319850001,
      "label": "ביקרה את אמא שלה - עכו",
      "text": "",
      "stayTimes": "18:30 - 20:30",
      "t_start": "2020-03-26T16:30:00",
      "t_end": "2020-03-26T18:30:00",
      "link": ""
    },
    {
      "id": 279181,
      "lat": 33.0083361640001,
      "lon": 35.117140781,
      "label": "מינימרקט   בן חמו - נהריה",
      "text": "",
      "stayTimes": "12:00 - 12:30",
      "t_start": "2020-03-27T10:00:00",
      "t_end": "2020-03-27T10:30:00",
      "link": ""
    },
    {
      "id": 279182,
      "lat": 31.6455817,
      "lon": 34.5943259000001,
      "label": "סופר אושר עד - בת הדר",
      "text": "",
      "stayTimes": "17:00 - 19:00",
      "t_start": "2020-03-26T15:00:00",
      "t_end": "2020-03-26T17:00:00",
      "link": ""
    },
    {
      "id": 279183,
      "lat": 31.9543511680001,
      "lon": 34.82157748,
      "label": "מרפאת כללית מגדלי העיר - ראשון לציון",
      "text": "",
      "stayTimes": "09:30 - 10:15",
      "t_start": "2020-03-29T07:30:00",
      "t_end": "2020-03-29T08:15:00",
      "link": ""
    },
    {
      "id": 279184,
      "lat": 32.079668112,
      "lon": 34.833039421,
      "label": "באזר שטראוס - בני ברק",
      "text": "",
      "stayTimes": "20:00 - 21:00",
      "t_start": "2020-03-26T18:00:00",
      "t_end": "2020-03-26T19:00:00",
      "link": ""
    },
    {
      "id": 279185,
      "lat": 31.9924029000001,
      "lon": 34.8492661000001,
      "label": "סופר ליפסקר כפר חב\"ד - כפר חב\"ד",
      "text": "",
      "stayTimes": "09:00 - 09:30",
      "t_start": "2020-03-26T07:00:00",
      "t_end": "2020-03-26T07:30:00",
      "link": ""
    },
    {
      "id": 279186,
      "lat": 31.9924029000001,
      "lon": 34.8492661000001,
      "label": "סופר היפר ליפסקר - כפר חב\"ד",
      "text": "",
      "stayTimes": "10:00 - 10:30",
      "t_start": "2020-03-27T08:00:00",
      "t_end": "2020-03-27T08:30:00",
      "link": ""
    },
    {
      "id": 279187,
      "lat": 31.9922726250001,
      "lon": 34.8497090400001,
      "label": "חנות דגי שנאורסון - כפר חב\"ד",
      "text": "",
      "stayTimes": "10:45 - 11:00",
      "t_start": "2020-03-26T08:45:00",
      "t_end": "2020-03-26T09:00:00",
      "link": ""
    },
    {
      "id": 279188,
      "lat": 31.9922726250001,
      "lon": 34.8497090400001,
      "label": "חנות בשר שייקביץ - כפר חב\"ד",
      "text": "",
      "stayTimes": "11:00 - 11:50",
      "t_start": "2020-03-26T09:00:00",
      "t_end": "2020-03-26T09:50:00",
      "link": ""
    },
    {
      "id": 279189,
      "lat": 31.9928318250001,
      "lon": 34.8527218620001,
      "label": "חנות עוף חב\"ד- אזור תעשיה - כפר חב\"ד",
      "text": "",
      "stayTimes": "10:45 - 11:15",
      "t_start": "2020-03-27T08:45:00",
      "t_end": "2020-03-27T09:15:00",
      "link": ""
    },
    {
      "id": 279190,
      "lat": 32.8998635,
      "lon": 35.0932117,
      "label": "דבאח עין המפרץ - עין המפרץ",
      "text": "",
      "stayTimes": "11:30 - 12:00",
      "t_start": "2020-03-31T09:30:00",
      "t_end": "2020-03-31T10:00:00",
      "link": ""
    },
    {
      "id": 279191,
      "lat": 32.0360309000001,
      "lon": 34.7627074000001,
      "label": "מיון וולפסון - בעבודה - חולון",
      "text": "",
      "stayTimes": "08:00 - 16:00",
      "t_start": "2020-03-26T06:00:00",
      "t_end": "2020-03-26T14:00:00",
      "link": ""
    },
    {
      "id": 279192,
      "lat": 31.24272956,
      "lon": 34.7977474830001,
      "label": "\"זול סטוק\" חנות לחד פעמי תחנה מרכזית+ מכולת בתחנה מרכזית - באר שבע",
      "text": "",
      "stayTimes": "12:00 - 12:30",
      "t_start": "2020-03-26T10:00:00",
      "t_end": "2020-03-26T10:30:00",
      "link": ""
    },
    {
      "id": 279193,
      "lat": 31.2547739,
      "lon": 34.8143596,
      "label": "סופר ויקטורי - באר שבע",
      "text": "",
      "stayTimes": "18:00 - 19:30",
      "t_start": "2020-03-26T16:00:00",
      "t_end": "2020-03-26T17:30:00",
      "link": ""
    },
    {
      "id": 279194,
      "lat": 32.061185058,
      "lon": 34.8620331400001,
      "label": "סופר חביב - קרית אונו",
      "text": "",
      "stayTimes": "17:40 - 18:00",
      "t_start": "2020-03-29T15:40:00",
      "t_end": "2020-03-29T16:00:00",
      "link": ""
    },
    {
      "id": 279195,
      "lat": 32.061208621,
      "lon": 34.862014587,
      "label": "סופר חביב - קרית אונו",
      "text": "",
      "stayTimes": "17:40 - 18:10",
      "t_start": "2020-03-30T15:40:00",
      "t_end": "2020-03-30T16:10:00",
      "link": ""
    },
    {
      "id": 279196,
      "lat": 31.880350982,
      "lon": 35.2398425000001,
      "label": "מרפאת מאוחדת - כוכב יעקב",
      "text": "",
      "stayTimes": "17:00 - 18:00",
      "t_start": "2020-03-30T15:00:00",
      "t_end": "2020-03-30T16:00:00",
      "link": ""
    },
    {
      "id": 279197,
      "lat": 31.7997442980001,
      "lon": 34.6623996050001,
      "label": "בטרם - אשדוד",
      "text": "",
      "stayTimes": "23:00 - 00:00",
      "t_start": "2020-03-27T21:00:00",
      "t_end": "2020-03-26T22:00:00",
      "link": ""
    },
    {
      "id": 279198,
      "lat": 31.8803427,
      "lon": 35.2398425000001,
      "label": "מרפאת מאוחדת - כוכב יעקב",
      "text": "",
      "stayTimes": "17:00 - 18:00",
      "t_start": "2020-03-30T15:00:00",
      "t_end": "2020-03-30T16:00:00",
      "link": ""
    },
    {
      "id": 279199,
      "lat": 31.9772343510001,
      "lon": 34.799345117,
      "label": "סופר הנחלה - ראשון לציון",
      "text": "",
      "stayTimes": "10:00 - 11:00",
      "t_start": "2020-03-31T08:00:00",
      "t_end": "2020-03-31T09:00:00",
      "link": ""
    },
    {
      "id": 279200,
      "lat": 32.078007977,
      "lon": 34.906240101,
      "label": "היפר מור - פתח תקווה",
      "text": "",
      "stayTimes": "09:30 - 10:00",
      "t_start": "2020-03-29T07:30:00",
      "t_end": "2020-03-29T08:00:00",
      "link": ""
    },
    {
      "id": 279201,
      "lat": 32.768665436,
      "lon": 35.003585883,
      "label": "שופרסל דניה - חיפה",
      "text": "",
      "stayTimes": "11:00 - 11:20",
      "t_start": "2020-03-26T09:00:00",
      "t_end": "2020-03-26T09:20:00",
      "link": ""
    },
    {
      "id": 279202,
      "lat": 32.7211324630001,
      "lon": 35.117730108,
      "label": "מפעל כרומגן - שער העמקים",
      "text": "",
      "stayTimes": "08:00 - 16:00",
      "t_start": "2020-03-30T06:00:00",
      "t_end": "2020-03-30T14:00:00",
      "link": ""
    },
    {
      "id": 279203,
      "lat": 32.806673651,
      "lon": 35.002483957,
      "label": "מרפאת מכבי הדר - חיפה",
      "text": "",
      "stayTimes": "12:00 - 13:00",
      "t_start": "2020-03-29T10:00:00",
      "t_end": "2020-03-29T11:00:00",
      "link": ""
    },
    {
      "id": 279204,
      "lat": 32.0468342190001,
      "lon": 34.9085748790001,
      "label": "יש חסד - בארות יצחק",
      "text": "",
      "stayTimes": "16:30 - 17:00",
      "t_start": "2020-03-29T14:30:00",
      "t_end": "2020-03-29T15:00:00",
      "link": ""
    },
    {
      "id": 279205,
      "lat": 31.313552633,
      "lon": 34.621609398,
      "label": "קופ\"ח לאומית - אופקים",
      "text": "",
      "stayTimes": "08:00 - 08:00",
      "t_start": "2020-03-26T06:00:00",
      "t_end": "2020-03-26T06:00:00",
      "link": ""
    },
    {
      "id": 279206,
      "lat": 32.051086443,
      "lon": 34.957041729,
      "label": "רש\"י 30, אלעד",
      "text": "",
      "stayTimes": "00:00 - 00:00",
      "t_start": "2020-03-25T22:00:00",
      "t_end": "2020-03-25T22:00:00",
      "link": ""
    },
    {
      "id": 279207,
      "lat": 32.0360309000001,
      "lon": 34.7627074000001,
      "label": "בית חולים בלינסון אחות פנימית ב' - פתח תקווה",
      "text": "",
      "stayTimes": "07:00 - 15:30",
      "t_start": "2020-03-27T05:00:00",
      "t_end": "2020-03-27T13:30:00",
      "link": ""
    },
    {
      "id": 279208,
      "lat": 32.078007977,
      "lon": 34.906240101,
      "label": "היפר מור - פתח תקווה",
      "text": "",
      "stayTimes": "06:40 - 07:00",
      "t_start": "2020-03-27T04:40:00",
      "t_end": "2020-03-27T05:00:00",
      "link": ""
    },
    {
      "id": 279209,
      "lat": 32.07237789,
      "lon": 34.9123228060001,
      "label": "מקווה בעל שם טוב - פתח תקווה",
      "text": "",
      "stayTimes": "21:30 - 22:00",
      "t_start": "2020-03-28T19:30:00",
      "t_end": "2020-03-28T20:00:00",
      "link": ""
    },
    {
      "id": 279210,
      "lat": 31.6619693000001,
      "lon": 34.55967,
      "label": "מיון בית חולים ברזילי - אשקלון",
      "text": "",
      "stayTimes": "22:00 - 00:00",
      "t_start": "2020-03-31T20:00:00",
      "t_end": "2020-03-30T22:00:00",
      "link": ""
    },
    {
      "id": 279211,
      "lat": 32.074711145,
      "lon": 34.791689628,
      "label": "מפעל \"נט-ליין\" מתחם עזריאלי בניין עגול קומה 13 - תל אביב - יפו",
      "text": "",
      "stayTimes": "07:45 - 15:30",
      "t_start": "2020-03-30T05:45:00",
      "t_end": "2020-03-30T13:30:00",
      "link": ""
    },
    {
      "id": 279212,
      "lat": 32.0741417090001,
      "lon": 34.7913242750001,
      "label": "מפעל \"נט-ליין\" מתחם עזריאלי בניין עגול קומה 13 - תל אביב - יפו",
      "text": "",
      "stayTimes": "07:45 - 16:00",
      "t_start": "2020-03-29T05:45:00",
      "t_end": "2020-03-29T14:00:00",
      "link": ""
    },
    {
      "id": 279213,
      "lat": 31.6689747,
      "lon": 34.567744797,
      "label": "מכולת דביר, רח' אורט 8 - אשקלון",
      "text": "",
      "stayTimes": "08:30 - 09:00",
      "t_start": "2020-03-27T06:30:00",
      "t_end": "2020-03-27T07:00:00",
      "link": ""
    },
    {
      "id": 279214,
      "lat": 31.975751874,
      "lon": 34.8078484320001,
      "label": "סופר פארם - ראשון לציון",
      "text": "",
      "stayTimes": "20:00 - 22:00",
      "t_start": "2020-03-31T18:00:00",
      "t_end": "2020-03-31T20:00:00",
      "link": ""
    },
    {
      "id": 279215,
      "lat": 33.008376458,
      "lon": 35.1169297500001,
      "label": "מכון CT ב\"ח נהריה - נהריה",
      "text": "",
      "stayTimes": "13:08 - 14:00",
      "t_start": "2020-03-27T11:08:00",
      "t_end": "2020-03-27T12:00:00",
      "link": ""
    },
    {
      "id": 279216,
      "lat": 32.179389901,
      "lon": 34.8788306050001,
      "label": "מאפיית לה מרי - רעננה",
      "text": "",
      "stayTimes": "10:00 - 11:00",
      "t_start": "2020-03-27T08:00:00",
      "t_end": "2020-03-27T09:00:00",
      "link": ""
    },
    {
      "id": 279217,
      "lat": 32.1945945570001,
      "lon": 34.8806136150001,
      "label": "רמי לוי - רעננה",
      "text": "",
      "stayTimes": "12:00 - 13:30",
      "t_start": "2020-03-29T10:00:00",
      "t_end": "2020-03-29T11:30:00",
      "link": ""
    },
    {
      "id": 279218,
      "lat": 32.0452360780001,
      "lon": 34.842521306,
      "label": "מיון קורונה בית החולים שיבא - רמת גן",
      "text": "",
      "stayTimes": "23:00 - 03:00",
      "t_start": "2020-03-28T21:00:00",
      "t_end": "2020-03-29T01:00:00",
      "link": ""
    },
    {
      "id": 279219,
      "lat": 31.785537822,
      "lon": 35.189758931,
      "label": "עמותת מקימי בגבעת שאול - ירושלים",
      "text": "",
      "stayTimes": "12:00 - 17:00",
      "t_start": "2020-03-29T10:00:00",
      "t_end": "2020-03-29T15:00:00",
      "link": ""
    },
    {
      "id": 279220,
      "lat": 32.0360309000001,
      "lon": 34.7627074000001,
      "label": "בית חולים וולפסון פנימית ב' - חולון",
      "text": "",
      "stayTimes": "07:00 - 15:30",
      "t_start": "2020-03-26T05:00:00",
      "t_end": "2020-03-26T13:30:00",
      "link": ""
    },
    {
      "id": 279221,
      "lat": 32.3259570340001,
      "lon": 34.857169146,
      "label": "קונדיטוריה קו העוגיה - נתניה",
      "text": "",
      "stayTimes": "08:00 - 08:30",
      "t_start": "2020-03-27T06:00:00",
      "t_end": "2020-03-27T06:30:00",
      "link": ""
    },
    {
      "id": 279222,
      "lat": 31.6653163,
      "lon": 34.5645574650001,
      "label": "מאפיית \"משי\" רח' הגבורה - אשקלון",
      "text": "",
      "stayTimes": "10:30 - 11:00",
      "t_start": "2020-03-27T08:30:00",
      "t_end": "2020-03-27T09:00:00",
      "link": ""
    },
    {
      "id": 279223,
      "lat": 31.682119716,
      "lon": 34.5731006140001,
      "label": "סניף \"יינות ביתן\" ליד תחנה מרכזית - אשקלון",
      "text": "",
      "stayTimes": "11:00 - 11:30",
      "t_start": "2020-03-27T09:00:00",
      "t_end": "2020-03-27T09:30:00",
      "link": ""
    },
    {
      "id": 279224,
      "lat": 32.0744720480001,
      "lon": 34.791609163,
      "label": "מפעל \"נט-ליין\" מתחם עזריאלי בניין עגול קומה 13 - תל אביב - יפו",
      "text": "",
      "stayTimes": "07:45 - 17:00",
      "t_start": "2020-03-26T05:45:00",
      "t_end": "2020-03-26T15:00:00",
      "link": ""
    },
    {
      "id": 279225,
      "lat": 32.0749562,
      "lon": 34.7920096,
      "label": "סניף \"שופרסל\" מתחם עזריאלי - תל אביב - יפו",
      "text": "",
      "stayTimes": "08:30 - 09:00",
      "t_start": "2020-03-26T06:30:00",
      "t_end": "2020-03-26T07:00:00",
      "link": ""
    },
    {
      "id": 279226,
      "lat": 32.9236277000001,
      "lon": 35.3080387000001,
      "label": "רמי לוי - כרמיאל",
      "text": "",
      "stayTimes": "21:00 - 23:00",
      "t_start": "2020-03-26T19:00:00",
      "t_end": "2020-03-26T21:00:00",
      "link": ""
    },
    {
      "id": 279227,
      "lat": 32.1747683580001,
      "lon": 34.8958143400001,
      "label": "יחידה שיקומית גלר - כפר סבא",
      "text": "",
      "stayTimes": "16:00 - 18:00",
      "t_start": "2020-03-27T14:00:00",
      "t_end": "2020-03-27T16:00:00",
      "link": ""
    },
    {
      "id": 279228,
      "lat": 32.271171958,
      "lon": 34.8889753450001,
      "label": "מרפאת קופ\"ח כללית - אבן יהודה",
      "text": "",
      "stayTimes": "12:00 - 13:00",
      "t_start": "2020-03-30T10:00:00",
      "t_end": "2020-03-30T11:00:00",
      "link": ""
    },
    {
      "id": 279229,
      "lat": 32.0916381920001,
      "lon": 34.8881392870001,
      "label": "מאפית הדגנים - פתח תקווה",
      "text": "",
      "stayTimes": "08:00 - 17:00",
      "t_start": "2020-03-29T06:00:00",
      "t_end": "2020-03-29T15:00:00",
      "link": ""
    },
    {
      "id": 279230,
      "lat": 31.9278486790001,
      "lon": 35.044798078,
      "label": "כאן זול - מודיעין עילית",
      "text": "",
      "stayTimes": "12:00 - 12:15",
      "t_start": "2020-03-29T10:00:00",
      "t_end": "2020-03-29T10:15:00",
      "link": ""
    },
    {
      "id": 279231,
      "lat": 31.927842304,
      "lon": 35.044805587,
      "label": "כאן זול - מודיעין עילית",
      "text": "",
      "stayTimes": "22:00 - 22:40",
      "t_start": "2020-03-29T20:00:00",
      "t_end": "2020-03-29T20:40:00",
      "link": ""
    },
    {
      "id": 279232,
      "lat": 31.9308741360001,
      "lon": 35.045517653,
      "label": "קופ\"ח מאוחדת - מודיעין עילית",
      "text": "",
      "stayTimes": "21:50 - 22:10",
      "t_start": "2020-03-26T19:50:00",
      "t_end": "2020-03-26T20:10:00",
      "link": ""
    },
    {
      "id": 279233,
      "lat": 32.0486699900001,
      "lon": 34.9554948190001,
      "label": "בית כנסת דושינסקי - אלעד",
      "text": "",
      "stayTimes": "09:00 - 10:15",
      "t_start": "2020-03-26T07:00:00",
      "t_end": "2020-03-26T08:15:00",
      "link": ""
    },
    {
      "id": 279234,
      "lat": 31.675827283,
      "lon": 34.606333578,
      "label": "בית כנסת דושינסקי - אלעד",
      "text": "",
      "stayTimes": "09:15 - 11:45",
      "t_start": "2020-03-28T07:15:00",
      "t_end": "2020-03-28T09:45:00",
      "link": ""
    },
    {
      "id": 279235,
      "lat": 31.800283618,
      "lon": 34.662544004,
      "label": "סופרמרקט \"יש חסד\" - אשדוד",
      "text": "",
      "stayTimes": "21:00 - 23:00",
      "t_start": "2020-03-28T19:00:00",
      "t_end": "2020-03-28T21:00:00",
      "link": ""
    },
    {
      "id": 279236,
      "lat": 31.800382739,
      "lon": 34.662396771,
      "label": "\"יש חסד\" - אשדוד",
      "text": "",
      "stayTimes": "08:00 - 09:30",
      "t_start": "2020-04-01T06:00:00",
      "t_end": "2020-04-01T07:30:00",
      "link": ""
    },
    {
      "id": 279237,
      "lat": 31.946992998,
      "lon": 34.839328315,
      "label": "היפר דודו - באר יעקב",
      "text": "",
      "stayTimes": "14:00 - 15:00",
      "t_start": "2020-03-26T12:00:00",
      "t_end": "2020-03-26T13:00:00",
      "link": ""
    },
    {
      "id": 279238,
      "lat": 32.1823231000001,
      "lon": 34.8954868000001,
      "label": "בי\"ח מאיר מחלקה גריאטרית - כפר סבא",
      "text": "",
      "stayTimes": "19:00 - 07:00",
      "t_start": "2020-03-29T17:00:00",
      "t_end": "2020-03-30T05:00:00",
      "link": ""
    },
    {
      "id": 279239,
      "lat": 32.1823231000001,
      "lon": 34.8954868000001,
      "label": "בי\"ח מאיר מחלקה גריאטרית - כפר סבא",
      "text": "",
      "stayTimes": "19:00 - 07:00",
      "t_start": "2020-03-31T17:00:00",
      "t_end": "2020-04-01T05:00:00",
      "link": ""
    },
    {
      "id": 279240,
      "lat": 32.1742756,
      "lon": 34.8967944,
      "label": "מחלקה גריאטרית שיקומית גלר - כפר סבא",
      "text": "",
      "stayTimes": "07:00 - 19:00",
      "t_start": "2020-03-27T05:00:00",
      "t_end": "2020-03-27T17:00:00",
      "link": ""
    },
    {
      "id": 279241,
      "lat": 32.1742756,
      "lon": 34.8967944,
      "label": "מחלקה גריאטרית שיקומית גלר - כפר סבא",
      "text": "",
      "stayTimes": "07:00 - 19:00",
      "t_start": "2020-03-28T05:00:00",
      "t_end": "2020-03-28T17:00:00",
      "link": ""
    },
    {
      "id": 279242,
      "lat": 32.3281065050001,
      "lon": 34.853492311,
      "label": "מרכז בריאות האשה קופת חולים כללית - נתניה",
      "text": "",
      "stayTimes": "14:15 - 14:45",
      "t_start": "2020-03-26T12:15:00",
      "t_end": "2020-03-26T12:45:00",
      "link": ""
    },
    {
      "id": 279243,
      "lat": 32.3262088660001,
      "lon": 34.85658462,
      "label": "ירקן - נתניה",
      "text": "",
      "stayTimes": "14:50 - 15:10",
      "t_start": "2020-03-26T12:50:00",
      "t_end": "2020-03-26T13:10:00",
      "link": ""
    },
    {
      "id": 279244,
      "lat": 32.4714671240001,
      "lon": 34.9540670170001,
      "label": "סופר הדר סנטר - פרדס חנה-כרכור",
      "text": "",
      "stayTimes": "12:00 - 12:30",
      "t_start": "2020-03-27T10:00:00",
      "t_end": "2020-03-27T10:30:00",
      "link": ""
    },
    {
      "id": 279245,
      "lat": 32.4714671240001,
      "lon": 34.9540670170001,
      "label": "B PHARM - פרדס חנה-כרכור",
      "text": "",
      "stayTimes": "14:15 - 14:30",
      "t_start": "2020-04-01T12:15:00",
      "t_end": "2020-04-01T12:30:00",
      "link": ""
    },
    {
      "id": 279246,
      "lat": 32.473793373,
      "lon": 34.9931072810001,
      "label": "מאפיית הנביאים - פרדס חנה-כרכור",
      "text": "",
      "stayTimes": "12:30 - 13:00",
      "t_start": "2020-03-27T10:30:00",
      "t_end": "2020-03-27T11:00:00",
      "link": ""
    },
    {
      "id": 279247,
      "lat": 32.4714671240001,
      "lon": 34.9540670170001,
      "label": "סופר הדר סנטר - פרדס חנה-כרכור",
      "text": "",
      "stayTimes": "14:30 - 14:45",
      "t_start": "2020-04-01T12:30:00",
      "t_end": "2020-04-01T12:45:00",
      "link": ""
    },
    {
      "id": 279248,
      "lat": 32.145188799,
      "lon": 34.8373683670001,
      "label": "קופת חולים כללית - רמת השרון",
      "text": "",
      "stayTimes": "17:55 - 18:45",
      "t_start": "2020-03-27T15:55:00",
      "t_end": "2020-03-27T16:45:00",
      "link": ""
    },
    {
      "id": 279249,
      "lat": 31.65930159,
      "lon": 34.557084753,
      "label": "קופ\"ח לאומית שמשון - אשקלון",
      "text": "",
      "stayTimes": "11:00 - 12:30",
      "t_start": "2020-04-01T09:00:00",
      "t_end": "2020-04-01T10:30:00",
      "link": ""
    },
    {
      "id": 279250,
      "lat": 31.6619693000001,
      "lon": 34.55967,
      "label": "מיון בי\"ח ברזילי - אשקלון",
      "text": "",
      "stayTimes": "12:30 - 17:00",
      "t_start": "2020-04-01T10:30:00",
      "t_end": "2020-04-01T15:00:00",
      "link": ""
    },
    {
      "id": 279251,
      "lat": 32.055225767,
      "lon": 34.960713583,
      "label": "שוק מהדרין - אלעד",
      "text": "",
      "stayTimes": "11:30 - 12:30",
      "t_start": "2020-03-26T09:30:00",
      "t_end": "2020-03-26T10:30:00",
      "link": ""
    },
    {
      "id": 279252,
      "lat": 32.0506720450001,
      "lon": 34.9652177950001,
      "label": "בית כנסת בית יוסף - אלעד",
      "text": "",
      "stayTimes": "08:30 - 10:30",
      "t_start": "2020-03-28T06:30:00",
      "t_end": "2020-03-28T08:30:00",
      "link": ""
    },
    {
      "id": 279253,
      "lat": 32.0506720450001,
      "lon": 34.9652177950001,
      "label": "בית כנסת בית יוסף - אלעד",
      "text": "",
      "stayTimes": "18:00 - 18:30",
      "t_start": "2020-03-28T16:00:00",
      "t_end": "2020-03-28T16:30:00",
      "link": ""
    },
    {
      "id": 279254,
      "lat": 32.0506720450001,
      "lon": 34.9652177950001,
      "label": "בית כנסת בית יוסף - אלעד",
      "text": "",
      "stayTimes": "18:30 - 19:00",
      "t_start": "2020-03-27T16:30:00",
      "t_end": "2020-03-27T17:00:00",
      "link": ""
    },
    {
      "id": 279255,
      "lat": 32.0862497050001,
      "lon": 34.8349746970001,
      "label": "נתיב החסר-סופרמרקט - בני ברק",
      "text": "",
      "stayTimes": "18:30 - 19:30",
      "t_start": "2020-03-26T16:30:00",
      "t_end": "2020-03-26T17:30:00",
      "link": ""
    },
    {
      "id": 279256,
      "lat": 33.0180438,
      "lon": 35.2694409000001,
      "label": "קניון עאסי סנטר, דבאח ביג מרקט - מעיליא",
      "text": "",
      "stayTimes": "16:00 - 16:20",
      "t_start": "2020-03-28T14:00:00",
      "t_end": "2020-03-28T14:20:00",
      "link": ""
    },
    {
      "id": 279257,
      "lat": 32.7496837670001,
      "lon": 35.097162461,
      "label": "עזרה הדדית - רכסים",
      "text": "",
      "stayTimes": "19:30 - 19:50",
      "t_start": "2020-03-29T17:30:00",
      "t_end": "2020-03-29T17:50:00",
      "link": ""
    },
    {
      "id": 279258,
      "lat": 32.7693366770001,
      "lon": 35.0465445520001,
      "label": "מול בית כנסת - נשר",
      "text": "",
      "stayTimes": "13:30 - 14:00",
      "t_start": "2020-03-27T11:30:00",
      "t_end": "2020-03-27T12:00:00",
      "link": ""
    },
    {
      "id": 279259,
      "lat": 32.7705556000001,
      "lon": 35.0475000000001,
      "label": "סופרמרקט רמי לוי - נשר",
      "text": "",
      "stayTimes": "22:15 - 23:35",
      "t_start": "2020-03-26T20:15:00",
      "t_end": "2020-03-26T21:35:00",
      "link": ""
    },
    {
      "id": 279260,
      "lat": 32.0503718200001,
      "lon": 34.9505698570001,
      "label": "קופת חולים מאוחדת סניף שמאי - אלעד",
      "text": "",
      "stayTimes": "09:00 - 13:00",
      "t_start": "2020-03-29T07:00:00",
      "t_end": "2020-03-29T11:00:00",
      "link": ""
    },
    {
      "id": 279261,
      "lat": 32.0503718200001,
      "lon": 34.9505698570001,
      "label": "קופת חולים מאוחדת סניף שמאי - אלעד",
      "text": "",
      "stayTimes": "16:00 - 20:00",
      "t_start": "2020-03-29T14:00:00",
      "t_end": "2020-03-29T18:00:00",
      "link": ""
    },
    {
      "id": 279262,
      "lat": 32.0503718200001,
      "lon": 34.9505698570001,
      "label": "קופת חולים מאוחדת - אלעד",
      "text": "",
      "stayTimes": "08:00 - 12:00",
      "t_start": "2020-03-30T06:00:00",
      "t_end": "2020-03-30T10:00:00",
      "link": ""
    },
    {
      "id": 279263,
      "lat": 32.0503718200001,
      "lon": 34.9505698570001,
      "label": "קופת חולים מאוחדת סניף שמאי - אלעד",
      "text": "",
      "stayTimes": "08:30 - 16:00",
      "t_start": "2020-03-31T06:30:00",
      "t_end": "2020-03-31T14:00:00",
      "link": ""
    },
    {
      "id": 279264,
      "lat": 32.0503718200001,
      "lon": 34.9505698570001,
      "label": "קופת חולים מאוחדת סניף שמאי - אלעד",
      "text": "",
      "stayTimes": "08:30 - 13:30",
      "t_start": "2020-04-01T06:30:00",
      "t_end": "2020-04-01T11:30:00",
      "link": ""
    },
    {
      "id": 279265,
      "lat": 32.0503718200001,
      "lon": 34.9505698570001,
      "label": "קופת חולים מאוחדת סניף שמאי - אלעד",
      "text": "",
      "stayTimes": "08:30 - 13:30",
      "t_start": "2020-03-26T06:30:00",
      "t_end": "2020-03-26T11:30:00",
      "link": ""
    },
    {
      "id": 279266,
      "lat": 32.1710566250001,
      "lon": 34.9168148150001,
      "label": "בית האבות המבריא - כפר סבא",
      "text": "",
      "stayTimes": "08:00 - 12:00",
      "t_start": "2020-03-26T06:00:00",
      "t_end": "2020-03-26T10:00:00",
      "link": ""
    },
    {
      "id": 279267,
      "lat": 32.0799364640001,
      "lon": 34.8333333080001,
      "label": "קופת חולים מאוחדת - בני ברק",
      "text": "",
      "stayTimes": "09:30 - 10:30",
      "t_start": "2020-03-29T07:30:00",
      "t_end": "2020-03-29T08:30:00",
      "link": ""
    },
    {
      "id": 279268,
      "lat": 31.9704968,
      "lon": 34.8126591000001,
      "label": "סניף ויקטורי - ראשון לציון",
      "text": "",
      "stayTimes": "08:15 - 10:30",
      "t_start": "2020-04-01T06:15:00",
      "t_end": "2020-04-01T08:30:00",
      "link": ""
    },
    {
      "id": 279269,
      "lat": 31.9708494560001,
      "lon": 34.8127716980001,
      "label": "חניון ראשון לציון של סניף ויקטורי - ראשון לציון",
      "text": "",
      "stayTimes": "10:30 - 13:00",
      "t_start": "2020-04-01T08:30:00",
      "t_end": "2020-04-01T11:00:00",
      "link": ""
    },
    {
      "id": 279270,
      "lat": 31.8867341000001,
      "lon": 35.0175692,
      "label": "סניף ויקטורי - מודיעין-מכבים-רעות",
      "text": "",
      "stayTimes": "13:00 - 14:30",
      "t_start": "2020-04-01T11:00:00",
      "t_end": "2020-04-01T12:30:00",
      "link": ""
    },
    {
      "id": 279271,
      "lat": 31.8815556180001,
      "lon": 35.013349609,
      "label": "סניף ויקטורי - מודיעין-מכבים-רעות",
      "text": "",
      "stayTimes": "14:30 - 14:30",
      "t_start": "2020-04-01T12:30:00",
      "t_end": "2020-04-01T12:30:00",
      "link": ""
    },
    {
      "id": 279272,
      "lat": 31.604209729,
      "lon": 34.7724365,
      "label": "סניף ויקטורי - קרית גת",
      "text": "",
      "stayTimes": "14:30 - 16:15",
      "t_start": "2020-04-01T12:30:00",
      "t_end": "2020-04-01T14:15:00",
      "link": ""
    },
    {
      "id": 279273,
      "lat": 31.6619693000001,
      "lon": 34.55967,
      "label": "מיון ברזילי - אשקלון",
      "text": "",
      "stayTimes": "19:00 - 20:00",
      "t_start": "2020-03-31T17:00:00",
      "t_end": "2020-03-31T18:00:00",
      "link": ""
    },
    {
      "id": 279274,
      "lat": 31.6619693000001,
      "lon": 34.55967,
      "label": "מיון ברזילי - אשקלון",
      "text": "",
      "stayTimes": "21:30 - 02:30",
      "t_start": "2020-03-31T19:30:00",
      "t_end": "2020-04-01T00:30:00",
      "link": ""
    },
    {
      "id": 279275,
      "lat": 31.6760162260001,
      "lon": 34.6059661310001,
      "label": "שופרסל קוסמוס אשקלון - אשקלון",
      "text": "",
      "stayTimes": "16:00 - 17:00",
      "t_start": "2020-03-31T14:00:00",
      "t_end": "2020-03-31T15:00:00",
      "link": ""
    },
    {
      "id": 279276,
      "lat": 31.6612720090001,
      "lon": 34.563485605,
      "label": "זוהר חד פעמי חתם סופר אשקלון - אשקלון",
      "text": "",
      "stayTimes": "14:00 - 14:30",
      "t_start": "2020-03-30T12:00:00",
      "t_end": "2020-03-30T12:30:00",
      "link": ""
    },
    {
      "id": 279277,
      "lat": 31.6761465000001,
      "lon": 34.6060997000001,
      "label": "שופרסל קוסמוס - אשקלון",
      "text": "",
      "stayTimes": "14:30 - 15:00",
      "t_start": "2020-03-30T12:30:00",
      "t_end": "2020-03-30T13:00:00",
      "link": ""
    },
    {
      "id": 279278,
      "lat": 31.6748478000001,
      "lon": 34.6056682,
      "label": "גמה דיל  קוסמוס אשקלון - אשקלון",
      "text": "",
      "stayTimes": "15:00 - 15:30",
      "t_start": "2020-03-30T13:00:00",
      "t_end": "2020-03-30T13:30:00",
      "link": ""
    },
    {
      "id": 279279,
      "lat": 31.6633566,
      "lon": 34.5858855000001,
      "label": "בטרם - אשקלון",
      "text": "",
      "stayTimes": "13:30 - 18:00",
      "t_start": "2020-03-30T11:30:00",
      "t_end": "2020-03-30T16:00:00",
      "link": ""
    },
    {
      "id": 279280,
      "lat": 31.6633676590001,
      "lon": 34.585884874,
      "label": "בטרם - אשקלון",
      "text": "",
      "stayTimes": "10:49 - 11:00",
      "t_start": "2020-03-31T08:49:00",
      "t_end": "2020-03-31T09:00:00",
      "link": ""
    },
    {
      "id": 279281,
      "lat": 31.637108089,
      "lon": 34.5577269730001,
      "label": "מפעל כי טוב - אשקלון",
      "text": "",
      "stayTimes": "08:00 - 18:00",
      "t_start": "2020-03-29T06:00:00",
      "t_end": "2020-03-29T16:00:00",
      "link": ""
    },
    {
      "id": 279282,
      "lat": 32.073908169,
      "lon": 34.864068994,
      "label": "סופר חביב - פתח תקווה",
      "text": "",
      "stayTimes": "11:00 - 12:00",
      "t_start": "2020-03-27T09:00:00",
      "t_end": "2020-03-27T10:00:00",
      "link": ""
    },
    {
      "id": 279283,
      "lat": 32.073856027,
      "lon": 34.838316741,
      "label": "בית כנסת - בני ברק",
      "text": "",
      "stayTimes": "06:00 - 07:00",
      "t_start": "2020-03-27T04:00:00",
      "t_end": "2020-03-27T05:00:00",
      "link": ""
    },
    {
      "id": 279284,
      "lat": 31.615073377,
      "lon": 34.7589492280001,
      "label": "מכולת שכונתית - קרית גת",
      "text": "",
      "stayTimes": "09:00 - 09:10",
      "t_start": "2020-03-30T07:00:00",
      "t_end": "2020-03-30T07:10:00",
      "link": ""
    },
    {
      "id": 279285,
      "lat": 31.615079087,
      "lon": 34.758950569,
      "label": "מכולת שכונתית - קרית גת",
      "text": "",
      "stayTimes": "09:00 - 09:10",
      "t_start": "2020-03-26T07:00:00",
      "t_end": "2020-03-26T07:10:00",
      "link": ""
    },
    {
      "id": 279286,
      "lat": 31.604191454,
      "lon": 34.7724794150001,
      "label": "ויקאטורי - קרית גת",
      "text": "",
      "stayTimes": "09:30 - 13:30",
      "t_start": "2020-03-30T07:30:00",
      "t_end": "2020-03-30T11:30:00",
      "link": ""
    },
    {
      "id": 279287,
      "lat": 32.674986587,
      "lon": 35.24996508,
      "label": "בית מרקחת במרפאת הכללית נוף העמק - מגדל העמק",
      "text": "",
      "stayTimes": "10:00 - 10:10",
      "t_start": "2020-03-26T08:00:00",
      "t_end": "2020-03-26T08:10:00",
      "link": ""
    },
    {
      "id": 279288,
      "lat": 32.2830085000001,
      "lon": 34.8537062,
      "label": "בית מרקחת פרטית בלב יסמין - נתניה",
      "text": "",
      "stayTimes": "12:00 - 12:10",
      "t_start": "2020-03-27T10:00:00",
      "t_end": "2020-03-27T10:10:00",
      "link": ""
    },
    {
      "id": 279289,
      "lat": 32.2841486,
      "lon": 34.8597587,
      "label": "סופר סל  אקסטרה - נתניה",
      "text": "",
      "stayTimes": "21:00 - 22:00",
      "t_start": "2020-03-28T19:00:00",
      "t_end": "2020-03-28T20:00:00",
      "link": ""
    },
    {
      "id": 279290,
      "lat": 31.6624657040001,
      "lon": 34.5611270950001,
      "label": "ברזילי מרפאות חוץ פה ולסת - אשקלון",
      "text": "",
      "stayTimes": "07:00 - 12:00",
      "t_start": "2020-03-31T05:00:00",
      "t_end": "2020-03-31T10:00:00",
      "link": ""
    },
    {
      "id": 279291,
      "lat": 32.192448208,
      "lon": 34.8919950920001,
      "label": "סופר סל - כפר סבא",
      "text": "",
      "stayTimes": "16:00 - 17:00",
      "t_start": "2020-03-31T14:00:00",
      "t_end": "2020-03-31T15:00:00",
      "link": ""
    },
    {
      "id": 279292,
      "lat": 32.0506553000001,
      "lon": 34.9505048,
      "label": "חנות יבגני מרכז יהלום - אלעד",
      "text": "",
      "stayTimes": "11:00 - 11:30",
      "t_start": "2020-03-29T09:00:00",
      "t_end": "2020-03-29T09:30:00",
      "link": ""
    },
    {
      "id": 279293,
      "lat": 32.0967365880001,
      "lon": 34.840825388,
      "label": "נתיב החסד נויפלד מינימרקט - בני ברק",
      "text": "",
      "stayTimes": "22:00 - 22:30",
      "t_start": "2020-03-28T20:00:00",
      "t_end": "2020-03-28T20:30:00",
      "link": ""
    },
    {
      "id": 279294,
      "lat": 31.6614242220001,
      "lon": 34.5590209280001,
      "label": "חדר ניתוח חדר 6 ברזילי - אשקלון",
      "text": "",
      "stayTimes": "10:00 - 15:00",
      "t_start": "2020-03-30T08:00:00",
      "t_end": "2020-03-30T13:00:00",
      "link": ""
    },
    {
      "id": 279295,
      "lat": 31.662690292,
      "lon": 34.561155469,
      "label": "מרפאות חוץ פה ולסת ברזילי - אשקלון",
      "text": "",
      "stayTimes": "07:00 - 10:00",
      "t_start": "2020-03-30T05:00:00",
      "t_end": "2020-03-30T08:00:00",
      "link": ""
    },
    {
      "id": 279296,
      "lat": 31.6624657040001,
      "lon": 34.5611539170001,
      "label": "ברזילי מרפאות חוץ פה ולסת - אשקלון",
      "text": "",
      "stayTimes": "07:00 - 13:00",
      "t_start": "2020-03-29T05:00:00",
      "t_end": "2020-03-29T11:00:00",
      "link": ""
    },
    {
      "id": 279297,
      "lat": 31.6624657040001,
      "lon": 34.5611539170001,
      "label": "משרד פה ולסת ביניין אשפוז ברזילי - אשקלון",
      "text": "",
      "stayTimes": "07:00 - 13:00",
      "t_start": "2020-03-26T05:00:00",
      "t_end": "2020-03-26T11:00:00",
      "link": ""
    },
    {
      "id": 279298,
      "lat": 32.3314167,
      "lon": 34.8586214000001,
      "label": "שופרסל - נתניה",
      "text": "",
      "stayTimes": "11:00 - 12:00",
      "t_start": "2020-03-27T09:00:00",
      "t_end": "2020-03-27T10:00:00",
      "link": ""
    },
    {
      "id": 279299,
      "lat": 31.6620182400001,
      "lon": 34.559667974,
      "label": "מיון ,ב\"ח ברזילאי - אשקלון",
      "text": "",
      "stayTimes": "16:30 - 17:30",
      "t_start": "2020-04-01T14:30:00",
      "t_end": "2020-04-01T15:30:00",
      "link": ""
    },
    {
      "id": 279300,
      "lat": 31.663273953,
      "lon": 34.5860549130001,
      "label": "\"טרם \" - אשקלון",
      "text": "",
      "stayTimes": "17:00 - 17:30",
      "t_start": "2020-03-30T15:00:00",
      "t_end": "2020-03-30T15:30:00",
      "link": ""
    },
    {
      "id": 279301,
      "lat": 32.1827488970001,
      "lon": 34.865604267,
      "label": "שניצל 20 טעמים - רעננה",
      "text": "",
      "stayTimes": "12:50 - 13:30",
      "t_start": "2020-03-31T10:50:00",
      "t_end": "2020-03-31T11:30:00",
      "link": ""
    },
    {
      "id": 279302,
      "lat": 32.1831304020001,
      "lon": 34.86570677,
      "label": "שוק למהדרין - רעננה",
      "text": "",
      "stayTimes": "16:10 - 08:20",
      "t_start": "2020-04-01T14:10:00",
      "t_end": "2020-04-01T06:20:00",
      "link": ""
    },
    {
      "id": 279303,
      "lat": 32.183408188,
      "lon": 34.8666038110001,
      "label": "בית מרקחת - קופת חולים כללית - רעננה",
      "text": "",
      "stayTimes": "08:00 - 08:00",
      "t_start": "2020-03-26T06:00:00",
      "t_end": "2020-03-26T06:00:00",
      "link": ""
    },
    {
      "id": 279304,
      "lat": 32.183408188,
      "lon": 34.8666038110001,
      "label": "בית מרקחת - קופת חולים כללית - רעננה",
      "text": "",
      "stayTimes": "09:00 - 08:00",
      "t_start": "2020-03-26T07:00:00",
      "t_end": "2020-03-26T06:00:00",
      "link": ""
    },
    {
      "id": 279305,
      "lat": 32.295669123,
      "lon": 34.858989568,
      "label": "מכולת שוק חקלאים - נתניה",
      "text": "",
      "stayTimes": "11:00 - 11:30",
      "t_start": "2020-03-31T09:00:00",
      "t_end": "2020-03-31T09:30:00",
      "link": ""
    },
    {
      "id": 279306,
      "lat": 32.3262088660001,
      "lon": 34.85658462,
      "label": "חנות ירקות - נתניה",
      "text": "",
      "stayTimes": "22:00 - 22:15",
      "t_start": "2020-03-28T20:00:00",
      "t_end": "2020-03-28T20:15:00",
      "link": ""
    },
    {
      "id": 279307,
      "lat": 32.3252325,
      "lon": 34.8573724,
      "label": "בית מרקחת קופת חולים מכבי - נתניה",
      "text": "",
      "stayTimes": "09:30 - 09:35",
      "t_start": "2020-03-29T07:30:00",
      "t_end": "2020-03-29T07:35:00",
      "link": ""
    },
    {
      "id": 279308,
      "lat": 32.086267978,
      "lon": 34.8317220530001,
      "label": "קופח כללית מקום עבודה - בני ברק",
      "text": "",
      "stayTimes": "07:30 - 19:00",
      "t_start": "2020-03-26T05:30:00",
      "t_end": "2020-03-26T17:00:00",
      "link": ""
    },
    {
      "id": 279309,
      "lat": 31.424246152,
      "lon": 34.598053834,
      "label": "מכבי בית מרקחת - נתיבות",
      "text": "",
      "stayTimes": "12:00 - 12:00",
      "t_start": "2020-03-31T10:00:00",
      "t_end": "2020-03-31T10:00:00",
      "link": ""
    },
    {
      "id": 279310,
      "lat": 31.417083227,
      "lon": 34.5726796920001,
      "label": "מכון מאר נתיבות מערב - נתיבות",
      "text": "",
      "stayTimes": "11:30 - 11:45",
      "t_start": "2020-03-31T09:30:00",
      "t_end": "2020-03-31T09:45:00",
      "link": ""
    },