{
  "points": [
    {
      "id": 365612,
      "lat": 30.9812812000001,
      "lon": 34.9473032000001,
      "label": "בית העלמין - ירוחם",
      "text": "",
      "stayTimes": "08:30 - 09:00",
      "t_start": "2020-03-30T06:30:00",
      "t_end": "2020-03-30T07:00:00",
      "link": ""
    },
    {
      "id": 365613,
      "lat": 32.9605311,
      "lon": 35.4994390000001,
      "label": "סופר מחסני השוק - צפת",
      "text": "",
      "stayTimes": "14:00 - 14:30",
      "t_start": "2020-03-31T12:00:00",
      "t_end": "2020-03-31T12:30:00",
      "link": ""
    },
    {
      "id": 365614,
      "lat": 33.0083233,
      "lon": 35.1171239,
      "label": "בית חולים הגליל - נהריה",
      "text": "",
      "stayTimes": "16:00 - 20:00",
      "t_start": "2020-03-29T14:00:00",
      "t_end": "2020-03-29T18:00:00",
      "link": ""
    },
    {
      "id": 365615,
      "lat": 32.069616593,
      "lon": 34.78259316,
      "label": "טיב טעם - החשמונאים 91 תא - תל אביב - יפו",
      "text": "",
      "stayTimes": "19:30 - 21:30",
      "t_start": "2020-03-29T17:30:00",
      "t_end": "2020-03-29T19:30:00",
      "link": ""
    },
    {
      "id": 365616,
      "lat": 32.1811562,
      "lon": 34.897049,
      "label": "בי\"ח מאיר- מרפאה לתיירות מרפא, נלקחה בדיקה - כפר סבא",
      "text": "",
      "stayTimes": "13:20 - 13:30",
      "t_start": "2020-03-29T11:20:00",
      "t_end": "2020-03-29T11:30:00",
      "link": ""
    },
    {
      "id": 365617,
      "lat": 32.4623386490001,
      "lon": 35.0466224800001,
      "label": "שופרסל אקספרס - חריש",
      "text": "",
      "stayTimes": "19:30 - 20:00",
      "t_start": "2020-04-02T17:30:00",
      "t_end": "2020-04-02T18:00:00",
      "link": ""
    },
    {
      "id": 365618,
      "lat": 31.665293945,
      "lon": 34.566231895,
      "label": "מאוחדת - אשקלון",
      "text": "",
      "stayTimes": "09:20 - 09:30",
      "t_start": "2020-03-29T07:20:00",
      "t_end": "2020-03-29T07:30:00",
      "link": ""
    },
    {
      "id": 365619,
      "lat": 32.7078946680001,
      "lon": 35.173445702,
      "label": "סופר האחים דוד - רמת ישי",
      "text": "",
      "stayTimes": "06:00 - 15:43",
      "t_start": "2020-03-29T04:00:00",
      "t_end": "2020-03-29T13:43:00",
      "link": ""
    },
    {
      "id": 365620,
      "lat": 32.708734233,
      "lon": 35.172954857,
      "label": "סופר האחים דוד - רמת ישי",
      "text": "",
      "stayTimes": "13:30 - 18:00",
      "t_start": "2020-03-30T11:30:00",
      "t_end": "2020-03-30T16:00:00",
      "link": ""
    },
    {
      "id": 365621,
      "lat": 31.788912419,
      "lon": 34.6643911580001,
      "label": "מכבי פארם ,רובע ז, מרכזון רשבי , אשדוד בין השעות 11:00-11:15 - אשדוד",
      "text": "",
      "stayTimes": "08:00 - 08:00",
      "t_start": "2020-03-29T06:00:00",
      "t_end": "2020-03-29T06:00:00",
      "link": ""
    },
    {
      "id": 365622,
      "lat": 32.0897515830001,
      "lon": 34.8670658130001,
      "label": "בית חולים בלינסון - פתח תקווה",
      "text": "",
      "stayTimes": "04:00 - 07:00",
      "t_start": "2020-03-29T02:00:00",
      "t_end": "2020-03-29T05:00:00",
      "link": ""
    },
    {
      "id": 365623,
      "lat": 32.621038034,
      "lon": 35.3165950600001,
      "label": "פנימית ג' העמק עפולה - עפולה",
      "text": "",
      "stayTimes": "16:30 - 17:00",
      "t_start": "2020-03-29T14:30:00",
      "t_end": "2020-03-29T15:00:00",
      "link": ""
    },
    {
      "id": 365624,
      "lat": 32.611947877,
      "lon": 35.290123898,
      "label": "קופת כללית עומר - עפולה",
      "text": "",
      "stayTimes": "08:10 - 08:15",
      "t_start": "2020-03-29T06:10:00",
      "t_end": "2020-03-29T06:15:00",
      "link": ""
    },
    {
      "id": 365625,
      "lat": 32.621038034,
      "lon": 35.3165950600001,
      "label": "מיון העמק - עפולה",
      "text": "",
      "stayTimes": "08:30 - 16:30",
      "t_start": "2020-03-29T06:30:00",
      "t_end": "2020-03-29T14:30:00",
      "link": ""
    },
    {
      "id": 365626,
      "lat": 32.90338337,
      "lon": 35.280494596,
      "label": "סופר שלי כרמיאל - כרמיאל",
      "text": "",
      "stayTimes": "14:00 - 15:00",
      "t_start": "2020-03-29T12:00:00",
      "t_end": "2020-03-29T13:00:00",
      "link": ""
    },
    {
      "id": 365627,
      "lat": 31.9497430210001,
      "lon": 34.8903589280001,
      "label": "סניף חיסכון - לוד",
      "text": "",
      "stayTimes": "08:00 - 08:30",
      "t_start": "2020-03-30T06:00:00",
      "t_end": "2020-03-30T06:30:00",
      "link": ""
    },
    {
      "id": 365628,
      "lat": 31.9497430210001,
      "lon": 34.8903589280001,
      "label": "סניף חסכון - לוד",
      "text": "",
      "stayTimes": "10:00 - 10:30",
      "t_start": "2020-03-29T08:00:00",
      "t_end": "2020-03-29T08:30:00",
      "link": ""
    },
    {
      "id": 365629,
      "lat": 31.947558379,
      "lon": 34.891374737,
      "label": "טרם - לוד",
      "text": "",
      "stayTimes": "11:00 - 12:00",
      "t_start": "2020-03-29T09:00:00",
      "t_end": "2020-03-29T10:00:00",
      "link": ""
    },
    {
      "id": 365630,
      "lat": 32.0152498,
      "lon": 34.7567722000001,
      "label": "סופר דוש - בת ים",
      "text": "",
      "stayTimes": "11:30 - 12:15",
      "t_start": "2020-03-29T09:30:00",
      "t_end": "2020-03-29T10:15:00",
      "link": ""
    },
    {
      "id": 365631,
      "lat": 31.7997442980001,
      "lon": 34.6623996050001,
      "label": "מוקד טרם - אשדוד",
      "text": "",
      "stayTimes": "01:00 - 02:00",
      "t_start": "2020-03-28T23:00:00",
      "t_end": "2020-03-29T00:00:00",
      "link": ""
    },
    {
      "id": 365632,
      "lat": 31.7997442980001,
      "lon": 34.6623996050001,
      "label": "מוקד טרם - אשדוד",
      "text": "",
      "stayTimes": "10:30 - 11:05",
      "t_start": "2020-03-29T08:30:00",
      "t_end": "2020-03-29T09:05:00",
      "link": ""
    },
    {
      "id": 365633,
      "lat": 31.7931710980001,
      "lon": 34.63977012,
      "label": "סיטי  מרכז בריאות האשה - אשדוד",
      "text": "",
      "stayTimes": "17:00 - 18:00",
      "t_start": "2020-03-30T15:00:00",
      "t_end": "2020-03-30T16:00:00",
      "link": ""
    },
    {
      "id": 365634,
      "lat": 32.7910993240001,
      "lon": 34.965111936,
      "label": "בדיקת קורונה - חיפה",
      "text": "",
      "stayTimes": "11:00 - 11:02",
      "t_start": "2020-03-30T09:00:00",
      "t_end": "2020-03-30T09:02:00",
      "link": ""
    },
    {
      "id": 365635,
      "lat": 32.522902952,
      "lon": 35.3240745430001,
      "label": "קופת חולים כללית - צנדלה",
      "text": "",
      "stayTimes": "14:15 - 14:30",
      "t_start": "2020-03-29T12:15:00",
      "t_end": "2020-03-29T12:30:00",
      "link": ""
    },
    {
      "id": 365636,
      "lat": 31.930992632,
      "lon": 35.0396411290001,
      "label": "טרם רפואה דחופה - מודיעין עילית",
      "text": "",
      "stayTimes": "17:50 - 18:30",
      "t_start": "2020-03-30T15:50:00",
      "t_end": "2020-03-30T16:30:00",
      "link": ""
    },
    {
      "id": 365637,
      "lat": 31.930264417,
      "lon": 35.038611476,
      "label": "קופת חולים מכבי- אבני עזר - מודיעין עילית",
      "text": "",
      "stayTimes": "10:00 - 08:00",
      "t_start": "2020-03-30T08:00:00",
      "t_end": "2020-03-30T06:00:00",
      "link": ""
    },
    {
      "id": 365638,
      "lat": 31.396469,
      "lon": 34.757193,
      "label": "קופת חולים לאומית - רהט",
      "text": "",
      "stayTimes": "16:30 - 17:30",
      "t_start": "2020-03-29T14:30:00",
      "t_end": "2020-03-29T15:30:00",
      "link": ""
    },
    {
      "id": 365639,
      "lat": 31.946992998,
      "lon": 34.839328315,
      "label": "היפר דודו - באר יעקב",
      "text": "",
      "stayTimes": "17:00 - 18:00",
      "t_start": "2020-03-29T15:00:00",
      "t_end": "2020-03-29T16:00:00",
      "link": ""
    },
    {
      "id": 365640,
      "lat": 31.9223019,
      "lon": 34.810235,
      "label": "סופר מגה בעיר - נס ציונה",
      "text": "",
      "stayTimes": "16:00 - 16:20",
      "t_start": "2020-03-29T14:00:00",
      "t_end": "2020-03-29T14:20:00",
      "link": ""
    },
    {
      "id": 365641,
      "lat": 31.905703074,
      "lon": 35.007384491,
      "label": "טרם מודיעין - מודיעין-מכבים-רעות",
      "text": "",
      "stayTimes": "08:00 - 08:10",
      "t_start": "2020-03-30T06:00:00",
      "t_end": "2020-03-30T06:10:00",
      "link": ""
    },
    {
      "id": 365642,
      "lat": 32.8330348440001,
      "lon": 34.9851329100001,
      "label": "בי\"ח רמב\"ם מיון ממוגן - חיפה",
      "text": "",
      "stayTimes": "08:00 - 09:00",
      "t_start": "2020-03-31T06:00:00",
      "t_end": "2020-03-31T07:00:00",
      "link": ""
    },
    {
      "id": 365643,
      "lat": 32.839700341,
      "lon": 35.0814334740001,
      "label": "מכון רנטגן קופ\"ח מכבי - קרית מוצקין",
      "text": "",
      "stayTimes": "12:15 - 12:35",
      "t_start": "2020-03-30T10:15:00",
      "t_end": "2020-03-30T10:35:00",
      "link": ""
    },
    {
      "id": 365644,
      "lat": 31.9398782000001,
      "lon": 35.0464255000001,
      "label": "סופר ברכל - מודיעין עילית",
      "text": "",
      "stayTimes": "10:30 - 11:00",
      "t_start": "2020-03-29T08:30:00",
      "t_end": "2020-03-29T09:00:00",
      "link": ""
    },
    {
      "id": 365645,
      "lat": 32.957928569,
      "lon": 35.495673917,
      "label": "דואר, רחוב הרצל - צפת",
      "text": "",
      "stayTimes": "09:30 - 10:00",
      "t_start": "2020-04-01T07:30:00",
      "t_end": "2020-04-01T08:00:00",
      "link": ""
    },
    {
      "id": 365646,
      "lat": 31.946164696,
      "lon": 34.892746296,
      "label": "קופת חולים כללית - לוד",
      "text": "",
      "stayTimes": "09:30 - 09:40",
      "t_start": "2020-03-29T07:30:00",
      "t_end": "2020-03-29T07:40:00",
      "link": ""
    },
    {
      "id": 365647,
      "lat": 32.094288229,
      "lon": 34.873943995,
      "label": "מקוה נוה גן הטבלת כלים - פתח תקווה",
      "text": "",
      "stayTimes": "10:30 - 10:35",
      "t_start": "2020-03-29T08:30:00",
      "t_end": "2020-03-29T08:35:00",
      "link": ""
    },
    {
      "id": 365648,
      "lat": 32.1009073320001,
      "lon": 34.8955843370001,
      "label": "\"פעמית סטור\" רחוב הרב פינטו מסעוד 20 סגולה  פתח תקווה - פתח תקווה",
      "text": "",
      "stayTimes": "10:00 - 10:10",
      "t_start": "2020-03-29T08:00:00",
      "t_end": "2020-03-29T08:10:00",
      "link": ""
    },
    {
      "id": 365649,
      "lat": 32.7917232900001,
      "lon": 34.9648657970001,
      "label": "דרייב אין חיפה - חיפה",
      "text": "",
      "stayTimes": "11:00 - 11:10",
      "t_start": "2020-03-30T09:00:00",
      "t_end": "2020-03-30T09:10:00",
      "link": ""
    },
    {
      "id": 365650,
      "lat": 31.5302503770001,
      "lon": 34.6052180730001,
      "label": "בית הכנסת שדרות משעול ברנר 3 - שדרות",
      "text": "",
      "stayTimes": "06:00 - 06:45",
      "t_start": "2020-03-31T04:00:00",
      "t_end": "2020-03-25T04:45:00",
      "link": ""
    },
    {
      "id": 365651,
      "lat": 33.0083894800001,
      "lon": 35.117156675,
      "label": "מין ילדים ב\"ח גליל מערבי נהריה - נהריה",
      "text": "",
      "stayTimes": "14:30 - 18:30",
      "t_start": "2020-03-30T12:30:00",
      "t_end": "2020-03-30T16:30:00",
      "link": ""
    },
    {
      "id": 365652,
      "lat": 32.0525778960001,
      "lon": 34.9511771420001,
      "label": "סופר יש חסד - אלעד",
      "text": "",
      "stayTimes": "08:30 - 15:30",
      "t_start": "2020-03-29T06:30:00",
      "t_end": "2020-03-29T13:30:00",
      "link": ""
    },
    {
      "id": 365653,
      "lat": 32.4704617,
      "lon": 35.0387773,
      "label": "שופר סל דיל רחוב גפן 1 - חריש",
      "text": "",
      "stayTimes": "17:00 - 19:30",
      "t_start": "2020-03-29T15:00:00",
      "t_end": "2020-03-29T17:30:00",
      "link": ""
    },
    {
      "id": 365654,
      "lat": 31.3987851210001,
      "lon": 34.5982936,
      "label": "קופת חולים כללית - מעגלים",
      "text": "",
      "stayTimes": "08:00 - 08:00",
      "t_start": "2020-03-30T06:00:00",
      "t_end": "2020-03-30T06:00:00",
      "link": ""
    },
    {
      "id": 365655,
      "lat": 31.3987851210001,
      "lon": 34.5982936,
      "label": "קופת חולים כללית - מעגלים",
      "text": "",
      "stayTimes": "11:30 - 12:00",
      "t_start": "2020-03-29T09:30:00",
      "t_end": "2020-03-29T10:00:00",
      "link": ""
    },
    {
      "id": 365656,
      "lat": 32.621038034,
      "lon": 35.3165950600001,
      "label": "מיון בית חולים העמק - עפולה",
      "text": "",
      "stayTimes": "15:00 - 18:30",
      "t_start": "2020-03-30T13:00:00",
      "t_end": "2020-03-30T16:30:00",
      "link": ""
    },
    {
      "id": 365657,
      "lat": 31.9257367000001,
      "lon": 34.8638844000001,
      "label": "שופרסל דיל קניון עזריאלי - רמלה",
      "text": "",
      "stayTimes": "09:00 - 10:00",
      "t_start": "2020-03-29T07:00:00",
      "t_end": "2020-03-29T08:00:00",
      "link": ""
    },
    {
      "id": 365658,
      "lat": 32.5355323090001,
      "lon": 34.911462414,
      "label": "קופ\"ח לאומית ג'יסר - ג'סר א-זרקא",
      "text": "",
      "stayTimes": "10:30 - 10:45",
      "t_start": "2020-03-31T08:30:00",
      "t_end": "2020-03-31T08:45:00",
      "link": ""
    },
    {
      "id": 365659,
      "lat": 32.452217019,
      "lon": 34.8967286010001,
      "label": "מיון חלופי הלל יפה - חדרה",
      "text": "",
      "stayTimes": "12:00 - 14:30",
      "t_start": "2020-03-31T10:00:00",
      "t_end": "2020-03-31T12:30:00",
      "link": ""
    },
    {
      "id": 365660,
      "lat": 32.7880209,
      "lon": 34.9681521000001,
      "label": "סופר מרקט - חיפה",
      "text": "",
      "stayTimes": "06:30 - 07:00",
      "t_start": "2020-03-29T04:30:00",
      "t_end": "2020-03-29T05:00:00",
      "link": ""
    },
    {
      "id": 365661,
      "lat": 32.0219027800001,
      "lon": 34.741265705,
      "label": "סופר דוש - בת ים",
      "text": "",
      "stayTimes": "11:00 - 13:00",
      "t_start": "2020-03-29T09:00:00",
      "t_end": "2020-03-29T11:00:00",
      "link": ""
    },
    {
      "id": 365662,
      "lat": 32.5355323090001,
      "lon": 34.911462414,
      "label": "קופ\"ח לאומית - ג'סר א-זרקא",
      "text": "",
      "stayTimes": "10:30 - 11:30",
      "t_start": "2020-03-31T08:30:00",
      "t_end": "2020-03-31T09:30:00",
      "link": ""
    },
    {
      "id": 365663,
      "lat": 31.2135308480001,
      "lon": 34.8110135210001,
      "label": "סופר \"אושר עד\" עם מסיכה וכפפות - באר שבע",
      "text": "",
      "stayTimes": "11:30 - 15:00",
      "t_start": "2020-03-29T09:30:00",
      "t_end": "2020-03-29T13:00:00",
      "link": ""
    },
    {
      "id": 365664,
      "lat": 33.0083233,
      "lon": 35.1171239,
      "label": "ביהח נהריה - נהריה",
      "text": "",
      "stayTimes": "16:00 - 19:00",
      "t_start": "2020-03-30T14:00:00",
      "t_end": "2020-03-30T17:00:00",
      "link": ""
    },
    {
      "id": 365665,
      "lat": 31.87270998,
      "lon": 34.813879625,
      "label": "בית חולים קפלן - רחובות",
      "text": "",
      "stayTimes": "09:00 - 11:00",
      "t_start": "2020-03-31T07:00:00",
      "t_end": "2020-03-31T09:00:00",
      "link": ""
    },
    {
      "id": 365666,
      "lat": 32.7532866,
      "lon": 35.1009724,
      "label": "בר כל במועצה - רכסים",
      "text": "",
      "stayTimes": "08:30 - 09:30",
      "t_start": "2020-03-29T06:30:00",
      "t_end": "2020-03-29T07:30:00",
      "link": ""
    },
    {
      "id": 365667,
      "lat": 32.1040390370001,
      "lon": 34.8105286380001,
      "label": "בדיקת קורונה - דרייב אין - תל אביב - יפו",
      "text": "",
      "stayTimes": "10:00 - 11:00",
      "t_start": "2020-03-30T08:00:00",
      "t_end": "2020-03-30T09:00:00",
      "link": ""
    },
    {
      "id": 365668,
      "lat": 32.0472987380001,
      "lon": 34.845037228,
      "label": "עבדה בקר במחלקת המטו אונולוגית מבוגרים תל השומר - תל אביב - יפו",
      "text": "",
      "stayTimes": "07:00 - 19:00",
      "t_start": "2020-03-30T05:00:00",
      "t_end": "2020-03-30T17:00:00",
      "link": ""
    },
    {
      "id": 365669,
      "lat": 31.9543511680001,
      "lon": 34.82157748,
      "label": "מרפאת כללית מגדלי העיר - ראשון לציון",
      "text": "",
      "stayTimes": "09:30 - 10:15",
      "t_start": "2020-03-29T07:30:00",
      "t_end": "2020-03-29T08:15:00",
      "link": ""
    },
    {
      "id": 365670,
      "lat": 32.8998635,
      "lon": 35.0932117,
      "label": "דבאח עין המפרץ - עין המפרץ",
      "text": "",
      "stayTimes": "11:30 - 12:00",
      "t_start": "2020-03-31T09:30:00",
      "t_end": "2020-03-31T10:00:00",
      "link": ""
    },
    {
      "id": 365671,
      "lat": 32.061185058,
      "lon": 34.8620331400001,
      "label": "סופר חביב - קרית אונו",
      "text": "",
      "stayTimes": "17:40 - 18:00",
      "t_start": "2020-03-29T15:40:00",
      "t_end": "2020-03-29T16:00:00",
      "link": ""
    },
    {
      "id": 365672,
      "lat": 32.061208621,
      "lon": 34.862014587,
      "label": "סופר חביב - קרית אונו",
      "text": "",
      "stayTimes": "17:40 - 18:10",
      "t_start": "2020-03-30T15:40:00",
      "t_end": "2020-03-30T16:10:00",
      "link": ""
    },
    {
      "id": 365673,
      "lat": 31.880350982,
      "lon": 35.2398425000001,
      "label": "מרפאת מאוחדת - כוכב יעקב",
      "text": "",
      "stayTimes": "17:00 - 18:00",
      "t_start": "2020-03-30T15:00:00",
      "t_end": "2020-03-30T16:00:00",
      "link": ""
    },
    {
      "id": 365674,
      "lat": 31.8803427,
      "lon": 35.2398425000001,
      "label": "מרפאת מאוחדת - כוכב יעקב",
      "text": "",
      "stayTimes": "17:00 - 18:00",
      "t_start": "2020-03-30T15:00:00",
      "t_end": "2020-03-30T16:00:00",
      "link": ""
    },
    {
      "id": 365675,
      "lat": 31.9772343510001,
      "lon": 34.799345117,
      "label": "סופר הנחלה - ראשון לציון",
      "text": "",
      "stayTimes": "10:00 - 11:00",
      "t_start": "2020-03-31T08:00:00",
      "t_end": "2020-03-31T09:00:00",
      "link": ""
    },
    {
      "id": 365676,
      "lat": 32.078007977,
      "lon": 34.906240101,
      "label": "היפר מור - פתח תקווה",
      "text": "",
      "stayTimes": "09:30 - 10:00",
      "t_start": "2020-03-29T07:30:00",
      "t_end": "2020-03-29T08:00:00",
      "link": ""
    },
    {
      "id": 365677,
      "lat": 32.7211324630001,
      "lon": 35.117730108,
      "label": "מפעל כרומגן - שער העמקים",
      "text": "",
      "stayTimes": "08:00 - 16:00",
      "t_start": "2020-03-30T06:00:00",
      "t_end": "2020-03-30T14:00:00",
      "link": ""
    },
    {
      "id": 365678,
      "lat": 32.806673651,
      "lon": 35.002483957,
      "label": "מרפאת מכבי הדר - חיפה",
      "text": "",
      "stayTimes": "12:00 - 13:00",
      "t_start": "2020-03-29T10:00:00",
      "t_end": "2020-03-29T11:00:00",
      "link": ""
    },
    {
      "id": 365679,
      "lat": 32.0468342190001,
      "lon": 34.9085748790001,
      "label": "יש חסד - בארות יצחק",
      "text": "",
      "stayTimes": "16:30 - 17:00",
      "t_start": "2020-03-29T14:30:00",
      "t_end": "2020-03-29T15:00:00",
      "link": ""
    },
    {
      "id": 365680,
      "lat": 31.6619693000001,
      "lon": 34.55967,
      "label": "מיון בית חולים ברזילי - אשקלון",
      "text": "",
      "stayTimes": "22:00 - 00:00",
      "t_start": "2020-03-31T20:00:00",
      "t_end": "2020-03-30T22:00:00",
      "link": ""
    },
    {
      "id": 365681,
      "lat": 32.074711145,
      "lon": 34.791689628,
      "label": "מפעל \"נט-ליין\" מתחם עזריאלי בניין עגול קומה 13 - תל אביב - יפו",
      "text": "",
      "stayTimes": "07:45 - 15:30",
      "t_start": "2020-03-30T05:45:00",
      "t_end": "2020-03-30T13:30:00",
      "link": ""
    },
    {
      "id": 365682,
      "lat": 32.0741417090001,
      "lon": 34.7913242750001,
      "label": "מפעל \"נט-ליין\" מתחם עזריאלי בניין עגול קומה 13 - תל אביב - יפו",
      "text": "",
      "stayTimes": "07:45 - 16:00",
      "t_start": "2020-03-29T05:45:00",
      "t_end": "2020-03-29T14:00:00",
      "link": ""
    },
    {
      "id": 365683,
      "lat": 31.975751874,
      "lon": 34.8078484320001,
      "label": "סופר פארם - ראשון לציון",
      "text": "",
      "stayTimes": "20:00 - 22:00",
      "t_start": "2020-03-31T18:00:00",
      "t_end": "2020-03-31T20:00:00",
      "link": ""
    },
    {
      "id": 365684,
      "lat": 32.1945945570001,
      "lon": 34.8806136150001,
      "label": "רמי לוי - רעננה",
      "text": "",
      "stayTimes": "12:00 - 13:30",
      "t_start": "2020-03-29T10:00:00",
      "t_end": "2020-03-29T11:30:00",
      "link": ""
    },
    {
      "id": 365685,
      "lat": 31.785537822,
      "lon": 35.189758931,
      "label": "עמותת מקימי בגבעת שאול - ירושלים",
      "text": "",
      "stayTimes": "12:00 - 17:00",
      "t_start": "2020-03-29T10:00:00",
      "t_end": "2020-03-29T15:00:00",
      "link": ""
    },
    {
      "id": 365686,
      "lat": 32.271171958,
      "lon": 34.8889753450001,
      "label": "מרפאת קופ\"ח כללית - אבן יהודה",
      "text": "",
      "stayTimes": "12:00 - 13:00",
      "t_start": "2020-03-30T10:00:00",
      "t_end": "2020-03-30T11:00:00",
      "link": ""
    },
    {
      "id": 365687,
      "lat": 32.0916381920001,
      "lon": 34.8881392870001,
      "label": "מאפית הדגנים - פתח תקווה",
      "text": "",
      "stayTimes": "08:00 - 17:00",
      "t_start": "2020-03-29T06:00:00",
      "t_end": "2020-03-29T15:00:00",
      "link": ""
    },
    {
      "id": 365688,
      "lat": 31.9278486790001,
      "lon": 35.044798078,
      "label": "כאן זול - מודיעין עילית",
      "text": "",
      "stayTimes": "12:00 - 12:15",
      "t_start": "2020-03-29T10:00:00",
      "t_end": "2020-03-29T10:15:00",
      "link": ""
    },
    {
      "id": 365689,
      "lat": 31.927842304,
      "lon": 35.044805587,
      "label": "כאן זול - מודיעין עילית",
      "text": "",
      "stayTimes": "22:00 - 22:40",
      "t_start": "2020-03-29T20:00:00",
      "t_end": "2020-03-29T20:40:00",
      "link": ""
    },
    {
      "id": 365690,
      "lat": 31.800382739,
      "lon": 34.662396771,
      "label": "\"יש חסד\" - אשדוד",
      "text": "",
      "stayTimes": "08:00 - 09:30",
      "t_start": "2020-04-01T06:00:00",
      "t_end": "2020-04-01T07:30:00",
      "link": ""
    },
    {
      "id": 365691,
      "lat": 32.1823231000001,
      "lon": 34.8954868000001,
      "label": "בי\"ח מאיר מחלקה גריאטרית - כפר סבא",
      "text": "",
      "stayTimes": "19:00 - 07:00",
      "t_start": "2020-03-29T17:00:00",
      "t_end": "2020-03-30T05:00:00",
      "link": ""
    },
    {
      "id": 365692,
      "lat": 32.1823231000001,
      "lon": 34.8954868000001,
      "label": "בי\"ח מאיר מחלקה גריאטרית - כפר סבא",
      "text": "",
      "stayTimes": "19:00 - 07:00",
      "t_start": "2020-03-31T17:00:00",
      "t_end": "2020-04-01T05:00:00",
      "link": ""
    },
    {
      "id": 365693,
      "lat": 32.4714671240001,
      "lon": 34.9540670170001,
      "label": "B PHARM - פרדס חנה-כרכור",
      "text": "",
      "stayTimes": "14:15 - 14:30",
      "t_start": "2020-04-01T12:15:00",
      "t_end": "2020-04-01T12:30:00",
      "link": ""
    },
    {
      "id": 365694,
      "lat": 32.4714671240001,
      "lon": 34.9540670170001,
      "label": "סופר הדר סנטר - פרדס חנה-כרכור",
      "text": "",
      "stayTimes": "14:30 - 14:45",
      "t_start": "2020-04-01T12:30:00",
      "t_end": "2020-04-01T12:45:00",
      "link": ""
    },
    {
      "id": 365695,
      "lat": 31.65930159,
      "lon": 34.557084753,
      "label": "קופ\"ח לאומית שמשון - אשקלון",
      "text": "",
      "stayTimes": "11:00 - 12:30",
      "t_start": "2020-04-01T09:00:00",
      "t_end": "2020-04-01T10:30:00",
      "link": ""
    },
    {
      "id": 365696,
      "lat": 31.6619693000001,
      "lon": 34.55967,
      "label": "מיון בי\"ח ברזילי - אשקלון",
      "text": "",
      "stayTimes": "12:30 - 17:00",
      "t_start": "2020-04-01T10:30:00",
      "t_end": "2020-04-01T15:00:00",
      "link": ""
    },
    {
      "id": 365697,
      "lat": 32.7496837670001,
      "lon": 35.097162461,
      "label": "עזרה הדדית - רכסים",
      "text": "",
      "stayTimes": "19:30 - 19:50",
      "t_start": "2020-03-29T17:30:00",
      "t_end": "2020-03-29T17:50:00",
      "link": ""
    },
    {
      "id": 365698,
      "lat": 32.0503718200001,
      "lon": 34.9505698570001,
      "label": "קופת חולים מאוחדת סניף שמאי - אלעד",
      "text": "",
      "stayTimes": "09:00 - 13:00",
      "t_start": "2020-03-29T07:00:00",
      "t_end": "2020-03-29T11:00:00",
      "link": ""
    },
    {
      "id": 365699,
      "lat": 32.0503718200001,
      "lon": 34.9505698570001,
      "label": "קופת חולים מאוחדת סניף שמאי - אלעד",
      "text": "",
      "stayTimes": "16:00 - 20:00",
      "t_start": "2020-03-29T14:00:00",
      "t_end": "2020-03-29T18:00:00",
      "link": ""
    },
    {
      "id": 365700,
      "lat": 32.0503718200001,
      "lon": 34.9505698570001,
      "label": "קופת חולים מאוחדת - אלעד",
      "text": "",
      "stayTimes": "08:00 - 12:00",
      "t_start": "2020-03-30T06:00:00",
      "t_end": "2020-03-30T10:00:00",
      "link": ""
    },
    {
      "id": 365701,
      "lat": 32.0503718200001,
      "lon": 34.9505698570001,
      "label": "קופת חולים מאוחדת סניף שמאי - אלעד",
      "text": "",
      "stayTimes": "08:30 - 16:00",
      "t_start": "2020-03-31T06:30:00",
      "t_end": "2020-03-31T14:00:00",
      "link": ""
    },
    {
      "id": 365702,
      "lat": 32.0503718200001,
      "lon": 34.9505698570001,
      "label": "קופת חולים מאוחדת סניף שמאי - אלעד",
      "text": "",
      "stayTimes": "08:30 - 13:30",
      "t_start": "2020-04-01T06:30:00",
      "t_end": "2020-04-01T11:30:00",
      "link": ""
    },
    {
      "id": 365703,
      "lat": 32.0799364640001,
      "lon": 34.8333333080001,
      "label": "קופת חולים מאוחדת - בני ברק",
      "text": "",
      "stayTimes": "09:30 - 10:30",
      "t_start": "2020-03-29T07:30:00",
      "t_end": "2020-03-29T08:30:00",
      "link": ""
    },
    {
      "id": 365704,
      "lat": 31.9704968,
      "lon": 34.8126591000001,
      "label": "סניף ויקטורי - ראשון לציון",
      "text": "",
      "stayTimes": "08:15 - 10:30",
      "t_start": "2020-04-01T06:15:00",
      "t_end": "2020-04-01T08:30:00",
      "link": ""
    },
    {
      "id": 365705,
      "lat": 31.9708494560001,
      "lon": 34.8127716980001,
      "label": "חניון ראשון לציון של סניף ויקטורי - ראשון לציון",
      "text": "",
      "stayTimes": "10:30 - 13:00",
      "t_start": "2020-04-01T08:30:00",
      "t_end": "2020-04-01T11:00:00",
      "link": ""
    },
    {
      "id": 365706,
      "lat": 31.8867341000001,
      "lon": 35.0175692,
      "label": "סניף ויקטורי - מודיעין-מכבים-רעות",
      "text": "",
      "stayTimes": "13:00 - 14:30",
      "t_start": "2020-04-01T11:00:00",
      "t_end": "2020-04-01T12:30:00",
      "link": ""
    },
    {
      "id": 365707,
      "lat": 31.8815556180001,
      "lon": 35.013349609,
      "label": "סניף ויקטורי - מודיעין-מכבים-רעות",
      "text": "",
      "stayTimes": "14:30 - 14:30",
      "t_start": "2020-04-01T12:30:00",
      "t_end": "2020-04-01T12:30:00",
      "link": ""
    },
    {
      "id": 365708,
      "lat": 31.604209729,
      "lon": 34.7724365,
      "label": "סניף ויקטורי - קרית גת",
      "text": "",
      "stayTimes": "14:30 - 16:15",
      "t_start": "2020-04-01T12:30:00",
      "t_end": "2020-04-01T14:15:00",
      "link": ""
    },
    {
      "id": 365709,
      "lat": 31.6619693000001,
      "lon": 34.55967,
      "label": "מיון ברזילי - אשקלון",
      "text": "",
      "stayTimes": "19:00 - 20:00",
      "t_start": "2020-03-31T17:00:00",
      "t_end": "2020-03-31T18:00:00",
      "link": ""
    },
    {
      "id": 365710,
      "lat": 31.6619693000001,
      "lon": 34.55967,
      "label": "מיון ברזילי - אשקלון",
      "text": "",
      "stayTimes": "21:30 - 02:30",
      "t_start": "2020-03-31T19:30:00",
      "t_end": "2020-04-01T00:30:00",
      "link": ""
    },
    {
      "id": 365711,
      "lat": 31.6760162260001,
      "lon": 34.6059661310001,
      "label": "שופרסל קוסמוס אשקלון - אשקלון",
      "text": "",
      "stayTimes": "16:00 - 17:00",
      "t_start": "2020-03-31T14:00:00",
      "t_end": "2020-03-31T15:00:00",
      "link": ""
    },
    {
      "id": 365712,
      "lat": 31.6612720090001,
      "lon": 34.563485605,
      "label": "זוהר חד פעמי חתם סופר אשקלון - אשקלון",
      "text": "",
      "stayTimes": "14:00 - 14:30",
      "t_start": "2020-03-30T12:00:00",
      "t_end": "2020-03-30T12:30:00",
      "link": ""
    },
    {
      "id": 365713,
      "lat": 31.6761465000001,
      "lon": 34.6060997000001,
      "label": "שופרסל קוסמוס - אשקלון",
      "text": "",
      "stayTimes": "14:30 - 15:00",
      "t_start": "2020-03-30T12:30:00",
      "t_end": "2020-03-30T13:00:00",
      "link": ""
    },
    {
      "id": 365714,
      "lat": 31.6748478000001,
      "lon": 34.6056682,
      "label": "גמה דיל  קוסמוס אשקלון - אשקלון",
      "text": "",
      "stayTimes": "15:00 - 15:30",
      "t_start": "2020-03-30T13:00:00",
      "t_end": "2020-03-30T13:30:00",
      "link": ""
    },
    {
      "id": 365715,
      "lat": 31.6633566,
      "lon": 34.5858855000001,
      "label": "בטרם - אשקלון",
      "text": "",
      "stayTimes": "13:30 - 18:00",
      "t_start": "2020-03-30T11:30:00",
      "t_end": "2020-03-30T16:00:00",
      "link": ""
    },
    {
      "id": 365716,
      "lat": 31.6633676590001,
      "lon": 34.585884874,
      "label": "בטרם - אשקלון",
      "text": "",
      "stayTimes": "10:49 - 11:00",
      "t_start": "2020-03-31T08:49:00",
      "t_end": "2020-03-31T09:00:00",
      "link": ""
    },
    {
      "id": 365717,
      "lat": 31.637108089,
      "lon": 34.5577269730001,
      "label": "מפעל כי טוב - אשקלון",
      "text": "",
      "stayTimes": "08:00 - 18:00",
      "t_start": "2020-03-29T06:00:00",
      "t_end": "2020-03-29T16:00:00",
      "link": ""
    },
    {
      "id": 365718,
      "lat": 31.615073377,
      "lon": 34.7589492280001,
      "label": "מכולת שכונתית - קרית גת",
      "text": "",
      "stayTimes": "09:00 - 09:10",
      "t_start": "2020-03-30T07:00:00",
      "t_end": "2020-03-30T07:10:00",
      "link": ""
    },
    {
      "id": 365719,
      "lat": 31.604191454,
      "lon": 34.7724794150001,
      "label": "ויקאטורי - קרית גת",
      "text": "",
      "stayTimes": "09:30 - 13:30",
      "t_start": "2020-03-30T07:30:00",
      "t_end": "2020-03-30T11:30:00",
      "link": ""
    },
    {
      "id": 365720,
      "lat": 31.6624657040001,
      "lon": 34.5611270950001,
      "label": "ברזילי מרפאות חוץ פה ולסת - אשקלון",
      "text": "",
      "stayTimes": "07:00 - 12:00",
      "t_start": "2020-03-31T05:00:00",
      "t_end": "2020-03-31T10:00:00",
      "link": ""
    },
    {
      "id": 365721,
      "lat": 32.192448208,
      "lon": 34.8919950920001,
      "label": "סופר סל - כפר סבא",
      "text": "",
      "stayTimes": "16:00 - 17:00",
      "t_start": "2020-03-31T14:00:00",
      "t_end": "2020-03-31T15:00:00",
      "link": ""
    },
    {
      "id": 365722,
      "lat": 32.0506553000001,
      "lon": 34.9505048,
      "label": "חנות יבגני מרכז יהלום - אלעד",
      "text": "",
      "stayTimes": "11:00 - 11:30",
      "t_start": "2020-03-29T09:00:00",
      "t_end": "2020-03-29T09:30:00",
      "link": ""
    },
    {
      "id": 365723,
      "lat": 31.6614242220001,
      "lon": 34.5590209280001,
      "label": "חדר ניתוח חדר 6 ברזילי - אשקלון",
      "text": "",
      "stayTimes": "10:00 - 15:00",
      "t_start": "2020-03-30T08:00:00",
      "t_end": "2020-03-30T13:00:00",
      "link": ""
    },
    {
      "id": 365724,
      "lat": 31.662690292,
      "lon": 34.561155469,
      "label": "מרפאות חוץ פה ולסת ברזילי - אשקלון",
      "text": "",
      "stayTimes": "07:00 - 10:00",
      "t_start": "2020-03-30T05:00:00",
      "t_end": "2020-03-30T08:00:00",
      "link": ""
    },
    {
      "id": 365725,
      "lat": 31.6624657040001,
      "lon": 34.5611539170001,
      "label": "ברזילי מרפאות חוץ פה ולסת - אשקלון",
      "text": "",
      "stayTimes": "07:00 - 13:00",
      "t_start": "2020-03-29T05:00:00",
      "t_end": "2020-03-29T11:00:00",
      "link": ""
    },
    {
      "id": 365726,
      "lat": 31.6620182400001,
      "lon": 34.559667974,
      "label": "מיון ,ב\"ח ברזילאי - אשקלון",
      "text": "",
      "stayTimes": "16:30 - 17:30",
      "t_start": "2020-04-01T14:30:00",
      "t_end": "2020-04-01T15:30:00",
      "link": ""
    },
    {
      "id": 365727,
      "lat": 31.663273953,
      "lon": 34.5860549130001,
      "label": "\"טרם \" - אשקלון",
      "text": "",
      "stayTimes": "17:00 - 17:30",
      "t_start": "2020-03-30T15:00:00",
      "t_end": "2020-03-30T15:30:00",
      "link": ""
    },
    {
      "id": 365728,
      "lat": 32.1827488970001,
      "lon": 34.865604267,
      "label": "שניצל 20 טעמים - רעננה",
      "text": "",
      "stayTimes": "12:50 - 13:30",
      "t_start": "2020-03-31T10:50:00",
      "t_end": "2020-03-31T11:30:00",
      "link": ""
    },
    {
      "id": 365729,
      "lat": 32.1831304020001,
      "lon": 34.86570677,
      "label": "שוק למהדרין - רעננה",
      "text": "",
      "stayTimes": "16:10 - 08:20",
      "t_start": "2020-04-01T14:10:00",
      "t_end": "2020-04-01T06:20:00",
      "link": ""
    },
    {
      "id": 365730,
      "lat": 32.295669123,
      "lon": 34.858989568,
      "label": "מכולת שוק חקלאים - נתניה",
      "text": "",
      "stayTimes": "11:00 - 11:30",
      "t_start": "2020-03-31T09:00:00",
      "t_end": "2020-03-31T09:30:00",
      "link": ""
    },
    {
      "id": 365731,
      "lat": 32.3252325,
      "lon": 34.8573724,
      "label": "בית מרקחת קופת חולים מכבי - נתניה",
      "text": "",
      "stayTimes": "09:30 - 09:35",
      "t_start": "2020-03-29T07:30:00",
      "t_end": "2020-03-29T07:35:00",
      "link": ""
    },
    {
      "id": 365732,
      "lat": 31.424246152,
      "lon": 34.598053834,
      "label": "מכבי בית מרקחת - נתיבות",
      "text": "",
      "stayTimes": "12:00 - 12:00",
      "t_start": "2020-03-31T10:00:00",
      "t_end": "2020-03-31T10:00:00",
      "link": ""
    },
    {
      "id": 365733,
      "lat": 31.417083227,
      "lon": 34.5726796920001,
      "label": "מכון מאר נתיבות מערב - נתיבות",
      "text": "",
      "stayTimes": "11:30 - 11:45",
      "t_start": "2020-03-31T09:30:00",
      "t_end": "2020-03-31T09:45:00",
      "link": ""
    },
    {
      "id": 365734,
      "lat": 31.700773106,
      "lon": 35.111442708,
      "label": "קופת חולים \"מאוחדת\" - במתחם מרכז הקניות חיים זקן - ביתר עילית",
      "text": "",
      "stayTimes": "14:00 - 14:10",
      "t_start": "2020-03-29T12:00:00",
      "t_end": "2020-03-29T12:10:00",
      "link": ""
    },
    {
      "id": 365735,
      "lat": 31.6989509490001,
      "lon": 35.105915555,
      "label": "מאפיית \"נחמה\" - במרכז חיים זקן - ביתר עילית",
      "text": "",
      "stayTimes": "20:15 - 20:35",
      "t_start": "2020-03-29T18:15:00",
      "t_end": "2020-03-29T18:35:00",
      "link": ""
    },
    {
      "id": 365736,
      "lat": 32.0792146840001,
      "lon": 34.8413412690001,
      "label": "מרכל - בני ברק",
      "text": "",
      "stayTimes": "15:00 - 15:30",
      "t_start": "2020-03-29T13:00:00",
      "t_end": "2020-03-29T13:30:00",
      "link": ""
    },
    {
      "id": 365737,
      "lat": 32.098897919,
      "lon": 34.8297113780001,
      "label": "אושר עד מקום עבודה - בני ברק",
      "text": "",
      "stayTimes": "07:30 - 22:30",
      "t_start": "2020-03-29T05:30:00",
      "t_end": "2020-03-29T20:30:00",
      "link": ""
    },
    {
      "id": 365738,
      "lat": 32.0833403350001,
      "lon": 34.8405714290001,
      "label": "קופת חולים מכבי - בני ברק",
      "text": "",
      "stayTimes": "10:00 - 10:30",
      "t_start": "2020-03-29T08:00:00",
      "t_end": "2020-03-29T08:30:00",
      "link": ""
    },
    {
      "id": 365739,
      "lat": 31.7858979820001,
      "lon": 35.1883562080001,
      "label": "מרפאה \"רפא נא\" - ירושלים",
      "text": "",
      "stayTimes": "13:00 - 13:30",
      "t_start": "2020-03-29T11:00:00",
      "t_end": "2020-03-29T11:30:00",
      "link": ""
    },
    {
      "id": 365740,
      "lat": 32.811575885,
      "lon": 35.1044716270001,
      "label": "מרפאת כללית מרכז הילד - קרית אתא",
      "text": "",
      "stayTimes": "08:00 - 16:00",
      "t_start": "2020-03-30T06:00:00",
      "t_end": "2020-03-30T14:00:00",
      "link": ""
    },
    {
      "id": 365741,
      "lat": 32.732468254,
      "lon": 35.141654949,
      "label": "סופר האני - קרית טבעון",
      "text": "",
      "stayTimes": "17:30 - 18:30",
      "t_start": "2020-03-29T15:30:00",
      "t_end": "2020-03-29T16:30:00",
      "link": ""
    },
    {
      "id": 365742,
      "lat": 32.7548144560001,
      "lon": 35.103473104,
      "label": "יש חסד - רכסים",
      "text": "",
      "stayTimes": "19:00 - 20:00",
      "t_start": "2020-03-29T17:00:00",
      "t_end": "2020-03-29T18:00:00",
      "link": ""
    },
    {
      "id": 365743,
      "lat": 32.0792146840001,
      "lon": 34.8413412690001,
      "label": "בר כל מקום עבודה - בני ברק",
      "text": "",
      "stayTimes": "08:00 - 15:30",
      "t_start": "2020-03-29T06:00:00",
      "t_end": "2020-03-29T13:30:00",
      "link": ""
    },
    {
      "id": 365744,
      "lat": 32.0796401420001,
      "lon": 34.8407271350001,
      "label": "מקום עבודה בר כל - בני ברק",
      "text": "",
      "stayTimes": "08:30 - 15:30",
      "t_start": "2020-03-30T06:30:00",
      "t_end": "2020-03-30T13:30:00",
      "link": ""
    },
    {
      "id": 365745,
      "lat": 32.2819559000001,
      "lon": 34.8412581000001,
      "label": "חיטמן עוזי 3, נתניה",
      "text": "",
      "stayTimes": "12:00 - 14:00",
      "t_start": "2020-03-29T10:00:00",
      "t_end": "2020-03-29T12:00:00",
      "link": ""
    },
    {
      "id": 365746,
      "lat": 32.089989514,
      "lon": 34.833864664,
      "label": "מכולת שמשון - בני ברק",
      "text": "",
      "stayTimes": "09:00 - 09:30",
      "t_start": "2020-03-29T07:00:00",
      "t_end": "2020-03-29T07:30:00",
      "link": ""
    },
    {
      "id": 365747,
      "lat": 32.089989514,
      "lon": 34.833864664,
      "label": "מכולת שמשון - בני ברק",
      "text": "",
      "stayTimes": "09:00 - 09:30",
      "t_start": "2020-03-30T07:00:00",
      "t_end": "2020-03-30T07:30:00",
      "link": ""
    },
    {
      "id": 365748,
      "lat": 31.664188487,
      "lon": 34.563273591,
      "label": "ויקטורי - אשקלון",
      "text": "",
      "stayTimes": "13:30 - 14:30",
      "t_start": "2020-04-01T11:30:00",
      "t_end": "2020-04-01T12:30:00",
      "link": ""
    },
    {
      "id": 365749,
      "lat": 32.972462002,
      "lon": 35.5063762,
      "label": "סופרפארם - צפת",
      "text": "",
      "stayTimes": "15:15 - 15:40",
      "t_start": "2020-03-29T13:15:00",
      "t_end": "2020-03-29T13:40:00",
      "link": ""
    },
    {
      "id": 365750,
      "lat": 31.8249657000001,
      "lon": 34.700767,
      "label": "סלע לוגיסטיקה בני דרום - בני דרום",
      "text": "",
      "stayTimes": "06:00 - 17:00",
      "t_start": "2020-03-29T04:00:00",
      "t_end": "2020-03-29T15:00:00",
      "link": ""
    },
    {
      "id": 365751,
      "lat": 31.8249657000001,
      "lon": 34.700767,
      "label": "סלע לוגיסטיקה בני דרום - בני דרום",
      "text": "",
      "stayTimes": "06:00 - 17:00",
      "t_start": "2020-03-30T04:00:00",
      "t_end": "2020-03-30T15:00:00",
      "link": ""
    },
    {
      "id": 365752,
      "lat": 31.8249657000001,
      "lon": 34.700767,
      "label": "סלע לוגיסטיקה בני דרום - בני דרום",
      "text": "",
      "stayTimes": "06:00 - 17:00",
      "t_start": "2020-03-31T04:00:00",
      "t_end": "2020-03-31T15:00:00",
      "link": ""
    },
    {
      "id": 365753,
      "lat": 31.8249657000001,
      "lon": 34.700767,
      "label": "סלע לוגיסטיקה בני דרום - בני דרום",
      "text": "",
      "stayTimes": "06:00 - 17:00",
      "t_start": "2020-04-01T04:00:00",
      "t_end": "2020-04-01T15:00:00",
      "link": ""
    },
    {
      "id": 365754,
      "lat": 32.080728848,
      "lon": 34.791058085,
      "label": "מיון בית החולים לילדים \"דנה\" איכילוב - תל אביב - יפו",
      "text": "",
      "stayTimes": "21:00 - 02:20",
      "t_start": "2020-03-31T19:00:00",
      "t_end": "2020-04-01T00:20:00",
      "link": ""
    },
    {
      "id": 365755,
      "lat": 32.0860142430001,
      "lon": 34.831381514,
      "label": "סופר מעיין 2000 - בני ברק",
      "text": "",
      "stayTimes": "16:30 - 18:30",
      "t_start": "2020-03-29T14:30:00",
      "t_end": "2020-03-29T16:30:00",
      "link": ""
    },
    {
      "id": 365756,
      "lat": 32.1126154360001,
      "lon": 34.799342989,
      "label": "סופר מחסני להב - תל אביב - יפו",
      "text": "",
      "stayTimes": "16:00 - 16:30",
      "t_start": "2020-03-29T14:00:00",
      "t_end": "2020-03-29T14:30:00",
      "link": ""
    },
    {
      "id": 365757,
      "lat": 32.030457143,
      "lon": 34.762303323,
      "label": "סופר מזוז - חולון",
      "text": "",
      "stayTimes": "17:00 - 17:30",
      "t_start": "2020-03-29T15:00:00",
      "t_end": "2020-03-29T15:30:00",
      "link": ""
    },
    {
      "id": 365758,
      "lat": 32.1245299130001,
      "lon": 34.8018507090001,
      "label": "מרכז בריאות הילד כללית - תל אביב - יפו",
      "text": "",
      "stayTimes": "07:00 - 16:00",
      "t_start": "2020-03-29T05:00:00",
      "t_end": "2020-03-29T14:00:00",
      "link": ""
    },
    {
      "id": 365759,
      "lat": 32.106773135,
      "lon": 34.9415575950001,
      "label": "קופת חולים - ראש העין",
      "text": "",
      "stayTimes": "08:30 - 09:00",
      "t_start": "2020-03-31T06:30:00",
      "t_end": "2020-03-31T07:00:00",
      "link": ""
    },
    {
      "id": 365760,
      "lat": 32.1065055,
      "lon": 34.9414256000001,
      "label": "מרכז רפואי בטרם - ראש העין",
      "text": "",
      "stayTimes": "17:00 - 18:30",
      "t_start": "2020-03-30T15:00:00",
      "t_end": "2020-03-30T16:30:00",
      "link": ""
    },
    {
      "id": 365761,
      "lat": 32.0100150000001,
      "lon": 34.8097050000001,
      "label": "סופר חצי חינם - חולון",
      "text": "",
      "stayTimes": "08:00 - 08:00",
      "t_start": "2020-03-29T06:00:00",
      "t_end": "2020-03-29T06:00:00",
      "link": ""
    },
    {
      "id": 365762,
      "lat": 32.080709703,
      "lon": 34.7910478900001,
      "label": "מחלקת ילדים א- ביה\"ח \"דנה\" איכילוב - תל אביב - יפו",
      "text": "",
      "stayTimes": "02:20 - 14:50",
      "t_start": "2020-04-01T00:20:00",
      "t_end": "2020-04-01T12:50:00",
      "link": ""
    },
    {
      "id": 365763,
      "lat": 32.0807053070001,
      "lon": 34.7910561850001,
      "label": "טיפול נמרץ ילדים- ביה\"ח \"דנה\" איכילוב - תל אביב - יפו",
      "text": "",
      "stayTimes": "14:50 - 14:50",
      "t_start": "2020-04-01T12:50:00",
      "t_end": "2020-04-01T12:50:00",
      "link": ""
    },
    {
      "id": 365764,
      "lat": 32.0817556550001,
      "lon": 34.8837997850001,
      "label": "קופת חולים רוטשילד - פתח תקווה",
      "text": "",
      "stayTimes": "16:00 - 16:30",
      "t_start": "2020-03-30T14:00:00",
      "t_end": "2020-03-30T14:30:00",
      "link": ""
    },
    {
      "id": 365765,
      "lat": 32.0881612000001,
      "lon": 34.958583,
      "label": "קופ'ח כללית מצפה אפק - ראש העין",
      "text": "",
      "stayTimes": "08:30 - 09:00",
      "t_start": "2020-03-30T06:30:00",
      "t_end": "2020-03-30T07:00:00",
      "link": ""
    },
    {
      "id": 365766,
      "lat": 32.0730497000001,
      "lon": 34.9066893,
      "label": "קופ'ח כללית בהדר גנים - פתח תקווה",
      "text": "",
      "stayTimes": "18:00 - 18:30",
      "t_start": "2020-03-29T16:00:00",
      "t_end": "2020-03-29T16:30:00",
      "link": ""
    },
    {
      "id": 365767,
      "lat": 31.3734749000001,
      "lon": 34.8096430000001,
      "label": "מרפאת  מכבי להבים - להבים",
      "text": "",
      "stayTimes": "08:00 - 08:00",
      "t_start": "2020-03-29T06:00:00",
      "t_end": "2020-03-29T06:00:00",
      "link": ""
    },
    {
      "id": 365768,
      "lat": 31.7675679910001,
      "lon": 35.295263038,
      "label": "טר\"מ - מעלה אדומים",
      "text": "",
      "stayTimes": "15:00 - 16:00",
      "t_start": "2020-03-30T13:00:00",
      "t_end": "2020-03-30T14:00:00",
      "link": ""
    },
    {
      "id": 365769,
      "lat": 32.0256596850001,
      "lon": 34.8067020760001,
      "label": "מינימרקט נון סטופ - אזור",
      "text": "",
      "stayTimes": "16:00 - 18:00",
      "t_start": "2020-03-31T14:00:00",
      "t_end": "2020-03-31T16:00:00",
      "link": ""
    },
    {
      "id": 365770,
      "lat": 32.9879433200001,
      "lon": 35.096059488,
      "label": "סניף אוויס מתחם חאמד - נהריה",
      "text": "",
      "stayTimes": "08:00 - 08:00",
      "t_start": "2020-03-31T06:00:00",
      "t_end": "2020-03-31T06:00:00",
      "link": ""
    },
    {
      "id": 365771,
      "lat": 32.990313416,
      "lon": 35.096683872,
      "label": "תחנת דלק פז בכניסה לנהריה וחנות ילו - נהריה",
      "text": "",
      "stayTimes": "08:00 - 08:00",
      "t_start": "2020-03-31T06:00:00",
      "t_end": "2020-03-31T06:00:00",
      "link": ""
    },
    {
      "id": 365772,
      "lat": 31.2194614000001,
      "lon": 34.8028981000001,
      "label": "פיצוחי ציון - באר שבע",
      "text": "",
      "stayTimes": "08:00 - 08:00",
      "t_start": "2020-03-29T06:00:00",
      "t_end": "2020-03-29T06:00:00",
      "link": ""
    },
    {
      "id": 365773,
      "lat": 31.2468929,
      "lon": 34.8044615000001,
      "label": "מס הכנסה - באר שבע",
      "text": "",
      "stayTimes": "08:00 - 08:00",
      "t_start": "2020-03-30T06:00:00",
      "t_end": "2020-03-30T06:00:00",
      "link": ""
    },
    {
      "id": 365774,
      "lat": 31.2399585000001,
      "lon": 34.7938263,
      "label": "סופר מחסני השוק בית אשל - באר שבע",
      "text": "",
      "stayTimes": "08:00 - 08:00",
      "t_start": "2020-03-30T06:00:00",
      "t_end": "2020-03-30T06:00:00",
      "link": ""
    },
    {
      "id": 365775,
      "lat": 31.0666732460001,
      "lon": 35.038387431,
      "label": "אחים אלין סופר - דימונה",
      "text": "",
      "stayTimes": "08:00 - 08:00",
      "t_start": "2020-03-30T06:00:00",
      "t_end": "2020-03-30T06:00:00",
      "link": ""
    },
    {
      "id": 365776,
      "lat": 31.4213816120001,
      "lon": 34.600072927,
      "label": "פיצוח דניאל זגדון - נתיבות",
      "text": "",
      "stayTimes": "08:00 - 08:00",
      "t_start": "2020-03-31T06:00:00",
      "t_end": "2020-03-31T06:00:00",
      "link": ""
    },
    {
      "id": 365777,
      "lat": 31.4120578920001,
      "lon": 34.586440345,
      "label": "סופר ח. כהן - נתיבות",
      "text": "",
      "stayTimes": "08:00 - 08:00",
      "t_start": "2020-03-31T06:00:00",
      "t_end": "2020-03-31T06:00:00",
      "link": ""
    },
    {
      "id": 365778,
      "lat": 31.309699155,
      "lon": 34.6205261740001,
      "label": "קופת חולים לאומית - אופקים",
      "text": "",
      "stayTimes": "18:30 - 19:00",
      "t_start": "2020-03-29T16:30:00",
      "t_end": "2020-03-29T17:00:00",
      "link": ""
    },
    {
      "id": 365779,
      "lat": 31.7884373910001,
      "lon": 35.2064509310001,
      "label": "סופר מעיין 2000 שער בנימין - כוכב יעקב",
      "text": "",
      "stayTimes": "15:30 - 17:30",
      "t_start": "2020-04-01T13:30:00",
      "t_end": "2020-04-01T15:30:00",
      "link": ""
    },
    {
      "id": 365780,
      "lat": 32.0756564980001,
      "lon": 34.8363558280001,
      "label": "מכולת ברכה בכיכר - בני ברק",
      "text": "",
      "stayTimes": "11:00 - 11:30",
      "t_start": "2020-03-30T09:00:00",
      "t_end": "2020-03-30T09:30:00",
      "link": ""
    },
    {
      "id": 365781,
      "lat": 32.098967525,
      "lon": 34.8298053840001,
      "label": "אושר עד - סופר - בני ברק",
      "text": "",
      "stayTimes": "17:00 - 21:00",
      "t_start": "2020-03-30T15:00:00",
      "t_end": "2020-03-30T19:00:00",
      "link": ""
    },
    {
      "id": 365782,
      "lat": 32.7831468000001,
      "lon": 35.013568478,
      "label": "סופר פארם מרכז זיו- נווה שאנן - חיפה",
      "text": "",
      "stayTimes": "15:45 - 16:00",
      "t_start": "2020-03-29T13:45:00",
      "t_end": "2020-03-29T14:00:00",
      "link": ""
    },
    {
      "id": 365783,
      "lat": 32.782862682,
      "lon": 35.0145118770001,
      "label": "SHEMO סניף נווה שאנן - חיפה",
      "text": "",
      "stayTimes": "16:05 - 16:20",
      "t_start": "2020-03-29T14:05:00",
      "t_end": "2020-03-29T14:20:00",
      "link": ""
    },
    {
      "id": 365784,
      "lat": 31.9058171,
      "lon": 35.0169950000001,
      "label": "\"סופרסל\" מודיעין סנטר - מודיעין-מכבים-רעות",
      "text": "",
      "stayTimes": "11:39 - 12:09",
      "t_start": "2020-03-29T09:39:00",
      "t_end": "2020-03-29T10:09:00",
      "link": ""
    },
    {
      "id": 365785,
      "lat": 31.9319194,
      "lon": 35.0303672000001,
      "label": "פנצריה \" מוסך סמדר\" אזור תעשיה - מתתיהו",
      "text": "",
      "stayTimes": "17:15 - 17:30",
      "t_start": "2020-03-30T15:15:00",
      "t_end": "2020-03-30T15:30:00",
      "link": ""
    },
    {
      "id": 365786,
      "lat": 31.9269265130001,
      "lon": 35.038510973,
      "label": "סופר \"יש\" - מודיעין עילית",
      "text": "",
      "stayTimes": "16:00 - 17:15",
      "t_start": "2020-04-01T14:00:00",
      "t_end": "2020-04-01T15:15:00",
      "link": ""
    },
    {
      "id": 365787,
      "lat": 31.8961865470001,
      "lon": 35.011096014,
      "label": "יינות ביתן - מודיעין-מכבים-רעות",
      "text": "",
      "stayTimes": "12:16 - 12:46",
      "t_start": "2020-03-29T10:16:00",
      "t_end": "2020-03-29T10:46:00",
      "link": ""
    },
    {
      "id": 365788,
      "lat": 32.0741680020001,
      "lon": 34.8334307540001,
      "label": "משנות יוסף, ברחבה של סמינר בית ויזניץ - בני ברק",
      "text": "",
      "stayTimes": "22:30 - 23:59",
      "t_start": "2020-03-31T20:30:00",
      "t_end": "2020-03-31T21:59:00",
      "link": ""
    },
    {
      "id": 365789,
      "lat": 32.7827595000001,
      "lon": 35.0147396,
      "label": "מאפה זיו- מרכז זיו - חיפה",
      "text": "",
      "stayTimes": "16:20 - 16:35",
      "t_start": "2020-03-29T14:20:00",
      "t_end": "2020-03-29T14:35:00",
      "link": ""
    },
    {
      "id": 365790,
      "lat": 32.928219567,
      "lon": 35.140792758,
      "label": "מאפיית אריאל - ג'דיידה-מכר",
      "text": "",
      "stayTimes": "21:30 - 21:45",
      "t_start": "2020-03-30T19:30:00",
      "t_end": "2020-03-30T19:45:00",
      "link": ""
    },
    {
      "id": 365791,
      "lat": 32.0827176180001,
      "lon": 34.8263688160001,
      "label": "סופר יש בשכונה סניף חברון - בני ברק",
      "text": "",
      "stayTimes": "13:00 - 13:30",
      "t_start": "2020-03-30T11:00:00",
      "t_end": "2020-03-30T11:30:00",
      "link": ""
    },
    {
      "id": 365792,
      "lat": 32.0812775910001,
      "lon": 34.8221772800001,
      "label": "סופר יש חסד השומר - בני ברק",
      "text": "",
      "stayTimes": "18:30 - 20:15",
      "t_start": "2020-03-29T16:30:00",
      "t_end": "2020-03-29T18:15:00",
      "link": ""
    },
    {
      "id": 365793,
      "lat": 32.753400266,
      "lon": 35.101024846,
      "label": "סופר ברכול מועצה רכסים - רכסים",
      "text": "",
      "stayTimes": "11:00 - 12:30",
      "t_start": "2020-03-29T09:00:00",
      "t_end": "2020-03-29T10:30:00",
      "link": ""
    },
    {
      "id": 365794,
      "lat": 31.6682664000001,
      "lon": 34.6023671,
      "label": "יינות הביתן - אשקלון",
      "text": "",
      "stayTimes": "06:00 - 19:00",
      "t_start": "2020-03-29T04:00:00",
      "t_end": "2020-03-29T17:00:00",
      "link": ""
    },
    {
      "id": 365795,
      "lat": 32.090821981,
      "lon": 34.8388174410001,
      "label": "יש חסד - בני ברק",
      "text": "",
      "stayTimes": "13:00 - 16:00",
      "t_start": "2020-03-30T11:00:00",
      "t_end": "2020-03-30T14:00:00",
      "link": ""
    },
    {
      "id": 365796,
      "lat": 32.8615937210001,
      "lon": 35.098750538,
      "label": "אושר עד - קרית ביאליק",
      "text": "",
      "stayTimes": "22:30 - 22:40",
      "t_start": "2020-03-30T20:30:00",
      "t_end": "2020-03-30T20:40:00",
      "link": ""
    },
    {
      "id": 365797,
      "lat": 32.085656516,
      "lon": 34.8393147190001,
      "label": "רבי עקיבא 162, בני ברק",
      "text": "",
      "stayTimes": "17:00 - 17:30",
      "t_start": "2020-03-30T15:00:00",
      "t_end": "2020-03-30T15:30:00",
      "link": ""
    },
    {
      "id": 365798,
      "lat": 32.0478136840001,
      "lon": 34.753308056,
      "label": "תג'ר ציונה 5, תל אביב - יפו",
      "text": "",
      "stayTimes": "12:00 - 20:00",
      "t_start": "2020-03-29T10:00:00",
      "t_end": "2020-04-01T18:00:00",
      "link": ""
    },
    {
      "id": 365799,
      "lat": 31.265676,
      "lon": 34.763339,
      "label": "סופר פארם נחל עשן - באר שבע",
      "text": "",
      "stayTimes": "18:30 - 19:00",
      "t_start": "2020-03-31T16:30:00",
      "t_end": "2020-03-31T17:00:00",
      "link": ""
    },
    {
      "id": 365800,
      "lat": 31.2506606790001,
      "lon": 34.7716818120001,
      "label": "סופר פארם גרנד קניון - באר שבע",
      "text": "",
      "stayTimes": "13:00 - 13:30",
      "t_start": "2020-04-01T11:00:00",
      "t_end": "2020-04-01T11:30:00",
      "link": ""
    },
    {
      "id": 365801,
      "lat": 31.2498562070001,
      "lon": 34.771189179,
      "label": "סופר לה בגרנד קניון - באר שבע",
      "text": "",
      "stayTimes": "14:00 - 15:30",
      "t_start": "2020-04-01T12:00:00",
      "t_end": "2020-04-01T13:30:00",
      "link": ""
    },
    {
      "id": 365802,
      "lat": 32.0472372730001,
      "lon": 34.844671325,
      "label": "בית חולים תל השומר - רמת גן",
      "text": "",
      "stayTimes": "07:00 - 15:00",
      "t_start": "2020-03-29T05:00:00",
      "t_end": "2020-03-29T13:00:00",
      "link": ""
    },
    {
      "id": 365803,
      "lat": 32.7896506000001,
      "lon": 35.5320965000001,
      "label": "מחסני השוק - טבריה",
      "text": "",
      "stayTimes": "20:30 - 21:00",
      "t_start": "2020-03-31T18:30:00",
      "t_end": "2020-03-31T19:00:00",
      "link": ""
    },
    {
      "id": 365804,
      "lat": 32.7850348010001,
      "lon": 35.5168409520001,
      "label": "מכולת משה אוחיון בשכונה 200+ - טבריה",
      "text": "",
      "stayTimes": "11:00 - 12:00",
      "t_start": "2020-03-29T09:00:00",
      "t_end": "2020-03-29T10:00:00",
      "link": ""
    },
    {
      "id": 365805,
      "lat": 32.7850348010001,
      "lon": 35.5168409520001,
      "label": "מכולת משה אוחיון בשכונה 200+ - טבריה",
      "text": "",
      "stayTimes": "11:00 - 12:00",
      "t_start": "2020-03-30T09:00:00",
      "t_end": "2020-03-30T10:00:00",
      "link": ""
    },
    {
      "id": 365806,
      "lat": 32.7850348010001,
      "lon": 35.5168409520001,
      "label": "מכולת משה אוחיון בשכונה 200+ - טבריה",
      "text": "",
      "stayTimes": "11:00 - 12:00",
      "t_start": "2020-03-31T09:00:00",
      "t_end": "2020-03-31T10:00:00",
      "link": ""
    },
    {
      "id": 365807,
      "lat": 32.7850348010001,
      "lon": 35.5168409520001,
      "label": "מכולת משה אוחיון בשכונה 200+ - טבריה",
      "text": "",
      "stayTimes": "11:00 - 12:00",
      "t_start": "2020-04-01T09:00:00",
      "t_end": "2020-04-01T10:00:00",
      "link": ""
    },
    {
      "id": 365808,
      "lat": 32.7850348010001,
      "lon": 35.5168409520001,
      "label": "מכולת משה אוחיון בשכונה 200+ - טבריה",
      "text": "",
      "stayTimes": "17:00 - 18:00",
      "t_start": "2020-03-29T15:00:00",
      "t_end": "2020-03-29T16:00:00",
      "link": ""
    },
    {
      "id": 365809,
      "lat": 32.7850348010001,
      "lon": 35.5168409520001,
      "label": "מכולת משה אוחיון בשכונה 200+ - טבריה",
      "text": "",
      "stayTimes": "17:00 - 18:00",
      "t_start": "2020-03-30T15:00:00",
      "t_end": "2020-03-30T16:00:00",
      "link": ""
    },
    {
      "id": 365810,
      "lat": 31.243594,
      "lon": 34.7998825,
      "label": "חנות ביוטי סנטר מקס נורדאו 1 - באר שבע",
      "text": "",
      "stayTimes": "16:30 - 17:00",
      "t_start": "2020-03-31T14:30:00",
      "t_end": "2020-03-31T15:00:00",
      "link": ""
    },
    {
      "id": 365811,
      "lat": 31.2633917000001,
      "lon": 34.7790219,
      "label": "מגה בעיר קניון אביה - באר שבע",
      "text": "",
      "stayTimes": "19:30 - 20:30",
      "t_start": "2020-04-01T17:30:00",
      "t_end": "2020-04-01T18:30:00",
      "link": ""
    },
    {
      "id": 365812,
      "lat": 31.2434888760001,
      "lon": 34.794407703,
      "label": "קניון הנגב סופארפארם - באר שבע",
      "text": "",
      "stayTimes": "08:30 - 09:00",
      "t_start": "2020-04-02T06:30:00",
      "t_end": "2020-04-02T07:00:00",
      "link": ""
    },
    {
      "id": 365813,
      "lat": 31.2217383,
      "lon": 34.8033035,
      "label": "מתחם יאס פלנט שופרסל אקסטרא דיל - באר שבע",
      "text": "",
      "stayTimes": "09:00 - 10:30",
      "t_start": "2020-04-02T07:00:00",
      "t_end": "2020-04-02T08:30:00",
      "link": ""
    },
    {
      "id": 365814,
      "lat": 31.887029559,
      "lon": 34.8139604960001,
      "label": "בית מרקחת מאוחדת - רחובות",
      "text": "",
      "stayTimes": "11:15 - 11:34",
      "t_start": "2020-03-31T09:15:00",
      "t_end": "2020-03-31T09:34:00",
      "link": ""
    },
    {
      "id": 365815,
      "lat": 32.7795991,
      "lon": 35.5169531000001,
      "label": "סופר מרקט יש חסד - טבריה",
      "text": "",
      "stayTimes": "10:00 - 10:15",
      "t_start": "2020-03-29T08:00:00",
      "t_end": "2020-03-29T08:15:00",
      "link": ""
    },
    {
      "id": 365816,
      "lat": 32.325122793,
      "lon": 34.859191282,
      "label": "קופת חולים לאומית בית מרקחת - נתניה",
      "text": "",
      "stayTimes": "11:10 - 11:50",
      "t_start": "2020-03-30T09:10:00",
      "t_end": "2020-03-30T09:50:00",
      "link": ""
    },
    {
      "id": 365817,
      "lat": 32.4705928000001,
      "lon": 35.0391716,
      "label": "סופר פארם - חריש",
      "text": "",
      "stayTimes": "19:30 - 20:00",
      "t_start": "2020-03-29T17:30:00",
      "t_end": "2020-03-29T18:00:00",
      "link": ""
    },
    {
      "id": 365818,
      "lat": 31.3210790000001,
      "lon": 34.6230639,
      "label": "סופר ויקטורי - אופקים",
      "text": "",
      "stayTimes": "16:30 - 17:00",
      "t_start": "2020-03-29T14:30:00",
      "t_end": "2020-03-29T15:00:00",
      "link": ""
    },
    {
      "id": 365819,
      "lat": 32.7878360610001,
      "lon": 35.536553461,
      "label": "סופר מרקט זול שופ - טבריה",
      "text": "",
      "stayTimes": "13:00 - 15:00",
      "t_start": "2020-03-29T11:00:00",
      "t_end": "2020-03-29T13:00:00",
      "link": ""
    },
    {
      "id": 365820,
      "lat": 32.7873075640001,
      "lon": 35.54051328,
      "label": "בנק מזרחי טפחות - טבריה",
      "text": "",
      "stayTimes": "13:15 - 14:00",
      "t_start": "2020-03-31T11:15:00",
      "t_end": "2020-03-31T12:00:00",
      "link": ""
    },
    {
      "id": 365821,
      "lat": 32.7850348010001,
      "lon": 35.5168409520001,
      "label": "מכולת משה אוחיון בשכונה 200+ - טבריה",
      "text": "",
      "stayTimes": "17:00 - 18:00",
      "t_start": "2020-03-31T15:00:00",
      "t_end": "2020-03-31T16:00:00",
      "link": ""
    },
    {
      "id": 365822,
      "lat": 32.785274901,
      "lon": 35.4985826440001,
      "label": "חנות תבלינים ופיצוחים \"שוקה בעיר\". מתחם ביג פורייה - טבריה",
      "text": "",
      "stayTimes": "16:00 - 16:30",
      "t_start": "2020-03-29T14:00:00",
      "t_end": "2020-03-29T14:30:00",
      "link": ""
    },
    {
      "id": 365823,
      "lat": 32.784958331,
      "lon": 35.519676309,
      "label": "פיצוציה גוזלן בתחנת דלק מצפה - מצפה",
      "text": "",
      "stayTimes": "11:00 - 13:00",
      "t_start": "2020-03-29T09:00:00",
      "t_end": "2020-03-29T11:00:00",
      "link": ""
    },
    {
      "id": 365824,
      "lat": 32.7827412280001,
      "lon": 35.5211254320001,
      "label": "פיצוציה גוזלן בתחנת דלק מצפה - מצפה",
      "text": "",
      "stayTimes": "11:00 - 13:00",
      "t_start": "2020-03-30T09:00:00",
      "t_end": "2020-03-30T11:00:00",
      "link": ""
    },
    {
      "id": 365825,
      "lat": 32.788664764,
      "lon": 35.5399412720001,
      "label": "בנק הדואר סניף מרכזי - טבריה",
      "text": "",
      "stayTimes": "12:00 - 13:30",
      "t_start": "2020-03-31T10:00:00",
      "t_end": "2020-03-31T11:30:00",
      "link": ""
    },
    {
      "id": 365826,
      "lat": 32.788631529,
      "lon": 35.53993968,
      "label": "בנק הדואר סניף מרכזי - טבריה",
      "text": "",
      "stayTimes": "14:00 - 14:30",
      "t_start": "2020-03-31T12:00:00",
      "t_end": "2020-03-31T12:30:00",
      "link": ""
    },
    {
      "id": 365827,
      "lat": 32.785659551,
      "lon": 35.5390709280001,
      "label": "חנות תבליני כהן בשוק עירוני - טבריה",
      "text": "",
      "stayTimes": "13:00 - 15:00",
      "t_start": "2020-04-01T11:00:00",
      "t_end": "2020-04-01T13:00:00",
      "link": ""
    },
    {
      "id": 365828,
      "lat": 32.7802684000001,
      "lon": 35.5024452000001,
      "label": "גרעני עפולה , שיכון ד (מול גני אלון) - טבריה",
      "text": "",
      "stayTimes": "15:00 - 16:00",
      "t_start": "2020-03-29T13:00:00",
      "t_end": "2020-03-29T14:00:00",
      "link": ""
    },
    {
      "id": 365829,
      "lat": 32.0268882760001,
      "lon": 34.7464722670001,
      "label": "אירינה - בת ים",
      "text": "",
      "stayTimes": "10:00 - 11:00",
      "t_start": "2020-04-03T08:00:00",
      "t_end": "2020-04-03T09:00:00",
      "link": ""
    },
    {
      "id": 365830,
      "lat": 32.78539163,
      "lon": 35.4984768190001,
      "label": "סופר פארם - טבריה",
      "text": "",
      "stayTimes": "18:00 - 18:15",
      "t_start": "2020-03-30T16:00:00",
      "t_end": "2020-03-30T16:15:00",
      "link": ""
    },
    {
      "id": 365831,
      "lat": 32.7795991,
      "lon": 35.5169531000001,
      "label": "סופר מרקט יש חסד - טבריה",
      "text": "",
      "stayTimes": "15:00 - 15:15",
      "t_start": "2020-03-31T13:00:00",
      "t_end": "2020-03-31T13:15:00",
      "link": ""
    },
    {
      "id": 365832,
      "lat": 32.786216301,
      "lon": 35.5409460550001,
      "label": "אטליז מרכז הבשר גרבלי - טבריה",
      "text": "",
      "stayTimes": "10:45 - 11:00",
      "t_start": "2020-03-31T08:45:00",
      "t_end": "2020-03-31T09:00:00",
      "link": ""
    },
    {
      "id": 365833,
      "lat": 32.2268468,
      "lon": 34.9607505000001,
      "label": "סופר מרקט סיטי מרקט - טירה",
      "text": "",
      "stayTimes": "22:30 - 23:30",
      "t_start": "2020-04-01T20:30:00",
      "t_end": "2020-04-01T21:30:00",
      "link": ""
    },
    {
      "id": 365834,
      "lat": 32.235666184,
      "lon": 34.950557254,
      "label": "מאפיית אחים סמארה - טירה",
      "text": "",
      "stayTimes": "14:00 - 14:45",
      "t_start": "2020-04-02T12:00:00",
      "t_end": "2020-04-02T12:45:00",
      "link": ""
    },
    {
      "id": 365835,
      "lat": 32.782965618,
      "lon": 35.0154072330001,
      "label": "מכבי פארם - חיפה",
      "text": "",
      "stayTimes": "12:00 - 14:00",
      "t_start": "2020-04-01T10:00:00",
      "t_end": "2020-04-01T12:00:00",
      "link": ""
    },
    {
      "id": 365836,
      "lat": 32.109424216,
      "lon": 34.841102424,
      "label": "מדיקה - תל אביב - יפו",
      "text": "",
      "stayTimes": "08:00 - 10:00",
      "t_start": "2020-03-30T06:00:00",
      "t_end": "2020-03-30T08:00:00",
      "link": ""
    },
    {
      "id": 365837,
      "lat": 32.0737085440001,
      "lon": 34.8085681490001,
      "label": "ויצמן 20, גבעתיים",
      "text": "",
      "stayTimes": "07:30 - 08:00",
      "t_start": "2020-03-30T05:30:00",
      "t_end": "2020-03-30T06:00:00",
      "link": ""
    },
    {
      "id": 365838,
      "lat": 32.0525778960001,
      "lon": 34.9511771420001,
      "label": "סופר מרקט \"יש\" - אלעד",
      "text": "",
      "stayTimes": "07:30 - 09:30",
      "t_start": "2020-03-30T05:30:00",
      "t_end": "2020-03-30T07:30:00",
      "link": ""
    },
    {
      "id": 365839,
      "lat": 31.887029559,
      "lon": 34.8139604960001,
      "label": "בית מרקחת מאוחדת - רחובות",
      "text": "",
      "stayTimes": "11:15 - 11:34",
      "t_start": "2020-03-31T09:15:00",
      "t_end": "2020-03-31T09:34:00",
      "link": ""
    },
    {
      "id": 365840,
      "lat": 31.9540840070001,
      "lon": 34.890321778,
      "label": "אושר עד - לוד",
      "text": "",
      "stayTimes": "19:00 - 19:30",
      "t_start": "2020-03-30T17:00:00",
      "t_end": "2020-03-30T17:30:00",
      "link": ""
    },
    {
      "id": 365841,
      "lat": 32.3220567590001,
      "lon": 34.8714855310001,
      "label": "סופר רמי לוי - נתניה",
      "text": "",
      "stayTimes": "13:00 - 14:00",
      "t_start": "2020-03-29T11:00:00",
      "t_end": "2020-03-29T12:00:00",
      "link": ""
    },
    {
      "id": 365842,
      "lat": 32.0271037520001,
      "lon": 34.746319553,
      "label": "אירינה - בת ים",
      "text": "",
      "stayTimes": "10:00 - 11:30",
      "t_start": "2020-03-30T08:00:00",
      "t_end": "2020-03-30T09:30:00",
      "link": ""
    },
    {
      "id": 365843,
      "lat": 32.0452360780001,
      "lon": 34.842521306,
      "label": "ביח תל השומר - רמת גן",
      "text": "",
      "stayTimes": "10:30 - 16:00",
      "t_start": "2020-04-02T08:30:00",
      "t_end": "2020-04-02T14:00:00",
      "link": ""
    },
    {
      "id": 365844,
      "lat": 32.046615597,
      "lon": 34.8455372760001,
      "label": "מרפאה אונקולוגית תל השומר - רמת גן",
      "text": "",
      "stayTimes": "11:00 - 13:30",
      "t_start": "2020-03-29T09:00:00",
      "t_end": "2020-03-29T11:30:00",
      "link": ""
    },
    {
      "id": 365845,
      "lat": 32.0872987000001,
      "lon": 34.8271337,
      "label": "מעיין 2000 רחוב הרב קוק 5 בני ברק - בני ברק",
      "text": "",
      "stayTimes": "13:00 - 14:00",
      "t_start": "2020-04-01T11:00:00",
      "t_end": "2020-04-01T12:00:00",
      "link": ""
    },
    {
      "id": 365846,
      "lat": 32.090821981,
      "lon": 34.8388174410001,
      "label": "יש חסד מרכז רימונים - בני ברק",
      "text": "",
      "stayTimes": "09:00 - 12:00",
      "t_start": "2020-03-31T07:00:00",
      "t_end": "2020-03-31T10:00:00",
      "link": ""
    },
    {
      "id": 365847,
      "lat": 32.0891032000001,
      "lon": 34.8380488,
      "label": "סופר \"שפע\" - בני ברק",
      "text": "",
      "stayTimes": "11:00 - 12:45",
      "t_start": "2020-03-31T09:00:00",
      "t_end": "2020-03-31T10:45:00",
      "link": ""
    },
    {
      "id": 365848,
      "lat": 32.1122901210001,
      "lon": 34.794585226,
      "label": "סוופר פארם - תל אביב - יפו",
      "text": "",
      "stayTimes": "11:00 - 12:00",
      "t_start": "2020-04-03T09:00:00",
      "t_end": "2020-04-03T10:00:00",
      "link": ""
    },
    {
      "id": 365849,
      "lat": 32.071493359,
      "lon": 34.7807476790001,
      "label": "מרמורק 9, ת\"א",
      "text": "",
      "stayTimes": "14:30 - 15:00",
      "t_start": "2020-03-31T12:30:00",
      "t_end": "2020-03-31T13:00:00",
      "link": ""
    },
    {
      "id": 365850,
      "lat": 32.0792146840001,
      "lon": 34.8413412690001,
      "label": "סופר בר קול - בני ברק",
      "text": "",
      "stayTimes": "19:30 - 20:30",
      "t_start": "2020-03-30T17:30:00",
      "t_end": "2020-03-30T18:30:00",
      "link": ""
    },
    {
      "id": 365851,
      "lat": 32.7878360610001,
      "lon": 35.536553461,
      "label": "סופר זול שופ - טבריה",
      "text": "",
      "stayTimes": "16:00 - 17:00",
      "t_start": "2020-03-29T14:00:00",
      "t_end": "2020-03-29T15:00:00",
      "link": ""
    },
    {
      "id": 365852,
      "lat": 32.7798475000001,
      "lon": 35.5106259,
      "label": "אטליז אנטריקוט הקצבים - טבריה",
      "text": "",
      "stayTimes": "17:00 - 17:15",
      "t_start": "2020-03-29T15:00:00",
      "t_end": "2020-03-29T15:15:00",
      "link": ""
    },
    {
      "id": 365853,
      "lat": 32.778937237,
      "lon": 35.5006800570001,
      "label": "מאפיית רונשי - טבריה",
      "text": "",
      "stayTimes": "11:00 - 11:30",
      "t_start": "2020-03-29T09:00:00",
      "t_end": "2020-03-29T09:30:00",
      "link": ""
    },
    {
      "id": 365854,
      "lat": 31.7896787760001,
      "lon": 35.205386936,
      "label": "מכולת עובדיה - ירושלים",
      "text": "",
      "stayTimes": "08:00 - 08:30",
      "t_start": "2020-04-01T06:00:00",
      "t_end": "2020-04-01T06:30:00",
      "link": ""
    },
    {
      "id": 365855,
      "lat": 32.0360309000001,
      "lon": 34.7627074000001,
      "label": "בית חולים וולפסון מחקלת דיאליזה - חולון",
      "text": "",
      "stayTimes": "07:00 - 15:00",
      "t_start": "2020-03-31T05:00:00",
      "t_end": "2020-03-31T13:00:00",
      "link": ""
    },
    {
      "id": 365856,
      "lat": 33.005574623,
      "lon": 35.106375406,
      "label": "חנות סברי - נהריה",
      "text": "",
      "stayTimes": "17:00 - 00:00",
      "t_start": "2020-03-29T15:00:00",
      "t_end": "2020-03-28T22:00:00",
      "link": ""
    },
    {
      "id": 365857,
      "lat": 33.005553826,
      "lon": 35.1067940410001,
      "label": "חנות סברי - נהריה",
      "text": "",
      "stayTimes": "16:00 - 22:00",
      "t_start": "2020-03-30T14:00:00",
      "t_end": "2020-03-30T20:00:00",
      "link": ""
    },
    {
      "id": 365858,
      "lat": 33.005574623,
      "lon": 35.106375406,
      "label": "סברי - נהריה",
      "text": "",
      "stayTimes": "15:00 - 23:00",
      "t_start": "2020-03-31T13:00:00",
      "t_end": "2020-03-31T21:00:00",
      "link": ""
    },
    {
      "id": 365859,
      "lat": 32.0862497050001,
      "lon": 34.8349746970001,
      "label": "נתיב החסד - בני ברק",
      "text": "",
      "stayTimes": "20:30 - 21:00",
      "t_start": "2020-03-29T18:30:00",
      "t_end": "2020-03-29T19:00:00",
      "link": ""
    },
    {
      "id": 365860,
      "lat": 32.1058359100001,
      "lon": 34.892393391,
      "label": "סופר אושר עד - פתח תקווה",
      "text": "",
      "stayTimes": "14:00 - 16:00",
      "t_start": "2020-03-30T12:00:00",
      "t_end": "2020-03-30T14:00:00",
      "link": ""
    },
    {
      "id": 365861,
      "lat": 32.1773179,
      "lon": 34.9033483000001,
      "label": "סופר פארם - כפר סבא",
      "text": "",
      "stayTimes": "10:00 - 10:30",
      "t_start": "2020-04-02T08:00:00",
      "t_end": "2020-04-02T08:30:00",
      "link": ""
    },
    {
      "id": 365862,
      "lat": 32.1726091,
      "lon": 34.9295943000001,
      "label": "שופרסל - כפר סבא",
      "text": "",
      "stayTimes": "10:30 - 12:00",
      "t_start": "2020-04-02T08:30:00",
      "t_end": "2020-04-02T10:00:00",
      "link": ""
    },
    {
      "id": 365863,
      "lat": 32.9165241370001,
      "lon": 35.3049722230001,
      "label": "בית מרקחת כללית, כרמיאל - כרמיאל",
      "text": "",
      "stayTimes": "16:00 - 16:15",
      "t_start": "2020-03-29T14:00:00",
      "t_end": "2020-03-29T14:15:00",
      "link": ""
    },
    {
      "id": 365864,
      "lat": 32.105877881,
      "lon": 34.80971286,
      "label": "גני תערוכה - בדיקת קורונה - תל אביב - יפו",
      "text": "",
      "stayTimes": "20:45 - 20:50",
      "t_start": "2020-03-31T18:45:00",
      "t_end": "2020-03-31T18:50:00",
      "link": ""
    },
    {
      "id": 365865,
      "lat": 31.921899287,
      "lon": 34.858908795,
      "label": "מרפאת בן גוריון כללית - רמלה",
      "text": "",
      "stayTimes": "09:45 - 10:15",
      "t_start": "2020-03-31T07:45:00",
      "t_end": "2020-03-31T08:15:00",
      "link": ""
    },
    {
      "id": 365866,
      "lat": 31.7879639700001,
      "lon": 35.1846113840001,
      "label": "רמי לוי מהדרין כנפי נשרים - ירושלים",
      "text": "",
      "stayTimes": "10:00 - 13:00",
      "t_start": "2020-03-29T08:00:00",
      "t_end": "2020-03-29T11:00:00",
      "link": ""
    },
    {
      "id": 365867,
      "lat": 31.752930242,
      "lon": 35.203743596,
      "label": "בית הכנסת בכר - ירושלים",
      "text": "",
      "stayTimes": "21:30 - 22:30",
      "t_start": "2020-03-29T19:30:00",
      "t_end": "2020-03-29T20:30:00",
      "link": ""
    },
    {
      "id": 365868,
      "lat": 32.3120405,
      "lon": 34.8709662000001,
      "label": "סופר פרם - נתניה",
      "text": "",
      "stayTimes": "17:00 - 17:10",
      "t_start": "2020-04-02T15:00:00",
      "t_end": "2020-04-02T15:10:00",
      "link": ""
    },
    {
      "id": 365869,
      "lat": 32.3231348,
      "lon": 34.8713024,
      "label": "סופרסל  דיל - נתניה",
      "text": "",
      "stayTimes": "15:00 - 15:30",
      "t_start": "2020-04-01T13:00:00",
      "t_end": "2020-04-01T13:30:00",
      "link": ""
    },
    {
      "id": 365870,
      "lat": 32.105877881,
      "lon": 34.80971286,
      "label": "גני התערוכה. בדיקת קורונה - תל אביב - יפו",
      "text": "",
      "stayTimes": "14:00 - 14:15",
      "t_start": "2020-04-01T12:00:00",
      "t_end": "2020-04-01T12:15:00",
      "link": ""
    },
    {
      "id": 365871,
      "lat": 32.3604795000001,
      "lon": 34.8622635,
      "label": "מכולת - חבצלת השרון",
      "text": "",
      "stayTimes": "13:00 - 13:10",
      "t_start": "2020-04-03T11:00:00",
      "t_end": "2020-04-03T11:10:00",
      "link": ""
    },
    {
      "id": 365872,
      "lat": 32.470466376,
      "lon": 35.0387796150001,
      "label": "שופרסל קניון מור - חריש",
      "text": "",
      "stayTimes": "19:30 - 20:00",
      "t_start": "2020-03-30T17:30:00",
      "t_end": "2020-03-30T18:00:00",
      "link": ""
    },
    {
      "id": 365873,
      "lat": 32.7532575000001,
      "lon": 35.1040097000001,
      "label": "מתנס רכסים צוער לצוער - רכסים",
      "text": "",
      "stayTimes": "10:30 - 13:00",
      "t_start": "2020-03-29T08:30:00",
      "t_end": "2020-03-29T11:00:00",
      "link": ""
    },
    {
      "id": 365874,
      "lat": 32.753231617,
      "lon": 35.1040484870001,
      "label": "מתנס צוער לצוער - רכסים",
      "text": "",
      "stayTimes": "10:30 - 13:00",
      "t_start": "2020-03-30T08:30:00",
      "t_end": "2020-03-30T11:00:00",
      "link": ""
    },
    {
      "id": 365875,
      "lat": 31.793238667,
      "lon": 35.2071995640001,
      "label": "בית אבות גני אורה - ירושלים",
      "text": "",
      "stayTimes": "07:00 - 15:00",
      "t_start": "2020-03-31T05:00:00",
      "t_end": "2020-03-31T13:00:00",
      "link": ""
    },
    {
      "id": 365876,
      "lat": 31.787999718,
      "lon": 35.1868084650001,
      "label": "יש חסד - ירושלים",
      "text": "",
      "stayTimes": "21:30 - 22:30",
      "t_start": "2020-03-29T19:30:00",
      "t_end": "2020-03-29T20:30:00",
      "link": ""
    },
    {
      "id": 365877,
      "lat": 31.785913856,
      "lon": 35.1817924740001,
      "label": "מפעל מצות - ירושלים",
      "text": "",
      "stayTimes": "00:00 - 08:00",
      "t_start": "2020-03-31T22:00:00",
      "t_end": "2020-04-01T06:00:00",
      "link": ""
    },
    {
      "id": 365878,
      "lat": 32.0965506220001,
      "lon": 34.9428625250001,
      "label": "ויקטורי - ראש העין",
      "text": "",
      "stayTimes": "11:30 - 13:30",
      "t_start": "2020-03-30T09:30:00",
      "t_end": "2020-03-30T11:30:00",
      "link": ""
    },
    {
      "id": 365879,
      "lat": 31.6964008680001,
      "lon": 35.117730819,
      "label": "סופר שפע ברכת השם - מודיעין עילית",
      "text": "",
      "stayTimes": "19:00 - 19:30",
      "t_start": "2020-03-29T17:00:00",
      "t_end": "2020-03-29T17:30:00",
      "link": ""
    },
    {
      "id": 365880,
      "lat": 31.9446726,
      "lon": 34.8052458000001,
      "label": "הוסטל בית גיא - ראשון לציון",
      "text": "",
      "stayTimes": "09:30 - 18:00",
      "t_start": "2020-04-01T07:30:00",
      "t_end": "2020-04-01T16:00:00",
      "link": ""
    },
    {
      "id": 365881,
      "lat": 31.687507709,
      "lon": 34.5791652280001,
      "label": "שופרסל ברנע - אשקלון",
      "text": "",
      "stayTimes": "16:00 - 16:30",
      "t_start": "2020-03-31T14:00:00",
      "t_end": "2020-03-31T14:30:00",
      "link": ""
    },
    {
      "id": 365882,
      "lat": 32.7819599580001,
      "lon": 35.013874914,
      "label": "ניצת הדובדבן - חיפה",
      "text": "",
      "stayTimes": "08:00 - 08:30",
      "t_start": "2020-03-29T06:00:00",
      "t_end": "2020-03-29T06:30:00",
      "link": ""
    },
    {
      "id": 365883,
      "lat": 31.240496481,
      "lon": 34.7883985,
      "label": "תחנת משטרה סניף טוביהו - באר שבע",
      "text": "",
      "stayTimes": "07:30 - 16:30",
      "t_start": "2020-04-02T05:30:00",
      "t_end": "2020-04-02T14:30:00",
      "link": ""
    },
    {
      "id": 365884,
      "lat": 31.245430239,
      "lon": 34.814071325,
      "label": "הום סנטר - מתחם ביג - באר שבע",
      "text": "",
      "stayTimes": "10:00 - 11:00",
      "t_start": "2020-03-29T08:00:00",
      "t_end": "2020-03-29T09:00:00",
      "link": ""
    },
    {
      "id": 365885,
      "lat": 32.0923564,
      "lon": 34.9661753,
      "label": "סופרמרקט שופרסל שלי - ראש העין",
      "text": "",
      "stayTimes": "19:00 - 20:00",
      "t_start": "2020-03-29T17:00:00",
      "t_end": "2020-03-29T18:00:00",
      "link": ""
    },
    {
      "id": 365886,
      "lat": 31.991855199,
      "lon": 34.7726752300001,
      "label": "אסותא IVF - ראשון לציון",
      "text": "",
      "stayTimes": "16:00 - 17:00",
      "t_start": "2020-03-29T14:00:00",
      "t_end": "2020-03-29T15:00:00",
      "link": ""
    },
    {
      "id": 365887,
      "lat": 31.9901067000001,
      "lon": 34.7744274,
      "label": "סופר פארם קניון הזהב - ראשון לציון",
      "text": "",
      "stayTimes": "17:00 - 18:00",
      "t_start": "2020-03-29T15:00:00",
      "t_end": "2020-03-29T16:00:00",
      "link": ""
    },
    {
      "id": 365888,
      "lat": 31.704020558,
      "lon": 35.112696428,
      "label": "קדושת לוי 51, ביתר עילית",
      "text": "",
      "stayTimes": "18:00 - 08:30",
      "t_start": "2020-03-29T16:00:00",
      "t_end": "2020-03-03T06:30:00",
      "link": ""
    },
    {
      "id": 365889,
      "lat": 31.704015487,
      "lon": 35.112690468,
      "label": "קדושת לוי 51, ביתר עילית",
      "text": "",
      "stayTimes": "12:00 - 13:00",
      "t_start": "2020-03-30T10:00:00",
      "t_end": "2020-03-30T11:00:00",
      "link": ""
    },
    {
      "id": 365890,
      "lat": 31.9368157000001,
      "lon": 35.0389028000001,
      "label": "שפע שוק קרית ספר - מודיעין עילית",
      "text": "",
      "stayTimes": "14:30 - 18:00",
      "t_start": "2020-03-29T12:30:00",
      "t_end": "2020-03-29T16:00:00",
      "link": ""
    },
    {
      "id": 365891,
      "lat": 32.048893504,
      "lon": 34.8555952830001,
      "label": "לשכת הגיוס תל השומר - רמת גן",
      "text": "",
      "stayTimes": "11:00 - 15:00",
      "t_start": "2020-03-30T09:00:00",
      "t_end": "2020-03-30T13:00:00",
      "link": ""
    },
    {
      "id": 365892,
      "lat": 32.09267176,
      "lon": 34.8660837640001,
      "label": "בית מרקחת בקניון של בית חולים בלינסון - פתח תקווה",
      "text": "",
      "stayTimes": "13:00 - 13:30",
      "t_start": "2020-03-29T11:00:00",
      "t_end": "2020-03-29T11:30:00",
      "link": ""
    },
    {
      "id": 365893,
      "lat": 31.8003819670001,
      "lon": 35.2203480310001,
      "label": "מעיין 2000 - ירושלים",
      "text": "",
      "stayTimes": "09:30 - 10:00",
      "t_start": "2020-04-02T07:30:00",
      "t_end": "2020-04-02T08:00:00",
      "link": ""
    },
    {
      "id": 365894,
      "lat": 32.060467197,
      "lon": 34.8292856250001,
      "label": "סופר נווה יהושע - רמת גן",
      "text": "",
      "stayTimes": "19:00 - 21:30",
      "t_start": "2020-03-31T17:00:00",
      "t_end": "2020-03-31T19:30:00",
      "link": ""
    },
    {
      "id": 365895,
      "lat": 32.119573405,
      "lon": 34.823427748,
      "label": "בניין -שיפוצים - תל אביב - יפו",
      "text": "",
      "stayTimes": "07:00 - 15:30",
      "t_start": "2020-03-29T05:00:00",
      "t_end": "2020-03-29T13:30:00",
      "link": ""
    },
    {
      "id": 365896,
      "lat": 32.721913881,
      "lon": 35.4948459490001,
      "label": "ביא' יוקרה - יבנאל",
      "text": "",
      "stayTimes": "14:30 - 22:00",
      "t_start": "2020-03-29T12:30:00",
      "t_end": "2020-03-29T20:00:00",
      "link": ""
    },
    {
      "id": 365897,
      "lat": 32.721913881,
      "lon": 35.4948459490001,
      "label": "ביא' יוקרה - יבנאל",
      "text": "",
      "stayTimes": "14:30 - 22:00",
      "t_start": "2020-03-30T12:30:00",
      "t_end": "2020-03-30T20:00:00",
      "link": ""
    },
    {
      "id": 365898,
      "lat": 31.968521406,
      "lon": 34.8071347420001,
      "label": "מרפאת קופת חולים כללית פינסקר - ראשון לציון",
      "text": "",
      "stayTimes": "16:30 - 17:10",
      "t_start": "2020-03-30T14:30:00",
      "t_end": "2020-03-30T15:10:00",
      "link": ""
    },
    {
      "id": 365899,
      "lat": 32.721913881,
      "lon": 35.4948459490001,
      "label": "ביא' יוקרה - יבנאל",
      "text": "",
      "stayTimes": "14:00 - 21:30",
      "t_start": "2020-03-30T12:00:00",
      "t_end": "2020-03-30T19:30:00",
      "link": ""
    },
    {
      "id": 365900,
      "lat": 32.68407204,
      "lon": 35.3748770650001,
      "label": "חנות קינג סטור - דבוריה",
      "text": "",
      "stayTimes": "21:50 - 22:10",
      "t_start": "2020-03-30T19:50:00",
      "t_end": "2020-03-30T20:10:00",
      "link": ""
    },
    {
      "id": 365901,
      "lat": 31.7956281410001,
      "lon": 35.215979799,
      "label": "בית כנסזת ויזניץ - ירושלים",
      "text": "",
      "stayTimes": "07:30 - 08:30",
      "t_start": "2020-03-29T05:30:00",
      "t_end": "2020-03-29T06:30:00",
      "link": ""
    },
    {
      "id": 365902,
      "lat": 31.7956281410001,
      "lon": 35.215979799,
      "label": "בית כנסת ויזניץ - ירושלים",
      "text": "",
      "stayTimes": "17:00 - 19:00",
      "t_start": "2020-03-29T15:00:00",
      "t_end": "2020-03-29T17:00:00",
      "link": ""
    },
    {
      "id": 365903,
      "lat": 31.6677893500001,
      "lon": 34.599840172,
      "label": "הפלדה 23, אשקלון",
      "text": "",
      "stayTimes": "08:00 - 08:30",
      "t_start": "2020-03-30T06:00:00",
      "t_end": "2020-03-30T06:30:00",
      "link": ""
    },
    {
      "id": 365904,
      "lat": 32.721913881,
      "lon": 35.4948459490001,
      "label": "ביא' יוקרה - יבנאל",
      "text": "",
      "stayTimes": "14:00 - 22:30",
      "t_start": "2020-03-30T12:00:00",
      "t_end": "2020-03-30T20:30:00",
      "link": ""
    },
    {
      "id": 365905,
      "lat": 32.721913881,
      "lon": 35.4948459490001,
      "label": "ביא' יוקרה - יבנאל",
      "text": "",
      "stayTimes": "14:00 - 22:00",
      "t_start": "2020-03-29T12:00:00",
      "t_end": "2020-03-29T20:00:00",
      "link": ""
    },
    {
      "id": 365906,
      "lat": 32.721913881,
      "lon": 35.4948459490001,
      "label": "ביא' יוקרה - יבנאל",
      "text": "",
      "stayTimes": "22:00 - 07:00",
      "t_start": "2020-03-29T20:00:00",
      "t_end": "2020-03-30T05:00:00",
      "link": ""
    },
    {
      "id": 365907,
      "lat": 31.654961944,
      "lon": 34.55616673,
      "label": "דואר ישראל סניף קניון לב - אשקלון",
      "text": "",
      "stayTimes": "08:00 - 12:00",
      "t_start": "2020-03-29T06:00:00",
      "t_end": "2020-03-29T10:00:00",
      "link": ""
    },
    {
      "id": 365908,
      "lat": 31.9161609000001,
      "lon": 34.8727313000001,
      "label": "סופר פארם מצליח - רמלה",
      "text": "",
      "stayTimes": "10:13 - 10:20",
      "t_start": "2020-03-31T08:13:00",
      "t_end": "2020-03-31T08:20:00",
      "link": ""
    },
    {
      "id": 365909,
      "lat": 31.787826233,
      "lon": 35.2228443500001,
      "label": "מאפיית מצות מאה השערים - ירושלים",
      "text": "",
      "stayTimes": "09:00 - 18:00",
      "t_start": "2020-03-31T07:00:00",
      "t_end": "2020-03-31T16:00:00",
      "link": ""
    },
    {
      "id": 365910,
      "lat": 31.7934521180001,
      "lon": 35.205490538,
      "label": "בית אבות גני אורה - ירושלים",
      "text": "",
      "stayTimes": "15:00 - 23:00",
      "t_start": "2020-03-29T13:00:00",
      "t_end": "2020-03-29T21:00:00",
      "link": ""
    },
    {
      "id": 365911,
      "lat": 31.7934378730001,
      "lon": 35.2054955080001,
      "label": "גני אורה - ירושלים",
      "text": "",
      "stayTimes": "15:00 - 23:00",
      "t_start": "2020-03-30T13:00:00",
      "t_end": "2020-03-30T21:00:00",
      "link": ""
    },
    {
      "id": 365912,
      "lat": 32.0860142430001,
      "lon": 34.831381514,
      "label": "מעיין 200 סופר - בני ברק",
      "text": "",
      "stayTimes": "14:00 - 16:30",
      "t_start": "2020-03-30T12:00:00",
      "t_end": "2020-03-30T14:30:00",
      "link": ""
    },
    {
      "id": 365913,
      "lat": 31.6654069530001,
      "lon": 34.5645501380001,
      "label": "מס הכנסה - אשקלון",
      "text": "",
      "stayTimes": "08:50 - 17:10",
      "t_start": "2020-03-30T06:50:00",
      "t_end": "2020-03-30T15:10:00",
      "link": ""
    },
    {
      "id": 365914,
      "lat": 31.6654069530001,
      "lon": 34.5645501380001,
      "label": "מס הכנסה - אשקלון",
      "text": "",
      "stayTimes": "09:45 - 17:45",
      "t_start": "2020-03-29T07:45:00",
      "t_end": "2020-03-29T15:45:00",
      "link": ""
    },
    {
      "id": 365915,
      "lat": 31.6654069530001,
      "lon": 34.5645501380001,
      "label": "מס הכנסה - אשקלון",
      "text": "",
      "stayTimes": "13:50 - 17:00",
      "t_start": "2020-03-31T11:50:00",
      "t_end": "2020-03-31T15:00:00",
      "link": ""
    },
    {
      "id": 365916,
      "lat": 31.655729367,
      "lon": 34.5842175610001,
      "label": "בית מרקחת קופ\"ח כללית- אסף הרופא - אשקלון",
      "text": "",
      "stayTimes": "11:00 - 11:30",
      "t_start": "2020-04-01T09:00:00",
      "t_end": "2020-04-01T09:30:00",
      "link": ""
    },
    {
      "id": 365917,
      "lat": 31.7789552,
      "lon": 34.6570806,
      "label": "בי'ח אסותא אשדוד - אשדוד",
      "text": "",
      "stayTimes": "02:00 - 02:30",
      "t_start": "2020-03-29T00:00:00",
      "t_end": "2020-03-29T00:30:00",
      "link": ""
    },
    {
      "id": 365918,
      "lat": 31.6641894000001,
      "lon": 34.5632752000001,
      "label": "ויקטורי בן גוריון - אשקלון",
      "text": "",
      "stayTimes": "08:00 - 09:00",
      "t_start": "2020-03-29T06:00:00",
      "t_end": "2020-03-29T07:00:00",
      "link": ""
    },
    {
      "id": 365919,
      "lat": 31.6641894000001,
      "lon": 34.5632752000001,
      "label": "ויקטורי בן גוריון - אשקלון",
      "text": "",
      "stayTimes": "08:00 - 09:00",
      "t_start": "2020-03-30T06:00:00",
      "t_end": "2020-03-30T07:00:00",
      "link": ""
    },
    {
      "id": 365920,
      "lat": 32.0740832920001,
      "lon": 34.8404990080001,
      "label": "בית מרקחת הר סיני - בני ברק",
      "text": "",
      "stayTimes": "08:25 - 08:35",
      "t_start": "2020-04-02T06:25:00",
      "t_end": "2020-04-02T06:35:00",
      "link": ""
    },
    {
      "id": 365921,
      "lat": 32.0692707000001,
      "lon": 34.8386134,
      "label": "ברכול לנדס 1 רמת גן - רמת גן",
      "text": "",
      "stayTimes": "14:00 - 14:15",
      "t_start": "2020-03-30T12:00:00",
      "t_end": "2020-03-30T12:15:00",
      "link": ""
    },
    {
      "id": 365922,
      "lat": 32.0692707000001,
      "lon": 34.8386134,
      "label": "ברכול - לנדס 1 רמת גן - רמת גן",
      "text": "",
      "stayTimes": "14:00 - 14:10",
      "t_start": "2020-03-29T12:00:00",
      "t_end": "2020-03-29T12:10:00",
      "link": ""
    },
    {
      "id": 365923,
      "lat": 32.0692707000001,
      "lon": 34.8386134,
      "label": "ברכול - רמת גן",
      "text": "",
      "stayTimes": "19:10 - 19:25",
      "t_start": "2020-03-30T17:10:00",
      "t_end": "2020-03-30T17:25:00",
      "link": ""
    },
    {
      "id": 365924,
      "lat": 32.0692707000001,
      "lon": 34.8386134,
      "label": "ברכול - רמת גן",
      "text": "",
      "stayTimes": "09:45 - 09:55",
      "t_start": "2020-04-02T07:45:00",
      "t_end": "2020-04-02T07:55:00",
      "link": ""
    },
    {
      "id": 365925,
      "lat": 32.071500685,
      "lon": 34.838515624,
      "label": "עשר תעשה - בני ברק",
      "text": "",
      "stayTimes": "19:25 - 19:45",
      "t_start": "2020-03-30T17:25:00",
      "t_end": "2020-03-30T17:45:00",
      "link": ""
    },
    {
      "id": 365926,
      "lat": 32.0715922260001,
      "lon": 34.8385385560001,
      "label": "חנות עשר תעשר - בני ברק",
      "text": "",
      "stayTimes": "09:00 - 09:20",
      "t_start": "2020-04-03T07:00:00",
      "t_end": "2020-04-03T07:20:00",
      "link": ""
    },
    {
      "id": 365927,
      "lat": 32.1046440330001,
      "lon": 35.197179856,
      "label": "ינות ביתן - אריאל",
      "text": "",
      "stayTimes": "19:30 - 20:30",
      "t_start": "2020-03-29T17:30:00",
      "t_end": "2020-03-29T18:30:00",
      "link": ""
    },
    {
      "id": 365928,
      "lat": 32.8027178,
      "lon": 35.0124521000001,
      "label": "אושר עד - חיפה",
      "text": "",
      "stayTimes": "22:00 - 23:00",
      "t_start": "2020-03-31T20:00:00",
      "t_end": "2020-03-31T21:00:00",
      "link": ""
    },
    {
      "id": 365929,
      "lat": 31.7961974,
      "lon": 34.6658564000001,
      "label": "אלתא - אשדוד",
      "text": "",
      "stayTimes": "08:00 - 16:30",
      "t_start": "2020-03-29T06:00:00",
      "t_end": "2020-03-29T14:30:00",
      "link": ""
    },
    {
      "id": 365930,
      "lat": 32.782585157,
      "lon": 35.0286413860001,
      "label": "אגד סניף נוה שאנן - חיפה",
      "text": "",
      "stayTimes": "07:30 - 07:55",
      "t_start": "2020-03-29T05:30:00",
      "t_end": "2020-03-29T05:55:00",
      "link": ""
    },
    {
      "id": 365931,
      "lat": 32.7823325950001,
      "lon": 35.02865748,
      "label": "אגד סניף נוה שאנן - חיפה",
      "text": "",
      "stayTimes": "07:30 - 07:55",
      "t_start": "2020-03-30T05:30:00",
      "t_end": "2020-03-30T05:55:00",
      "link": ""
    },
    {
      "id": 365932,
      "lat": 31.7997442980001,
      "lon": 34.6623996050001,
      "label": "יש חסד - אשדוד",
      "text": "",
      "stayTimes": "14:30 - 15:30",
      "t_start": "2020-04-01T12:30:00",
      "t_end": "2020-04-01T13:30:00",
      "link": ""
    },
    {
      "id": 365933,
      "lat": 31.7665910000001,
      "lon": 34.6308036,
      "label": "סופר מארקט מחסני להב - אשדוד",
      "text": "",
      "stayTimes": "14:00 - 14:30",
      "t_start": "2020-04-03T12:00:00",
      "t_end": "2020-04-03T12:30:00",
      "link": ""
    },
    {
      "id": 365934,
      "lat": 31.6633566,
      "lon": 34.5858855000001,
      "label": "מוקד טרם - אשקלון",
      "text": "",
      "stayTimes": "22:00 - 23:30",
      "t_start": "2020-03-29T20:00:00",
      "t_end": "2020-03-29T21:30:00",
      "link": ""
    },
    {
      "id": 365935,
      "lat": 32.0796136600001,
      "lon": 34.8344082950001,
      "label": "בית מרקחת - בני ברק",
      "text": "",
      "stayTimes": "09:30 - 10:00",
      "t_start": "2020-04-01T07:30:00",
      "t_end": "2020-04-01T08:00:00",
      "link": ""
    },
    {
      "id": 365936,
      "lat": 31.785356157,
      "lon": 34.66136548,
      "label": "קופת חולים לאומית - אשדוד",
      "text": "",
      "stayTimes": "12:00 - 12:45",
      "t_start": "2020-03-30T10:00:00",
      "t_end": "2020-03-30T10:45:00",
      "link": ""
    },
    {
      "id": 365937,
      "lat": 31.7856686000001,
      "lon": 34.6608390000001,
      "label": "מחסני בשר - אשדוד",
      "text": "",
      "stayTimes": "13:00 - 13:30",
      "t_start": "2020-03-30T11:00:00",
      "t_end": "2020-03-30T11:30:00",
      "link": ""
    },
    {
      "id": 365938,
      "lat": 31.6731153320001,
      "lon": 34.568535766,
      "label": "סופר פארם - אשקלון",
      "text": "",
      "stayTimes": "14:00 - 15:00",
      "t_start": "2020-04-01T12:00:00",
      "t_end": "2020-04-01T13:00:00",
      "link": ""
    },
    {
      "id": 365939,
      "lat": 32.073947957,
      "lon": 34.842476398,
      "label": "חנות נקי 10 - בני ברק",
      "text": "",
      "stayTimes": "10:30 - 11:00",
      "t_start": "2020-03-29T08:30:00",
      "t_end": "2020-03-29T09:00:00",
      "link": ""
    },
    {
      "id": 365940,
      "lat": 32.0792146840001,
      "lon": 34.8413412690001,
      "label": "סופר בר כול - בני ברק",
      "text": "",
      "stayTimes": "11:00 - 13:30",
      "t_start": "2020-03-29T09:00:00",
      "t_end": "2020-03-29T11:30:00",
      "link": ""
    },
    {
      "id": 365941,
      "lat": 31.930494159,
      "lon": 35.0386955760001,
      "label": "סופרמרקט \"יש\" מרכז קסם - מודיעין עילית",
      "text": "",
      "stayTimes": "20:45 - 22:00",
      "t_start": "2020-03-29T18:45:00",
      "t_end": "2020-03-29T20:00:00",
      "link": ""
    },
    {
      "id": 365942,
      "lat": 32.085972831,
      "lon": 34.831507561,
      "label": "מעיין אלפיים - בני ברק",
      "text": "",
      "stayTimes": "07:30 - 08:30",
      "t_start": "2020-03-29T05:30:00",
      "t_end": "2020-03-29T06:30:00",
      "link": ""
    },
    {
      "id": 365943,
      "lat": 32.524091115,
      "lon": 35.154581358,
      "label": "קניון אלארם - אום אל-פחם",
      "text": "",
      "stayTimes": "08:00 - 09:00",
      "t_start": "2020-03-31T06:00:00",
      "t_end": "2020-03-31T07:00:00",
      "link": ""
    },
    {
      "id": 365944,
      "lat": 32.111544855,
      "lon": 34.9796790560001,
      "label": "קופת חולים לאומית - כפר קאסם",
      "text": "",
      "stayTimes": "17:00 - 17:30",
      "t_start": "2020-03-29T15:00:00",
      "t_end": "2020-03-29T15:30:00",
      "link": ""
    },
    {
      "id": 365945,
      "lat": 32.0301833250001,
      "lon": 34.883557378,
      "label": "יצחק שדה 15, יהוד",
      "text": "",
      "stayTimes": "16:00 - 19:00",
      "t_start": "2020-03-31T14:00:00",
      "t_end": "2020-04-02T17:00:00",
      "link": ""
    },
    {
      "id": 365946,
      "lat": 32.090821981,
      "lon": 34.8388174410001,
      "label": "בטוח לאומי - בני ברק",
      "text": "",
      "stayTimes": "07:00 - 11:30",
      "t_start": "2020-03-30T05:00:00",
      "t_end": "2020-03-30T09:30:00",
      "link": ""
    },
    {
      "id": 365947,
      "lat": 32.0898639000001,
      "lon": 34.8851074,
      "label": "בית מרקחת \"גוד פארם\" - פתח תקווה",
      "text": "",
      "stayTimes": "09:30 - 10:00",
      "t_start": "2020-04-03T07:30:00",
      "t_end": "2020-04-03T08:00:00",
      "link": ""
    },
    {
      "id": 365948,
      "lat": 32.0914850790001,
      "lon": 34.8856150460001,
      "label": "חנות \"ויקטורי\" - פתח תקווה",
      "text": "",
      "stayTimes": "11:45 - 12:15",
      "t_start": "2020-03-30T09:45:00",
      "t_end": "2020-03-30T10:15:00",
      "link": ""
    },
    {
      "id": 365949,
      "lat": 32.0798892330001,
      "lon": 34.902398568,
      "label": "\"שופרסל\" - פתח תקווה",
      "text": "",
      "stayTimes": "13:30 - 14:15",
      "t_start": "2020-04-03T11:30:00",
      "t_end": "2020-04-03T12:15:00",
      "link": ""
    },
    {
      "id": 365950,
      "lat": 31.8111825,
      "lon": 35.2197587000001,
      "label": "קופת חולים כללית רמת שלומה - ירושלים",
      "text": "",
      "stayTimes": "12:30 - 13:00",
      "t_start": "2020-03-30T10:30:00",
      "t_end": "2020-03-30T11:00:00",
      "link": ""
    },
    {
      "id": 365951,
      "lat": 32.7791521090001,
      "lon": 35.502914936,
      "label": "יוחננוף - טבריה",
      "text": "",
      "stayTimes": "13:00 - 21:00",
      "t_start": "2020-03-29T11:00:00",
      "t_end": "2020-03-29T19:00:00",
      "link": ""
    },
    {
      "id": 365952,
      "lat": 31.8075112980001,
      "lon": 35.2219486020001,
      "label": "דואר חזון איש רמת שלמה - ירושלים",
      "text": "",
      "stayTimes": "13:00 - 14:00",
      "t_start": "2020-03-29T11:00:00",
      "t_end": "2020-03-29T12:00:00",
      "link": ""
    },
    {
      "id": 365953,
      "lat": 31.807548814,
      "lon": 35.2217167320001,
      "label": "סופר עדיף רמת שלמה - ירושלים",
      "text": "",
      "stayTimes": "09:30 - 10:30",
      "t_start": "2020-03-29T07:30:00",
      "t_end": "2020-03-29T08:30:00",
      "link": ""
    },
    {
      "id": 365954,
      "lat": 31.8075112980001,
      "lon": 35.2219486020001,
      "label": "בית מרקחת חזון איש רמת שלמה - ירושלים",
      "text": "",
      "stayTimes": "14:00 - 15:00",
      "t_start": "2020-03-29T12:00:00",
      "t_end": "2020-03-29T13:00:00",
      "link": ""
    },
    {
      "id": 365955,
      "lat": 32.7219273000001,
      "lon": 35.4949277000001,
      "label": "מחלקת כלנית בבית האבות יוקרה - יבנאל",
      "text": "",
      "stayTimes": "19:00 - 07:00",
      "t_start": "2020-04-01T17:00:00",
      "t_end": "2020-04-02T05:00:00",
      "link": ""
    },
    {
      "id": 365956,
      "lat": 31.7871597180001,
      "lon": 35.2103417550001,
      "label": "קופת חולים מאוחדת - הטורים - ירושלים",
      "text": "",
      "stayTimes": "18:30 - 19:00",
      "t_start": "2020-03-29T16:30:00",
      "t_end": "2020-03-29T17:00:00",
      "link": ""
    },
    {
      "id": 365957,
      "lat": 31.7672796000001,
      "lon": 35.1834693000001,
      "label": "קופת חולים מאוחדת בית וגן - ירושלים",
      "text": "",
      "stayTimes": "09:00 - 09:30",
      "t_start": "2020-03-29T07:00:00",
      "t_end": "2020-03-29T07:30:00",
      "link": ""
    },
    {
      "id": 365958,
      "lat": 31.767507514,
      "lon": 35.1837332430001,
      "label": "קופת חולים מאוחדת בית וגן - ירושלים",
      "text": "",
      "stayTimes": "18:00 - 18:30",
      "t_start": "2020-03-29T16:00:00",
      "t_end": "2020-03-29T16:30:00",
      "link": ""
    },
    {
      "id": 365959,
      "lat": 32.0468299,
      "lon": 34.9085715000001,
      "label": "סופר \"יש\" - בארות יצחק",
      "text": "",
      "stayTimes": "11:00 - 12:30",
      "t_start": "2020-04-01T09:00:00",
      "t_end": "2020-04-01T10:30:00",
      "link": ""
    },
    {
      "id": 365960,
      "lat": 31.931556265,
      "lon": 35.042962899,
      "label": "אגף החינוך - מודיעין עילית",
      "text": "",
      "stayTimes": "08:00 - 16:00",
      "t_start": "2020-03-29T06:00:00",
      "t_end": "2020-03-29T14:00:00",
      "link": ""
    },
    {
      "id": 365961,
      "lat": 32.0744598960001,
      "lon": 34.9010455260001,
      "label": "מוריה 2, פתח תקווה",
      "text": "",
      "stayTimes": "10:00 - 11:00",
      "t_start": "2020-03-30T08:00:00",
      "t_end": "2020-03-30T09:00:00",
      "link": ""
    },