{
  "points": [
    {
      "id": 382360,
      "lat": 32.9605311,
      "lon": 35.4994390000001,
      "label": "סופר מחסני השוק - צפת",
      "text": "",
      "stayTimes": "14:00 - 14:30",
      "t_start": "2020-03-31T12:00:00",
      "t_end": "2020-03-31T12:30:00",
      "link": ""
    },
    {
      "id": 382361,
      "lat": 32.4623386490001,
      "lon": 35.0466224800001,
      "label": "שופרסל אקספרס - חריש",
      "text": "",
      "stayTimes": "19:30 - 20:00",
      "t_start": "2020-04-02T17:30:00",
      "t_end": "2020-04-02T18:00:00",
      "link": ""
    },
    {
      "id": 382362,
      "lat": 32.8330348440001,
      "lon": 34.9851329100001,
      "label": "בי\"ח רמב\"ם מיון ממוגן - חיפה",
      "text": "",
      "stayTimes": "08:00 - 09:00",
      "t_start": "2020-03-31T06:00:00",
      "t_end": "2020-03-31T07:00:00",
      "link": ""
    },
    {
      "id": 382363,
      "lat": 32.957928569,
      "lon": 35.495673917,
      "label": "דואר, רחוב הרצל - צפת",
      "text": "",
      "stayTimes": "09:30 - 10:00",
      "t_start": "2020-04-01T07:30:00",
      "t_end": "2020-04-01T08:00:00",
      "link": ""
    },
    {
      "id": 382364,
      "lat": 31.5302503770001,
      "lon": 34.6052180730001,
      "label": "בית הכנסת שדרות משעול ברנר 3 - שדרות",
      "text": "",
      "stayTimes": "06:00 - 06:45",
      "t_start": "2020-03-31T04:00:00",
      "t_end": "2020-03-25T04:45:00",
      "link": ""
    },
    {
      "id": 382365,
      "lat": 32.5355323090001,
      "lon": 34.911462414,
      "label": "קופ\"ח לאומית ג'יסר - ג'סר א-זרקא",
      "text": "",
      "stayTimes": "10:30 - 10:45",
      "t_start": "2020-03-31T08:30:00",
      "t_end": "2020-03-31T08:45:00",
      "link": ""
    },
    {
      "id": 382366,
      "lat": 32.452217019,
      "lon": 34.8967286010001,
      "label": "מיון חלופי הלל יפה - חדרה",
      "text": "",
      "stayTimes": "12:00 - 14:30",
      "t_start": "2020-03-31T10:00:00",
      "t_end": "2020-03-31T12:30:00",
      "link": ""
    },
    {
      "id": 382367,
      "lat": 32.5355323090001,
      "lon": 34.911462414,
      "label": "קופ\"ח לאומית - ג'סר א-זרקא",
      "text": "",
      "stayTimes": "10:30 - 11:30",
      "t_start": "2020-03-31T08:30:00",
      "t_end": "2020-03-31T09:30:00",
      "link": ""
    },
    {
      "id": 382368,
      "lat": 31.87270998,
      "lon": 34.813879625,
      "label": "בית חולים קפלן - רחובות",
      "text": "",
      "stayTimes": "09:00 - 11:00",
      "t_start": "2020-03-31T07:00:00",
      "t_end": "2020-03-31T09:00:00",
      "link": ""
    },
    {
      "id": 382369,
      "lat": 32.8998635,
      "lon": 35.0932117,
      "label": "דבאח עין המפרץ - עין המפרץ",
      "text": "",
      "stayTimes": "11:30 - 12:00",
      "t_start": "2020-03-31T09:30:00",
      "t_end": "2020-03-31T10:00:00",
      "link": ""
    },
    {
      "id": 382370,
      "lat": 31.9772343510001,
      "lon": 34.799345117,
      "label": "סופר הנחלה - ראשון לציון",
      "text": "",
      "stayTimes": "10:00 - 11:00",
      "t_start": "2020-03-31T08:00:00",
      "t_end": "2020-03-31T09:00:00",
      "link": ""
    },
    {
      "id": 382371,
      "lat": 31.6619693000001,
      "lon": 34.55967,
      "label": "מיון בית חולים ברזילי - אשקלון",
      "text": "",
      "stayTimes": "22:00 - 00:00",
      "t_start": "2020-03-31T20:00:00",
      "t_end": "2020-03-30T22:00:00",
      "link": ""
    },
    {
      "id": 382372,
      "lat": 31.975751874,
      "lon": 34.8078484320001,
      "label": "סופר פארם - ראשון לציון",
      "text": "",
      "stayTimes": "20:00 - 22:00",
      "t_start": "2020-03-31T18:00:00",
      "t_end": "2020-03-31T20:00:00",
      "link": ""
    },
    {
      "id": 382373,
      "lat": 31.800382739,
      "lon": 34.662396771,
      "label": "\"יש חסד\" - אשדוד",
      "text": "",
      "stayTimes": "08:00 - 09:30",
      "t_start": "2020-04-01T06:00:00",
      "t_end": "2020-04-01T07:30:00",
      "link": ""
    },
    {
      "id": 382374,
      "lat": 32.1823231000001,
      "lon": 34.8954868000001,
      "label": "בי\"ח מאיר מחלקה גריאטרית - כפר סבא",
      "text": "",
      "stayTimes": "19:00 - 07:00",
      "t_start": "2020-03-31T17:00:00",
      "t_end": "2020-04-01T05:00:00",
      "link": ""
    },
    {
      "id": 382375,
      "lat": 32.4714671240001,
      "lon": 34.9540670170001,
      "label": "B PHARM - פרדס חנה-כרכור",
      "text": "",
      "stayTimes": "14:15 - 14:30",
      "t_start": "2020-04-01T12:15:00",
      "t_end": "2020-04-01T12:30:00",
      "link": ""
    },
    {
      "id": 382376,
      "lat": 32.4714671240001,
      "lon": 34.9540670170001,
      "label": "סופר הדר סנטר - פרדס חנה-כרכור",
      "text": "",
      "stayTimes": "14:30 - 14:45",
      "t_start": "2020-04-01T12:30:00",
      "t_end": "2020-04-01T12:45:00",
      "link": ""
    },
    {
      "id": 382377,
      "lat": 31.65930159,
      "lon": 34.557084753,
      "label": "קופ\"ח לאומית שמשון - אשקלון",
      "text": "",
      "stayTimes": "11:00 - 12:30",
      "t_start": "2020-04-01T09:00:00",
      "t_end": "2020-04-01T10:30:00",
      "link": ""
    },
    {
      "id": 382378,
      "lat": 31.6619693000001,
      "lon": 34.55967,
      "label": "מיון בי\"ח ברזילי - אשקלון",
      "text": "",
      "stayTimes": "12:30 - 17:00",
      "t_start": "2020-04-01T10:30:00",
      "t_end": "2020-04-01T15:00:00",
      "link": ""
    },
    {
      "id": 382379,
      "lat": 32.0503718200001,
      "lon": 34.9505698570001,
      "label": "קופת חולים מאוחדת סניף שמאי - אלעד",
      "text": "",
      "stayTimes": "08:30 - 16:00",
      "t_start": "2020-03-31T06:30:00",
      "t_end": "2020-03-31T14:00:00",
      "link": ""
    },
    {
      "id": 382380,
      "lat": 32.0503718200001,
      "lon": 34.9505698570001,
      "label": "קופת חולים מאוחדת סניף שמאי - אלעד",
      "text": "",
      "stayTimes": "08:30 - 13:30",
      "t_start": "2020-04-01T06:30:00",
      "t_end": "2020-04-01T11:30:00",
      "link": ""
    },
    {
      "id": 382381,
      "lat": 31.9704968,
      "lon": 34.8126591000001,
      "label": "סניף ויקטורי - ראשון לציון",
      "text": "",
      "stayTimes": "08:15 - 10:30",
      "t_start": "2020-04-01T06:15:00",
      "t_end": "2020-04-01T08:30:00",
      "link": ""
    },
    {
      "id": 382382,
      "lat": 31.9708494560001,
      "lon": 34.8127716980001,
      "label": "חניון ראשון לציון של סניף ויקטורי - ראשון לציון",
      "text": "",
      "stayTimes": "10:30 - 13:00",
      "t_start": "2020-04-01T08:30:00",
      "t_end": "2020-04-01T11:00:00",
      "link": ""
    },
    {
      "id": 382383,
      "lat": 31.8867341000001,
      "lon": 35.0175692,
      "label": "סניף ויקטורי - מודיעין-מכבים-רעות",
      "text": "",
      "stayTimes": "13:00 - 14:30",
      "t_start": "2020-04-01T11:00:00",
      "t_end": "2020-04-01T12:30:00",
      "link": ""
    },
    {
      "id": 382384,
      "lat": 31.8815556180001,
      "lon": 35.013349609,
      "label": "סניף ויקטורי - מודיעין-מכבים-רעות",
      "text": "",
      "stayTimes": "14:30 - 14:30",
      "t_start": "2020-04-01T12:30:00",
      "t_end": "2020-04-01T12:30:00",
      "link": ""
    },
    {
      "id": 382385,
      "lat": 31.604209729,
      "lon": 34.7724365,
      "label": "סניף ויקטורי - קרית גת",
      "text": "",
      "stayTimes": "14:30 - 16:15",
      "t_start": "2020-04-01T12:30:00",
      "t_end": "2020-04-01T14:15:00",
      "link": ""
    },
    {
      "id": 382386,
      "lat": 31.6619693000001,
      "lon": 34.55967,
      "label": "מיון ברזילי - אשקלון",
      "text": "",
      "stayTimes": "19:00 - 20:00",
      "t_start": "2020-03-31T17:00:00",
      "t_end": "2020-03-31T18:00:00",
      "link": ""
    },
    {
      "id": 382387,
      "lat": 31.6619693000001,
      "lon": 34.55967,
      "label": "מיון ברזילי - אשקלון",
      "text": "",
      "stayTimes": "21:30 - 02:30",
      "t_start": "2020-03-31T19:30:00",
      "t_end": "2020-04-01T00:30:00",
      "link": ""
    },
    {
      "id": 382388,
      "lat": 31.6760162260001,
      "lon": 34.6059661310001,
      "label": "שופרסל קוסמוס אשקלון - אשקלון",
      "text": "",
      "stayTimes": "16:00 - 17:00",
      "t_start": "2020-03-31T14:00:00",
      "t_end": "2020-03-31T15:00:00",
      "link": ""
    },
    {
      "id": 382389,
      "lat": 31.6633676590001,
      "lon": 34.585884874,
      "label": "בטרם - אשקלון",
      "text": "",
      "stayTimes": "10:49 - 11:00",
      "t_start": "2020-03-31T08:49:00",
      "t_end": "2020-03-31T09:00:00",
      "link": ""
    },
    {
      "id": 382390,
      "lat": 31.6624657040001,
      "lon": 34.5611270950001,
      "label": "ברזילי מרפאות חוץ פה ולסת - אשקלון",
      "text": "",
      "stayTimes": "07:00 - 12:00",
      "t_start": "2020-03-31T05:00:00",
      "t_end": "2020-03-31T10:00:00",
      "link": ""
    },
    {
      "id": 382391,
      "lat": 32.192448208,
      "lon": 34.8919950920001,
      "label": "סופר סל - כפר סבא",
      "text": "",
      "stayTimes": "16:00 - 17:00",
      "t_start": "2020-03-31T14:00:00",
      "t_end": "2020-03-31T15:00:00",
      "link": ""
    },
    {
      "id": 382392,
      "lat": 31.6620182400001,
      "lon": 34.559667974,
      "label": "מיון ,ב\"ח ברזילאי - אשקלון",
      "text": "",
      "stayTimes": "16:30 - 17:30",
      "t_start": "2020-04-01T14:30:00",
      "t_end": "2020-04-01T15:30:00",
      "link": ""
    },
    {
      "id": 382393,
      "lat": 32.1827488970001,
      "lon": 34.865604267,
      "label": "שניצל 20 טעמים - רעננה",
      "text": "",
      "stayTimes": "12:50 - 13:30",
      "t_start": "2020-03-31T10:50:00",
      "t_end": "2020-03-31T11:30:00",
      "link": ""
    },
    {
      "id": 382394,
      "lat": 32.1831304020001,
      "lon": 34.86570677,
      "label": "שוק למהדרין - רעננה",
      "text": "",
      "stayTimes": "16:10 - 08:20",
      "t_start": "2020-04-01T14:10:00",
      "t_end": "2020-04-01T06:20:00",
      "link": ""
    },
    {
      "id": 382395,
      "lat": 32.295669123,
      "lon": 34.858989568,
      "label": "מכולת שוק חקלאים - נתניה",
      "text": "",
      "stayTimes": "11:00 - 11:30",
      "t_start": "2020-03-31T09:00:00",
      "t_end": "2020-03-31T09:30:00",
      "link": ""
    },
    {
      "id": 382396,
      "lat": 31.424246152,
      "lon": 34.598053834,
      "label": "מכבי בית מרקחת - נתיבות",
      "text": "",
      "stayTimes": "12:00 - 12:00",
      "t_start": "2020-03-31T10:00:00",
      "t_end": "2020-03-31T10:00:00",
      "link": ""
    },
    {
      "id": 382397,
      "lat": 31.417083227,
      "lon": 34.5726796920001,
      "label": "מכון מאר נתיבות מערב - נתיבות",
      "text": "",
      "stayTimes": "11:30 - 11:45",
      "t_start": "2020-03-31T09:30:00",
      "t_end": "2020-03-31T09:45:00",
      "link": ""
    },
    {
      "id": 382398,
      "lat": 31.664188487,
      "lon": 34.563273591,
      "label": "ויקטורי - אשקלון",
      "text": "",
      "stayTimes": "13:30 - 14:30",
      "t_start": "2020-04-01T11:30:00",
      "t_end": "2020-04-01T12:30:00",
      "link": ""
    },
    {
      "id": 382399,
      "lat": 31.8249657000001,
      "lon": 34.700767,
      "label": "סלע לוגיסטיקה בני דרום - בני דרום",
      "text": "",
      "stayTimes": "06:00 - 17:00",
      "t_start": "2020-03-31T04:00:00",
      "t_end": "2020-03-31T15:00:00",
      "link": ""
    },
    {
      "id": 382400,
      "lat": 31.8249657000001,
      "lon": 34.700767,
      "label": "סלע לוגיסטיקה בני דרום - בני דרום",
      "text": "",
      "stayTimes": "06:00 - 17:00",
      "t_start": "2020-04-01T04:00:00",
      "t_end": "2020-04-01T15:00:00",
      "link": ""
    },
    {
      "id": 382401,
      "lat": 32.080728848,
      "lon": 34.791058085,
      "label": "מיון בית החולים לילדים \"דנה\" איכילוב - תל אביב - יפו",
      "text": "",
      "stayTimes": "21:00 - 02:20",
      "t_start": "2020-03-31T19:00:00",
      "t_end": "2020-04-01T00:20:00",
      "link": ""
    },
    {
      "id": 382402,
      "lat": 32.106773135,
      "lon": 34.9415575950001,
      "label": "קופת חולים - ראש העין",
      "text": "",
      "stayTimes": "08:30 - 09:00",
      "t_start": "2020-03-31T06:30:00",
      "t_end": "2020-03-31T07:00:00",
      "link": ""
    },
    {
      "id": 382403,
      "lat": 32.080709703,
      "lon": 34.7910478900001,
      "label": "מחלקת ילדים א- ביה\"ח \"דנה\" איכילוב - תל אביב - יפו",
      "text": "",
      "stayTimes": "02:20 - 14:50",
      "t_start": "2020-04-01T00:20:00",
      "t_end": "2020-04-01T12:50:00",
      "link": ""
    },
    {
      "id": 382404,
      "lat": 32.0807053070001,
      "lon": 34.7910561850001,
      "label": "טיפול נמרץ ילדים- ביה\"ח \"דנה\" איכילוב - תל אביב - יפו",
      "text": "",
      "stayTimes": "14:50 - 14:50",
      "t_start": "2020-04-01T12:50:00",
      "t_end": "2020-04-01T12:50:00",
      "link": ""
    },
    {
      "id": 382405,
      "lat": 32.0256596850001,
      "lon": 34.8067020760001,
      "label": "מינימרקט נון סטופ - אזור",
      "text": "",
      "stayTimes": "16:00 - 18:00",
      "t_start": "2020-03-31T14:00:00",
      "t_end": "2020-03-31T16:00:00",
      "link": ""
    },
    {
      "id": 382406,
      "lat": 32.9879433200001,
      "lon": 35.096059488,
      "label": "סניף אוויס מתחם חאמד - נהריה",
      "text": "",
      "stayTimes": "08:00 - 08:00",
      "t_start": "2020-03-31T06:00:00",
      "t_end": "2020-03-31T06:00:00",
      "link": ""
    },
    {
      "id": 382407,
      "lat": 32.990313416,
      "lon": 35.096683872,
      "label": "תחנת דלק פז בכניסה לנהריה וחנות ילו - נהריה",
      "text": "",
      "stayTimes": "08:00 - 08:00",
      "t_start": "2020-03-31T06:00:00",
      "t_end": "2020-03-31T06:00:00",
      "link": ""
    },
    {
      "id": 382408,
      "lat": 31.4213816120001,
      "lon": 34.600072927,
      "label": "פיצוח דניאל זגדון - נתיבות",
      "text": "",
      "stayTimes": "08:00 - 08:00",
      "t_start": "2020-03-31T06:00:00",
      "t_end": "2020-03-31T06:00:00",
      "link": ""
    },
    {
      "id": 382409,
      "lat": 31.4120578920001,
      "lon": 34.586440345,
      "label": "סופר ח. כהן - נתיבות",
      "text": "",
      "stayTimes": "08:00 - 08:00",
      "t_start": "2020-03-31T06:00:00",
      "t_end": "2020-03-31T06:00:00",
      "link": ""
    },
    {
      "id": 382410,
      "lat": 31.7884373910001,
      "lon": 35.2064509310001,
      "label": "סופר מעיין 2000 שער בנימין - כוכב יעקב",
      "text": "",
      "stayTimes": "15:30 - 17:30",
      "t_start": "2020-04-01T13:30:00",
      "t_end": "2020-04-01T15:30:00",
      "link": ""
    },
    {
      "id": 382411,
      "lat": 31.9269265130001,
      "lon": 35.038510973,
      "label": "סופר \"יש\" - מודיעין עילית",
      "text": "",
      "stayTimes": "16:00 - 17:15",
      "t_start": "2020-04-01T14:00:00",
      "t_end": "2020-04-01T15:15:00",
      "link": ""
    },
    {
      "id": 382412,
      "lat": 32.0741680020001,
      "lon": 34.8334307540001,
      "label": "משנות יוסף, ברחבה של סמינר בית ויזניץ - בני ברק",
      "text": "",
      "stayTimes": "22:30 - 23:59",
      "t_start": "2020-03-31T20:30:00",
      "t_end": "2020-03-31T21:59:00",
      "link": ""
    },
    {
      "id": 382413,
      "lat": 31.265676,
      "lon": 34.763339,
      "label": "סופר פארם נחל עשן - באר שבע",
      "text": "",
      "stayTimes": "18:30 - 19:00",
      "t_start": "2020-03-31T16:30:00",
      "t_end": "2020-03-31T17:00:00",
      "link": ""
    },
    {
      "id": 382414,
      "lat": 31.2506606790001,
      "lon": 34.7716818120001,
      "label": "סופר פארם גרנד קניון - באר שבע",
      "text": "",
      "stayTimes": "13:00 - 13:30",
      "t_start": "2020-04-01T11:00:00",
      "t_end": "2020-04-01T11:30:00",
      "link": ""
    },
    {
      "id": 382415,
      "lat": 31.2498562070001,
      "lon": 34.771189179,
      "label": "סופר לה בגרנד קניון - באר שבע",
      "text": "",
      "stayTimes": "14:00 - 15:30",
      "t_start": "2020-04-01T12:00:00",
      "t_end": "2020-04-01T13:30:00",
      "link": ""
    },
    {
      "id": 382416,
      "lat": 32.7896506000001,
      "lon": 35.5320965000001,
      "label": "מחסני השוק - טבריה",
      "text": "",
      "stayTimes": "20:30 - 21:00",
      "t_start": "2020-03-31T18:30:00",
      "t_end": "2020-03-31T19:00:00",
      "link": ""
    },
    {
      "id": 382417,
      "lat": 32.7850348010001,
      "lon": 35.5168409520001,
      "label": "מכולת משה אוחיון בשכונה 200+ - טבריה",
      "text": "",
      "stayTimes": "11:00 - 12:00",
      "t_start": "2020-03-31T09:00:00",
      "t_end": "2020-03-31T10:00:00",
      "link": ""
    },
    {
      "id": 382418,
      "lat": 32.7850348010001,
      "lon": 35.5168409520001,
      "label": "מכולת משה אוחיון בשכונה 200+ - טבריה",
      "text": "",
      "stayTimes": "11:00 - 12:00",
      "t_start": "2020-04-01T09:00:00",
      "t_end": "2020-04-01T10:00:00",
      "link": ""
    },
    {
      "id": 382419,
      "lat": 31.243594,
      "lon": 34.7998825,
      "label": "חנות ביוטי סנטר מקס נורדאו 1 - באר שבע",
      "text": "",
      "stayTimes": "16:30 - 17:00",
      "t_start": "2020-03-31T14:30:00",
      "t_end": "2020-03-31T15:00:00",
      "link": ""
    },
    {
      "id": 382420,
      "lat": 31.2633917000001,
      "lon": 34.7790219,
      "label": "מגה בעיר קניון אביה - באר שבע",
      "text": "",
      "stayTimes": "19:30 - 20:30",
      "t_start": "2020-04-01T17:30:00",
      "t_end": "2020-04-01T18:30:00",
      "link": ""
    },
    {
      "id": 382421,
      "lat": 31.2434888760001,
      "lon": 34.794407703,
      "label": "קניון הנגב סופארפארם - באר שבע",
      "text": "",
      "stayTimes": "08:30 - 09:00",
      "t_start": "2020-04-02T06:30:00",
      "t_end": "2020-04-02T07:00:00",
      "link": ""
    },
    {
      "id": 382422,
      "lat": 31.2217383,
      "lon": 34.8033035,
      "label": "מתחם יאס פלנט שופרסל אקסטרא דיל - באר שבע",
      "text": "",
      "stayTimes": "09:00 - 10:30",
      "t_start": "2020-04-02T07:00:00",
      "t_end": "2020-04-02T08:30:00",
      "link": ""
    },
    {
      "id": 382423,
      "lat": 31.887029559,
      "lon": 34.8139604960001,
      "label": "בית מרקחת מאוחדת - רחובות",
      "text": "",
      "stayTimes": "11:15 - 11:34",
      "t_start": "2020-03-31T09:15:00",
      "t_end": "2020-03-31T09:34:00",
      "link": ""
    },
    {
      "id": 382424,
      "lat": 32.7873075640001,
      "lon": 35.54051328,
      "label": "בנק מזרחי טפחות - טבריה",
      "text": "",
      "stayTimes": "13:15 - 14:00",
      "t_start": "2020-03-31T11:15:00",
      "t_end": "2020-03-31T12:00:00",
      "link": ""
    },
    {
      "id": 382425,
      "lat": 32.7850348010001,
      "lon": 35.5168409520001,
      "label": "מכולת משה אוחיון בשכונה 200+ - טבריה",
      "text": "",
      "stayTimes": "17:00 - 18:00",
      "t_start": "2020-03-31T15:00:00",
      "t_end": "2020-03-31T16:00:00",
      "link": ""
    },
    {
      "id": 382426,
      "lat": 32.788664764,
      "lon": 35.5399412720001,
      "label": "בנק הדואר סניף מרכזי - טבריה",
      "text": "",
      "stayTimes": "12:00 - 13:30",
      "t_start": "2020-03-31T10:00:00",
      "t_end": "2020-03-31T11:30:00",
      "link": ""
    },
    {
      "id": 382427,
      "lat": 32.788631529,
      "lon": 35.53993968,
      "label": "בנק הדואר סניף מרכזי - טבריה",
      "text": "",
      "stayTimes": "14:00 - 14:30",
      "t_start": "2020-03-31T12:00:00",
      "t_end": "2020-03-31T12:30:00",
      "link": ""
    },
    {
      "id": 382428,
      "lat": 32.785659551,
      "lon": 35.5390709280001,
      "label": "חנות תבליני כהן בשוק עירוני - טבריה",
      "text": "",
      "stayTimes": "13:00 - 15:00",
      "t_start": "2020-04-01T11:00:00",
      "t_end": "2020-04-01T13:00:00",
      "link": ""
    },
    {
      "id": 382429,
      "lat": 32.0268882760001,
      "lon": 34.7464722670001,
      "label": "אירינה - בת ים",
      "text": "",
      "stayTimes": "10:00 - 11:00",
      "t_start": "2020-04-03T08:00:00",
      "t_end": "2020-04-03T09:00:00",
      "link": ""
    },
    {
      "id": 382430,
      "lat": 32.7795991,
      "lon": 35.5169531000001,
      "label": "סופר מרקט יש חסד - טבריה",
      "text": "",
      "stayTimes": "15:00 - 15:15",
      "t_start": "2020-03-31T13:00:00",
      "t_end": "2020-03-31T13:15:00",
      "link": ""
    },
    {
      "id": 382431,
      "lat": 32.786216301,
      "lon": 35.5409460550001,
      "label": "אטליז מרכז הבשר גרבלי - טבריה",
      "text": "",
      "stayTimes": "10:45 - 11:00",
      "t_start": "2020-03-31T08:45:00",
      "t_end": "2020-03-31T09:00:00",
      "link": ""
    },
    {
      "id": 382432,
      "lat": 32.2268468,
      "lon": 34.9607505000001,
      "label": "סופר מרקט סיטי מרקט - טירה",
      "text": "",
      "stayTimes": "22:30 - 23:30",
      "t_start": "2020-04-01T20:30:00",
      "t_end": "2020-04-01T21:30:00",
      "link": ""
    },
    {
      "id": 382433,
      "lat": 32.235666184,
      "lon": 34.950557254,
      "label": "מאפיית אחים סמארה - טירה",
      "text": "",
      "stayTimes": "14:00 - 14:45",
      "t_start": "2020-04-02T12:00:00",
      "t_end": "2020-04-02T12:45:00",
      "link": ""
    },
    {
      "id": 382434,
      "lat": 32.782965618,
      "lon": 35.0154072330001,
      "label": "מכבי פארם - חיפה",
      "text": "",
      "stayTimes": "12:00 - 14:00",
      "t_start": "2020-04-01T10:00:00",
      "t_end": "2020-04-01T12:00:00",
      "link": ""
    },
    {
      "id": 382435,
      "lat": 31.887029559,
      "lon": 34.8139604960001,
      "label": "בית מרקחת מאוחדת - רחובות",
      "text": "",
      "stayTimes": "11:15 - 11:34",
      "t_start": "2020-03-31T09:15:00",
      "t_end": "2020-03-31T09:34:00",
      "link": ""
    },
    {
      "id": 382436,
      "lat": 32.0452360780001,
      "lon": 34.842521306,
      "label": "ביח תל השומר - רמת גן",
      "text": "",
      "stayTimes": "10:30 - 16:00",
      "t_start": "2020-04-02T08:30:00",
      "t_end": "2020-04-02T14:00:00",
      "link": ""
    },
    {
      "id": 382437,
      "lat": 32.0872987000001,
      "lon": 34.8271337,
      "label": "מעיין 2000 רחוב הרב קוק 5 בני ברק - בני ברק",
      "text": "",
      "stayTimes": "13:00 - 14:00",
      "t_start": "2020-04-01T11:00:00",
      "t_end": "2020-04-01T12:00:00",
      "link": ""
    },
    {
      "id": 382438,
      "lat": 32.090821981,
      "lon": 34.8388174410001,
      "label": "יש חסד מרכז רימונים - בני ברק",
      "text": "",
      "stayTimes": "09:00 - 12:00",
      "t_start": "2020-03-31T07:00:00",
      "t_end": "2020-03-31T10:00:00",
      "link": ""
    },
    {
      "id": 382439,
      "lat": 32.0891032000001,
      "lon": 34.8380488,
      "label": "סופר \"שפע\" - בני ברק",
      "text": "",
      "stayTimes": "11:00 - 12:45",
      "t_start": "2020-03-31T09:00:00",
      "t_end": "2020-03-31T10:45:00",
      "link": ""
    },
    {
      "id": 382440,
      "lat": 32.1122901210001,
      "lon": 34.794585226,
      "label": "סוופר פארם - תל אביב - יפו",
      "text": "",
      "stayTimes": "11:00 - 12:00",
      "t_start": "2020-04-03T09:00:00",
      "t_end": "2020-04-03T10:00:00",
      "link": ""
    },
    {
      "id": 382441,
      "lat": 32.071493359,
      "lon": 34.7807476790001,
      "label": "מרמורק 9, ת\"א",
      "text": "",
      "stayTimes": "14:30 - 15:00",
      "t_start": "2020-03-31T12:30:00",
      "t_end": "2020-03-31T13:00:00",
      "link": ""
    },
    {
      "id": 382442,
      "lat": 31.7896787760001,
      "lon": 35.205386936,
      "label": "מכולת עובדיה - ירושלים",
      "text": "",
      "stayTimes": "08:00 - 08:30",
      "t_start": "2020-04-01T06:00:00",
      "t_end": "2020-04-01T06:30:00",
      "link": ""
    },
    {
      "id": 382443,
      "lat": 32.0360309000001,
      "lon": 34.7627074000001,
      "label": "בית חולים וולפסון מחקלת דיאליזה - חולון",
      "text": "",
      "stayTimes": "07:00 - 15:00",
      "t_start": "2020-03-31T05:00:00",
      "t_end": "2020-03-31T13:00:00",
      "link": ""
    },
    {
      "id": 382444,
      "lat": 33.005574623,
      "lon": 35.106375406,
      "label": "סברי - נהריה",
      "text": "",
      "stayTimes": "15:00 - 23:00",
      "t_start": "2020-03-31T13:00:00",
      "t_end": "2020-03-31T21:00:00",
      "link": ""
    },
    {
      "id": 382445,
      "lat": 32.1773179,
      "lon": 34.9033483000001,
      "label": "סופר פארם - כפר סבא",
      "text": "",
      "stayTimes": "10:00 - 10:30",
      "t_start": "2020-04-02T08:00:00",
      "t_end": "2020-04-02T08:30:00",
      "link": ""
    },
    {
      "id": 382446,
      "lat": 32.1726091,
      "lon": 34.9295943000001,
      "label": "שופרסל - כפר סבא",
      "text": "",
      "stayTimes": "10:30 - 12:00",
      "t_start": "2020-04-02T08:30:00",
      "t_end": "2020-04-02T10:00:00",
      "link": ""
    },
    {
      "id": 382447,
      "lat": 32.105877881,
      "lon": 34.80971286,
      "label": "גני תערוכה - בדיקת קורונה - תל אביב - יפו",
      "text": "",
      "stayTimes": "20:45 - 20:50",
      "t_start": "2020-03-31T18:45:00",
      "t_end": "2020-03-31T18:50:00",
      "link": ""
    },
    {
      "id": 382448,
      "lat": 31.921899287,
      "lon": 34.858908795,
      "label": "מרפאת בן גוריון כללית - רמלה",
      "text": "",
      "stayTimes": "09:45 - 10:15",
      "t_start": "2020-03-31T07:45:00",
      "t_end": "2020-03-31T08:15:00",
      "link": ""
    },
    {
      "id": 382449,
      "lat": 32.3120405,
      "lon": 34.8709662000001,
      "label": "סופר פרם - נתניה",
      "text": "",
      "stayTimes": "17:00 - 17:10",
      "t_start": "2020-04-02T15:00:00",
      "t_end": "2020-04-02T15:10:00",
      "link": ""
    },
    {
      "id": 382450,
      "lat": 32.3231348,
      "lon": 34.8713024,
      "label": "סופרסל  דיל - נתניה",
      "text": "",
      "stayTimes": "15:00 - 15:30",
      "t_start": "2020-04-01T13:00:00",
      "t_end": "2020-04-01T13:30:00",
      "link": ""
    },
    {
      "id": 382451,
      "lat": 32.105877881,
      "lon": 34.80971286,
      "label": "גני התערוכה. בדיקת קורונה - תל אביב - יפו",
      "text": "",
      "stayTimes": "14:00 - 14:15",
      "t_start": "2020-04-01T12:00:00",
      "t_end": "2020-04-01T12:15:00",
      "link": ""
    },
    {
      "id": 382452,
      "lat": 32.3604795000001,
      "lon": 34.8622635,
      "label": "מכולת - חבצלת השרון",
      "text": "",
      "stayTimes": "13:00 - 13:10",
      "t_start": "2020-04-03T11:00:00",
      "t_end": "2020-04-03T11:10:00",
      "link": ""
    },
    {
      "id": 382453,
      "lat": 31.793238667,
      "lon": 35.2071995640001,
      "label": "בית אבות גני אורה - ירושלים",
      "text": "",
      "stayTimes": "07:00 - 15:00",
      "t_start": "2020-03-31T05:00:00",
      "t_end": "2020-03-31T13:00:00",
      "link": ""
    },
    {
      "id": 382454,
      "lat": 31.785913856,
      "lon": 35.1817924740001,
      "label": "מפעל מצות - ירושלים",
      "text": "",
      "stayTimes": "00:00 - 08:00",
      "t_start": "2020-03-31T22:00:00",
      "t_end": "2020-04-01T06:00:00",
      "link": ""
    },
    {
      "id": 382455,
      "lat": 31.9446726,
      "lon": 34.8052458000001,
      "label": "הוסטל בית גיא - ראשון לציון",
      "text": "",
      "stayTimes": "09:30 - 18:00",
      "t_start": "2020-04-01T07:30:00",
      "t_end": "2020-04-01T16:00:00",
      "link": ""
    },
    {
      "id": 382456,
      "lat": 31.687507709,
      "lon": 34.5791652280001,
      "label": "שופרסל ברנע - אשקלון",
      "text": "",
      "stayTimes": "16:00 - 16:30",
      "t_start": "2020-03-31T14:00:00",
      "t_end": "2020-03-31T14:30:00",
      "link": ""
    },
    {
      "id": 382457,
      "lat": 31.240496481,
      "lon": 34.7883985,
      "label": "תחנת משטרה סניף טוביהו - באר שבע",
      "text": "",
      "stayTimes": "07:30 - 16:30",
      "t_start": "2020-04-02T05:30:00",
      "t_end": "2020-04-02T14:30:00",
      "link": ""
    },
    {
      "id": 382458,
      "lat": 31.8003819670001,
      "lon": 35.2203480310001,
      "label": "מעיין 2000 - ירושלים",
      "text": "",
      "stayTimes": "09:30 - 10:00",
      "t_start": "2020-04-02T07:30:00",
      "t_end": "2020-04-02T08:00:00",
      "link": ""
    },
    {
      "id": 382459,
      "lat": 32.060467197,
      "lon": 34.8292856250001,
      "label": "סופר נווה יהושע - רמת גן",
      "text": "",
      "stayTimes": "19:00 - 21:30",
      "t_start": "2020-03-31T17:00:00",
      "t_end": "2020-03-31T19:30:00",
      "link": ""
    },
    {
      "id": 382460,
      "lat": 31.9161609000001,
      "lon": 34.8727313000001,
      "label": "סופר פארם מצליח - רמלה",
      "text": "",
      "stayTimes": "10:13 - 10:20",
      "t_start": "2020-03-31T08:13:00",
      "t_end": "2020-03-31T08:20:00",
      "link": ""
    },
    {
      "id": 382461,
      "lat": 31.787826233,
      "lon": 35.2228443500001,
      "label": "מאפיית מצות מאה השערים - ירושלים",
      "text": "",
      "stayTimes": "09:00 - 18:00",
      "t_start": "2020-03-31T07:00:00",
      "t_end": "2020-03-31T16:00:00",
      "link": ""
    },
    {
      "id": 382462,
      "lat": 31.6654069530001,
      "lon": 34.5645501380001,
      "label": "מס הכנסה - אשקלון",
      "text": "",
      "stayTimes": "13:50 - 17:00",
      "t_start": "2020-03-31T11:50:00",
      "t_end": "2020-03-31T15:00:00",
      "link": ""
    },
    {
      "id": 382463,
      "lat": 31.655729367,
      "lon": 34.5842175610001,
      "label": "בית מרקחת קופ\"ח כללית- אסף הרופא - אשקלון",
      "text": "",
      "stayTimes": "11:00 - 11:30",
      "t_start": "2020-04-01T09:00:00",
      "t_end": "2020-04-01T09:30:00",
      "link": ""
    },
    {
      "id": 382464,
      "lat": 32.0740832920001,
      "lon": 34.8404990080001,
      "label": "בית מרקחת הר סיני - בני ברק",
      "text": "",
      "stayTimes": "08:25 - 08:35",
      "t_start": "2020-04-02T06:25:00",
      "t_end": "2020-04-02T06:35:00",
      "link": ""
    },
    {
      "id": 382465,
      "lat": 32.0692707000001,
      "lon": 34.8386134,
      "label": "ברכול - רמת גן",
      "text": "",
      "stayTimes": "09:45 - 09:55",
      "t_start": "2020-04-02T07:45:00",
      "t_end": "2020-04-02T07:55:00",
      "link": ""
    },
    {
      "id": 382466,
      "lat": 32.0715922260001,
      "lon": 34.8385385560001,
      "label": "חנות עשר תעשר - בני ברק",
      "text": "",
      "stayTimes": "09:00 - 09:20",
      "t_start": "2020-04-03T07:00:00",
      "t_end": "2020-04-03T07:20:00",
      "link": ""
    },
    {
      "id": 382467,
      "lat": 32.8027178,
      "lon": 35.0124521000001,
      "label": "אושר עד - חיפה",
      "text": "",
      "stayTimes": "22:00 - 23:00",
      "t_start": "2020-03-31T20:00:00",
      "t_end": "2020-03-31T21:00:00",
      "link": ""
    },
    {
      "id": 382468,
      "lat": 31.7997442980001,
      "lon": 34.6623996050001,
      "label": "יש חסד - אשדוד",
      "text": "",
      "stayTimes": "14:30 - 15:30",
      "t_start": "2020-04-01T12:30:00",
      "t_end": "2020-04-01T13:30:00",
      "link": ""
    },
    {
      "id": 382469,
      "lat": 31.7665910000001,
      "lon": 34.6308036,
      "label": "סופר מארקט מחסני להב - אשדוד",
      "text": "",
      "stayTimes": "14:00 - 14:30",
      "t_start": "2020-04-03T12:00:00",
      "t_end": "2020-04-03T12:30:00",
      "link": ""
    },
    {
      "id": 382470,
      "lat": 32.0796136600001,
      "lon": 34.8344082950001,
      "label": "בית מרקחת - בני ברק",
      "text": "",
      "stayTimes": "09:30 - 10:00",
      "t_start": "2020-04-01T07:30:00",
      "t_end": "2020-04-01T08:00:00",
      "link": ""
    },
    {
      "id": 382471,
      "lat": 31.6731153320001,
      "lon": 34.568535766,
      "label": "סופר פארם - אשקלון",
      "text": "",
      "stayTimes": "14:00 - 15:00",
      "t_start": "2020-04-01T12:00:00",
      "t_end": "2020-04-01T13:00:00",
      "link": ""
    },
    {
      "id": 382472,
      "lat": 32.524091115,
      "lon": 35.154581358,
      "label": "קניון אלארם - אום אל-פחם",
      "text": "",
      "stayTimes": "08:00 - 09:00",
      "t_start": "2020-03-31T06:00:00",
      "t_end": "2020-03-31T07:00:00",
      "link": ""
    },
    {
      "id": 382473,
      "lat": 32.0301833250001,
      "lon": 34.883557378,
      "label": "יצחק שדה 15, יהוד",
      "text": "",
      "stayTimes": "16:00 - 19:00",
      "t_start": "2020-03-31T14:00:00",
      "t_end": "2020-04-02T17:00:00",
      "link": ""
    },
    {
      "id": 382474,
      "lat": 32.0898639000001,
      "lon": 34.8851074,
      "label": "בית מרקחת \"גוד פארם\" - פתח תקווה",
      "text": "",
      "stayTimes": "09:30 - 10:00",
      "t_start": "2020-04-03T07:30:00",
      "t_end": "2020-04-03T08:00:00",
      "link": ""
    },
    {
      "id": 382475,
      "lat": 32.0798892330001,
      "lon": 34.902398568,
      "label": "\"שופרסל\" - פתח תקווה",
      "text": "",
      "stayTimes": "13:30 - 14:15",
      "t_start": "2020-04-03T11:30:00",
      "t_end": "2020-04-03T12:15:00",
      "link": ""
    },
    {
      "id": 382476,
      "lat": 32.7219273000001,
      "lon": 35.4949277000001,
      "label": "מחלקת כלנית בבית האבות יוקרה - יבנאל",
      "text": "",
      "stayTimes": "19:00 - 07:00",
      "t_start": "2020-04-01T17:00:00",
      "t_end": "2020-04-02T05:00:00",
      "link": ""
    },
    {
      "id": 382477,
      "lat": 32.0468299,
      "lon": 34.9085715000001,
      "label": "סופר \"יש\" - בארות יצחק",
      "text": "",
      "stayTimes": "11:00 - 12:30",
      "t_start": "2020-04-01T09:00:00",
      "t_end": "2020-04-01T10:30:00",
      "link": ""
    },
    {
      "id": 382478,
      "lat": 32.1762699270001,
      "lon": 34.9341393230001,
      "label": "סופרמרקט שוק העיר - כפר סבא",
      "text": "",
      "stayTimes": "12:00 - 14:30",
      "t_start": "2020-04-03T10:00:00",
      "t_end": "2020-04-03T12:30:00",
      "link": ""
    },
    {
      "id": 382479,
      "lat": 32.0332097140001,
      "lon": 34.8910968640001,
      "label": "מרפאה - יהוד",
      "text": "",
      "stayTimes": "07:30 - 09:00",
      "t_start": "2020-04-01T05:30:00",
      "t_end": "2020-04-01T07:00:00",
      "link": ""
    },
    {
      "id": 382480,
      "lat": 32.0250675660001,
      "lon": 34.7767823610001,
      "label": "סיטי מרקט - חולון",
      "text": "",
      "stayTimes": "14:30 - 15:00",
      "t_start": "2020-04-03T12:30:00",
      "t_end": "2020-04-03T13:00:00",
      "link": ""
    },
    {
      "id": 382481,
      "lat": 31.764803752,
      "lon": 35.1490061490001,
      "label": "בית חולים עין כרם - ירושלים",
      "text": "",
      "stayTimes": "06:30 - 15:00",
      "t_start": "2020-03-31T04:30:00",
      "t_end": "2020-03-31T13:00:00",
      "link": ""
    },
    {
      "id": 382482,
      "lat": 31.99084162,
      "lon": 34.761078383,
      "label": "אושר עד - ראשון לציון",
      "text": "",
      "stayTimes": "11:30 - 12:47",
      "t_start": "2020-04-03T09:30:00",
      "t_end": "2020-04-03T10:47:00",
      "link": ""
    },
    {
      "id": 382483,
      "lat": 32.1058370000001,
      "lon": 34.8923941,
      "label": "סופר \"אושר עד\" - פתח תקווה",
      "text": "",
      "stayTimes": "13:00 - 14:00",
      "t_start": "2020-04-01T11:00:00",
      "t_end": "2020-04-01T12:00:00",
      "link": ""
    },
    {
      "id": 382484,
      "lat": 32.751025401,
      "lon": 35.09142602,
      "label": "בר כל - כפר חסידים א'",
      "text": "",
      "stayTimes": "15:00 - 15:15",
      "t_start": "2020-04-02T13:00:00",
      "t_end": "2020-04-02T13:15:00",
      "link": ""
    },
    {
      "id": 382485,
      "lat": 31.7051188,
      "lon": 35.1168587000001,
      "label": "סופר \"יש חסד\" - ביתר עילית",
      "text": "",
      "stayTimes": "11:00 - 12:30",
      "t_start": "2020-03-31T09:00:00",
      "t_end": "2020-03-31T10:30:00",
      "link": ""
    },
    {
      "id": 382486,
      "lat": 32.5330904,
      "lon": 35.3195196,
      "label": "תחנת דלק מנטה - גן נר",
      "text": "",
      "stayTimes": "12:40 - 12:52",
      "t_start": "2020-03-31T10:40:00",
      "t_end": "2020-03-31T10:52:00",
      "link": ""
    },
    {
      "id": 382487,
      "lat": 32.691790129,
      "lon": 35.371605705,
      "label": "קופת חולים כללית - דבוריה",
      "text": "",
      "stayTimes": "09:00 - 09:30",
      "t_start": "2020-04-01T07:00:00",
      "t_end": "2020-04-01T07:30:00",
      "link": ""
    },
    {
      "id": 382488,
      "lat": 31.764803752,
      "lon": 35.1490061490001,
      "label": "בי\"ח הדסה עין כרם - מרפאת ריאות קומה 5 - ירושלים",
      "text": "",
      "stayTimes": "18:00 - 18:30",
      "t_start": "2020-03-31T16:00:00",
      "t_end": "2020-03-31T16:30:00",
      "link": ""
    },
    {
      "id": 382489,
      "lat": 32.0525796000001,
      "lon": 34.9610671,
      "label": "קצביה בנחלת יצחק - אלעד",
      "text": "",
      "stayTimes": "16:00 - 17:30",
      "t_start": "2020-03-31T14:00:00",
      "t_end": "2020-03-31T15:30:00",
      "link": ""
    },
    {
      "id": 382490,
      "lat": 32.052590728,
      "lon": 34.9610781230001,
      "label": "סופר \"מזל וברכה\",נחלת יצחק - אלעד",
      "text": "",
      "stayTimes": "16:00 - 17:00",
      "t_start": "2020-03-31T14:00:00",
      "t_end": "2020-03-31T15:00:00",
      "link": ""
    },
    {
      "id": 382491,
      "lat": 31.7939895580001,
      "lon": 34.639149387,
      "label": "ינות ביתן בסיטי אשדוד - אשדוד",
      "text": "",
      "stayTimes": "18:00 - 19:00",
      "t_start": "2020-04-01T16:00:00",
      "t_end": "2020-04-01T17:00:00",
      "link": ""
    },
    {
      "id": 382492,
      "lat": 31.7829486000001,
      "lon": 34.6549948000001,
      "label": "מעדני מניה - אשדוד",
      "text": "",
      "stayTimes": "10:00 - 11:00",
      "t_start": "2020-04-01T08:00:00",
      "t_end": "2020-04-01T09:00:00",
      "link": ""
    },
    {
      "id": 382493,
      "lat": 31.241627856,
      "lon": 34.8035148760001,
      "label": "בית הפחם - באר שבע",
      "text": "",
      "stayTimes": "12:00 - 12:30",
      "t_start": "2020-04-01T10:00:00",
      "t_end": "2020-04-01T10:30:00",
      "link": ""
    },
    {
      "id": 382494,
      "lat": 32.0802792000001,
      "lon": 34.7901360000001,
      "label": "מרפאת עיניים בית חולים איכילוב - תל אביב - יפו",
      "text": "",
      "stayTimes": "11:30 - 15:00",
      "t_start": "2020-04-01T09:30:00",
      "t_end": "2020-04-01T13:00:00",
      "link": ""
    },
    {
      "id": 382495,
      "lat": 31.7705040000001,
      "lon": 35.1845940000001,
      "label": "בית מרקחת עוזיאל - ירושלים",
      "text": "",
      "stayTimes": "14:00 - 14:30",
      "t_start": "2020-03-31T12:00:00",
      "t_end": "2020-03-31T12:30:00",
      "link": ""
    },
    {
      "id": 382496,
      "lat": 31.915902386,
      "lon": 35.0243825760001,
      "label": "רמי לוי - שילת",
      "text": "",
      "stayTimes": "09:30 - 11:00",
      "t_start": "2020-04-02T07:30:00",
      "t_end": "2020-04-02T09:00:00",
      "link": ""
    },
    {
      "id": 382497,
      "lat": 32.722501859,
      "lon": 35.4949278940001,
      "label": "ביא' יוקרה - יבנאל",
      "text": "",
      "stayTimes": "06:00 - 14:00",
      "t_start": "2020-03-31T04:00:00",
      "t_end": "2020-03-31T12:00:00",
      "link": ""
    },
    {
      "id": 382498,
      "lat": 32.7219883720001,
      "lon": 35.4949278780001,
      "label": "ביא' יוקרה - יבנאל",
      "text": "",
      "stayTimes": "06:00 - 14:00",
      "t_start": "2020-04-01T04:00:00",
      "t_end": "2020-04-01T12:00:00",
      "link": ""
    },
    {
      "id": 382499,
      "lat": 32.9803820000001,
      "lon": 35.543548,
      "label": "מכולת חממי - חצור הגלילית",
      "text": "",
      "stayTimes": "10:00 - 11:00",
      "t_start": "2020-04-03T08:00:00",
      "t_end": "2020-04-03T09:00:00",
      "link": ""
    },
    {
      "id": 382500,
      "lat": 32.084856874,
      "lon": 34.8411504600001,
      "label": "בר כל - בני ברק",
      "text": "",
      "stayTimes": "09:00 - 10:00",
      "t_start": "2020-03-31T07:00:00",
      "t_end": "2020-03-31T08:00:00",
      "link": ""
    },
    {
      "id": 382501,
      "lat": 31.905703074,
      "lon": 35.007384491,
      "label": "מרפאה \"טרם\" - מודיעין-מכבים-רעות",
      "text": "",
      "stayTimes": "05:30 - 06:10",
      "t_start": "2020-04-04T03:30:00",
      "t_end": "2020-04-04T04:10:00",
      "link": ""
    },
    {
      "id": 382502,
      "lat": 32.0967365880001,
      "lon": 34.840825388,
      "label": "נתיב החסד - בני ברק",
      "text": "",
      "stayTimes": "20:00 - 20:20",
      "t_start": "2020-04-01T18:00:00",
      "t_end": "2020-04-01T18:20:00",
      "link": ""
    },
    {
      "id": 382503,
      "lat": 31.22449448,
      "lon": 34.821652945,
      "label": "סופר דבאח - באר שבע",
      "text": "",
      "stayTimes": "15:00 - 16:00",
      "t_start": "2020-03-31T13:00:00",
      "t_end": "2020-03-31T14:00:00",
      "link": ""
    },
    {
      "id": 382504,
      "lat": 31.7331721460001,
      "lon": 35.197818043,
      "label": "בית הפירות - ירושלים",
      "text": "",
      "stayTimes": "18:00 - 19:00",
      "t_start": "2020-04-02T16:00:00",
      "t_end": "2020-04-02T17:00:00",
      "link": ""
    },
    {
      "id": 382505,
      "lat": 31.7316702910001,
      "lon": 35.1872594170001,
      "label": "שופרסל גילה - ירושלים",
      "text": "",
      "stayTimes": "17:00 - 18:00",
      "t_start": "2020-04-02T15:00:00",
      "t_end": "2020-04-02T16:00:00",
      "link": ""
    },
    {
      "id": 382506,
      "lat": 31.7602453000001,
      "lon": 35.1764379000001,
      "label": "קופת חולים מאוחדת קרית יובל - ירושלים",
      "text": "",
      "stayTimes": "08:00 - 08:30",
      "t_start": "2020-04-01T06:00:00",
      "t_end": "2020-04-01T06:30:00",
      "link": ""
    },
    {
      "id": 382507,
      "lat": 32.80547125,
      "lon": 35.001583135,
      "label": "נתיב החסד - חיפה",
      "text": "",
      "stayTimes": "22:00 - 22:40",
      "t_start": "2020-04-04T20:00:00",
      "t_end": "2020-04-04T20:40:00",
      "link": ""
    },
    {
      "id": 382508,
      "lat": 32.080444433,
      "lon": 34.8314383410001,
      "label": "סמינר בית יעקב - בני ברק",
      "text": "",
      "stayTimes": "17:00 - 18:00",
      "t_start": "2020-03-31T15:00:00",
      "t_end": "2020-03-31T16:00:00",
      "link": ""
    },
    {
      "id": 382509,
      "lat": 31.667580028,
      "lon": 34.5687015140001,
      "label": "\"שוק העיר\" - אשקלון",
      "text": "",
      "stayTimes": "10:00 - 11:00",
      "t_start": "2020-04-02T08:00:00",
      "t_end": "2020-04-02T09:00:00",
      "link": ""
    },
    {
      "id": 382510,
      "lat": 31.667580028,
      "lon": 34.5687015140001,
      "label": "\"שוק העיר\" - אשקלון",
      "text": "",
      "stayTimes": "14:30 - 15:00",
      "t_start": "2020-04-02T12:30:00",
      "t_end": "2020-04-02T13:00:00",
      "link": ""
    },
    {
      "id": 382511,
      "lat": 32.1823231000001,
      "lon": 34.8954868000001,
      "label": "ביה\"ח מאיר - כפר סבא",
      "text": "",
      "stayTimes": "08:00 - 08:30",
      "t_start": "2020-04-05T06:00:00",
      "t_end": "2020-04-05T06:30:00",
      "link": ""
    },
    {
      "id": 382512,
      "lat": 32.7221167430001,
      "lon": 35.4951949310001,
      "label": "ביא' יוקרה - יבנאל",
      "text": "",
      "stayTimes": "06:00 - 14:30",
      "t_start": "2020-03-31T04:00:00",
      "t_end": "2020-03-31T12:30:00",
      "link": ""
    },
    {
      "id": 382513,
      "lat": 32.722020463,
      "lon": 35.494889754,
      "label": "ביא' יוקרה - יבנאל",
      "text": "",
      "stayTimes": "06:00 - 14:00",
      "t_start": "2020-04-01T04:00:00",
      "t_end": "2020-04-01T12:00:00",
      "link": ""
    },
    {
      "id": 382514,
      "lat": 32.7221167430001,
      "lon": 35.494851608,
      "label": "ביא' יוקרה - יבנאל",
      "text": "",
      "stayTimes": "06:00 - 14:30",
      "t_start": "2020-04-02T04:00:00",
      "t_end": "2020-04-02T12:30:00",
      "link": ""
    },
    {
      "id": 382515,
      "lat": 32.722020463,
      "lon": 35.4950423440001,
      "label": "ביא' יוקרה - יבנאל",
      "text": "",
      "stayTimes": "06:00 - 14:30",
      "t_start": "2020-04-03T04:00:00",
      "t_end": "2020-04-03T12:30:00",
      "link": ""
    },
    {
      "id": 382516,
      "lat": 32.1058370000001,
      "lon": 34.8923941,
      "label": "אושר עד - פתח תקווה",
      "text": "",
      "stayTimes": "12:00 - 12:30",
      "t_start": "2020-04-03T10:00:00",
      "t_end": "2020-04-03T10:30:00",
      "link": ""
    },
    {
      "id": 382517,
      "lat": 31.2477093380001,
      "lon": 34.801954994,
      "label": "קופ\"ח ג' - באר שבע",
      "text": "",
      "stayTimes": "08:30 - 09:00",
      "t_start": "2020-04-01T06:30:00",
      "t_end": "2020-04-01T07:00:00",
      "link": ""
    },
    {
      "id": 382518,
      "lat": 32.0469554490001,
      "lon": 34.8448678510001,
      "label": "מעבדה מרכזית תל השומר - רמת גן",
      "text": "",
      "stayTimes": "07:00 - 19:00",
      "t_start": "2020-03-31T05:00:00",
      "t_end": "2020-03-31T17:00:00",
      "link": ""
    },
    {
      "id": 382519,
      "lat": 32.0469554490001,
      "lon": 34.8448678510001,
      "label": "מעבדה מרכזית תל השומר - רמת גן",
      "text": "",
      "stayTimes": "07:00 - 19:00",
      "t_start": "2020-04-02T05:00:00",
      "t_end": "2020-04-02T17:00:00",
      "link": ""
    },
    {
      "id": 382520,
      "lat": 32.0469554490001,
      "lon": 34.8448678510001,
      "label": "מעבדה מרכזית תל השומר - רמת גן",
      "text": "",
      "stayTimes": "07:30 - 09:00",
      "t_start": "2020-04-05T05:30:00",
      "t_end": "2020-04-05T07:00:00",
      "link": ""
    },
    {
      "id": 382521,
      "lat": 32.9612647970001,
      "lon": 35.4950951660001,
      "label": "קופ\"ח כללית , רחות הנשיא - צפת",
      "text": "",
      "stayTimes": "08:30 - 09:30",
      "t_start": "2020-04-01T06:30:00",
      "t_end": "2020-04-01T07:30:00",
      "link": ""
    },
    {
      "id": 382522,
      "lat": 32.0444342870001,
      "lon": 34.7691806880001,
      "label": "מעבדה לבריאות הציבור אבו כביר - תל אביב - יפו",
      "text": "",
      "stayTimes": "09:30 - 12:00",
      "t_start": "2020-04-05T07:30:00",
      "t_end": "2020-04-05T10:00:00",
      "link": ""
    },
    {
      "id": 382523,
      "lat": 32.0906142640001,
      "lon": 34.945982932,
      "label": "פינוי מדא לבית חולים - ראש העין",
      "text": "",
      "stayTimes": "00:00 - 00:00",
      "t_start": "2020-04-04T22:00:00",
      "t_end": "2020-04-04T22:00:00",
      "link": ""
    },
    {
      "id": 382524,
      "lat": 32.0490370000001,
      "lon": 34.842654,
      "label": "בלובי של מיון יולדות בבית חולים תל השומר - רמת גן",
      "text": "",
      "stayTimes": "10:00 - 14:00",
      "t_start": "2020-03-31T08:00:00",
      "t_end": "2020-03-31T12:00:00",
      "link": ""
    },
    {
      "id": 382525,
      "lat": 32.0872719320001,
      "lon": 34.8304819860001,
      "label": "קופ\"ח לאומית - בני ברק",
      "text": "",
      "stayTimes": "09:00 - 10:00",
      "t_start": "2020-04-03T07:00:00",
      "t_end": "2020-04-03T08:00:00",
      "link": ""
    },
    {
      "id": 382526,
      "lat": 31.8752204370001,
      "lon": 34.7386227540001,
      "label": "בית מרקחת כללית - יבנה",
      "text": "",
      "stayTimes": "10:35 - 12:04",
      "t_start": "2020-03-31T08:35:00",
      "t_end": "2020-03-31T10:04:00",
      "link": ""
    },
    {
      "id": 382527,
      "lat": 31.9691968770001,
      "lon": 34.803969076,
      "label": "קופת חולים כללית - ראשון לציון",
      "text": "",
      "stayTimes": "08:00 - 18:30",
      "t_start": "2020-03-31T06:00:00",
      "t_end": "2020-03-31T16:30:00",
      "link": ""
    },
    {
      "id": 382528,
      "lat": 31.865596113,
      "lon": 35.260582648,
      "label": "רמי לוי  איזור תעשיה שער בנימין - ירושלים",
      "text": "",
      "stayTimes": "08:30 - 08:50",
      "t_start": "2020-03-31T06:30:00",
      "t_end": "2020-03-31T06:50:00",
      "link": ""
    },
    {
      "id": 382529,
      "lat": 31.8875278190001,
      "lon": 34.820285099,
      "label": "סופר יינות ביתן - רחובות",
      "text": "",
      "stayTimes": "18:00 - 20:00",
      "t_start": "2020-04-01T16:00:00",
      "t_end": "2020-04-01T18:00:00",
      "link": ""
    },
    {
      "id": 382530,
      "lat": 31.78916803,
      "lon": 35.215500337,
      "label": "גאולה - ירושלים",
      "text": "",
      "stayTimes": "15:00 - 16:30",
      "t_start": "2020-03-31T13:00:00",
      "t_end": "2020-03-31T14:30:00",
      "link": ""
    },
    {
      "id": 382531,
      "lat": 32.9625904000001,
      "lon": 35.4834071000001,
      "label": "סופר כולל מרקט, איזור תעשיה - צפת",
      "text": "",
      "stayTimes": "13:30 - 14:00",
      "t_start": "2020-03-31T11:30:00",
      "t_end": "2020-03-31T12:00:00",
      "link": ""
    },
    {
      "id": 382532,
      "lat": 32.0551990060001,
      "lon": 34.8626548240001,
      "label": "מגה בעיר קניון קרית אונו - קרית אונו",
      "text": "",
      "stayTimes": "06:00 - 14:00",
      "t_start": "2020-04-02T04:00:00",
      "t_end": "2020-04-02T12:00:00",
      "link": ""
    },
    {
      "id": 382533,
      "lat": 32.0445779830001,
      "lon": 34.8021035450001,
      "label": "סופר אתי כל מרקט - תל אביב - יפו",
      "text": "",
      "stayTimes": "16:15 - 16:30",
      "t_start": "2020-04-02T14:15:00",
      "t_end": "2020-04-02T14:30:00",
      "link": ""
    },
    {
      "id": 382534,
      "lat": 32.07148441,
      "lon": 34.82805734,
      "label": "פרש מרקט - רמת גן",
      "text": "",
      "stayTimes": "11:00 - 12:30",
      "t_start": "2020-04-01T09:00:00",
      "t_end": "2020-04-01T10:30:00",
      "link": ""
    },
    {
      "id": 382535,
      "lat": 31.6611049270001,
      "lon": 34.589123752,
      "label": "סופר פארם קניון חוצות - אשקלון",
      "text": "",
      "stayTimes": "10:00 - 10:30",
      "t_start": "2020-04-03T08:00:00",
      "t_end": "2020-04-03T08:30:00",
      "link": ""
    },
    {
      "id": 382536,
      "lat": 32.0920991,
      "lon": 34.8387259,
      "label": "מטב - שירותי סיעוד עזרה וייעוץ לקשישים - בני ברק",
      "text": "",
      "stayTimes": "08:00 - 13:00",
      "t_start": "2020-04-01T06:00:00",
      "t_end": "2020-04-01T11:00:00",
      "link": ""
    },
    {
      "id": 382537,
      "lat": 32.7791922000001,
      "lon": 35.5029054,
      "label": "סופר מרקט יוחננוף - טבריה",
      "text": "",
      "stayTimes": "00:00 - 08:00",
      "t_start": "2020-04-02T22:00:00",
      "t_end": "2020-04-03T06:00:00",
      "link": ""
    },
    {
      "id": 382538,
      "lat": 32.0920991,
      "lon": 34.8387259,
      "label": "מטב - שירותי ייעוץ סיעוד ועזרה לקשישים - בני ברק",
      "text": "",
      "stayTimes": "08:00 - 13:00",
      "t_start": "2020-04-02T06:00:00",
      "t_end": "2020-04-02T11:00:00",
      "link": ""
    },
    {
      "id": 382539,
      "lat": 32.078894029,
      "lon": 34.8407030160001,
      "label": "יש חסד - בני ברק",
      "text": "",
      "stayTimes": "19:30 - 21:00",
      "t_start": "2020-04-02T17:30:00",
      "t_end": "2020-04-02T19:00:00",
      "link": ""
    },
    {
      "id": 382540,
      "lat": 31.9659792,
      "lon": 34.8025789000001,
      "label": "בית מרקחת - ראשון לציון",
      "text": "",
      "stayTimes": "13:00 - 13:10",
      "t_start": "2020-03-31T11:00:00",
      "t_end": "2020-03-31T11:10:00",
      "link": ""
    },
    {
      "id": 382541,
      "lat": 32.691790129,
      "lon": 35.371605705,
      "label": "קופת חולים כללית - דבוריה",
      "text": "",
      "stayTimes": "09:00 - 09:30",
      "t_start": "2020-04-03T07:00:00",
      "t_end": "2020-04-03T07:30:00",
      "link": ""
    },
    {
      "id": 382542,
      "lat": 32.7219273000001,
      "lon": 35.4949277000001,
      "label": "בית אבות יוקרה מחלקת יסמין - יבנאל",
      "text": "",
      "stayTimes": "14:00 - 22:00",
      "t_start": "2020-03-31T12:00:00",
      "t_end": "2020-03-31T20:00:00",
      "link": ""
    },
    {
      "id": 382543,
      "lat": 32.086301286,
      "lon": 34.8348900760001,
      "label": "סופר נתיב החסד - בני ברק",
      "text": "",
      "stayTimes": "21:00 - 21:30",
      "t_start": "2020-03-31T19:00:00",
      "t_end": "2020-03-31T19:30:00",
      "link": ""
    },
    {
      "id": 382544,
      "lat": 31.9471436000001,
      "lon": 34.8918284000001,
      "label": "\"סופר פארם \" שדרות דוד המלך 2 לוד - לוד",
      "text": "",
      "stayTimes": "22:00 - 23:00",
      "t_start": "2020-04-02T20:00:00",
      "t_end": "2020-04-02T21:00:00",
      "link": ""
    },
    {
      "id": 382545,
      "lat": 31.9990278000001,
      "lon": 34.94685,
      "label": "\"סופר פארם מרכז מסחרי שוהם - שוהם",
      "text": "",
      "stayTimes": "16:30 - 17:30",
      "t_start": "2020-04-03T14:30:00",
      "t_end": "2020-04-03T15:30:00",
      "link": ""
    },
    {
      "id": 382546,
      "lat": 32.166809991,
      "lon": 34.842344559,
      "label": "בן גוריון 2, הרצליה",
      "text": "",
      "stayTimes": "08:00 - 08:30",
      "t_start": "2020-04-03T06:00:00",
      "t_end": "2020-04-03T06:30:00",
      "link": ""
    },
    {
      "id": 382547,
      "lat": 31.8075112980001,
      "lon": 35.2219486020001,
      "label": "בית מרקחת רמת שלמה - ירושלים",
      "text": "",
      "stayTimes": "14:00 - 14:15",
      "t_start": "2020-04-01T12:00:00",
      "t_end": "2020-04-01T12:15:00",
      "link": ""
    },
    {
      "id": 382548,
      "lat": 31.809617378,
      "lon": 35.2187470150001,
      "label": "חנות תקשורת - ירושלים",
      "text": "",
      "stayTimes": "14:30 - 15:00",
      "t_start": "2020-04-01T12:30:00",
      "t_end": "2020-04-01T13:00:00",
      "link": ""
    },
    {
      "id": 382549,
      "lat": 32.0279570000001,
      "lon": 34.864768,
      "label": "קופח כללית - אור יהודה",
      "text": "",
      "stayTimes": "07:30 - 19:00",
      "t_start": "2020-03-31T05:30:00",
      "t_end": "2020-03-31T17:00:00",
      "link": ""
    },
    {
      "id": 382550,
      "lat": 31.3210790000001,
      "lon": 34.6230639,
      "label": "ויקטורי - אופקים",
      "text": "",
      "stayTimes": "13:00 - 13:30",
      "t_start": "2020-04-02T11:00:00",
      "t_end": "2020-04-02T11:30:00",
      "link": ""
    },
    {
      "id": 382551,
      "lat": 32.0279570000001,
      "lon": 34.864768,
      "label": "קופח כללית - אור יהודה",
      "text": "",
      "stayTimes": "07:30 - 08:00",
      "t_start": "2020-04-02T05:30:00",
      "t_end": "2020-04-02T06:00:00",
      "link": ""
    },
    {
      "id": 382552,
      "lat": 32.0279570000001,
      "lon": 34.864768,
      "label": "קופח כללית - אור יהודה",
      "text": "",
      "stayTimes": "11:30 - 12:00",
      "t_start": "2020-04-03T09:30:00",
      "t_end": "2020-04-03T10:00:00",
      "link": ""
    },
    {
      "id": 382553,
      "lat": 32.0667213680001,
      "lon": 34.788182084,
      "label": "לסר (חנות ביצים) - תל אביב - יפו",
      "text": "",
      "stayTimes": "09:00 - 10:00",
      "t_start": "2020-04-02T07:00:00",
      "t_end": "2020-04-02T08:00:00",
      "link": ""
    },
    {
      "id": 382554,
      "lat": 32.028290579,
      "lon": 34.7483266520001,
      "label": "בית חולים בית בלב - בת ים",
      "text": "",
      "stayTimes": "08:00 - 16:00",
      "t_start": "2020-04-05T06:00:00",
      "t_end": "2020-04-05T14:00:00",
      "link": ""
    },
    {
      "id": 382555,
      "lat": 32.0951522440001,
      "lon": 34.838317536,
      "label": "מכולת - בני ברק",
      "text": "",
      "stayTimes": "20:30 - 21:00",
      "t_start": "2020-04-02T18:30:00",
      "t_end": "2020-04-02T19:00:00",
      "link": ""
    },
    {
      "id": 382556,
      "lat": 32.1673930440001,
      "lon": 34.8412880870001,
      "label": "סופר פארם - הרצליה",
      "text": "",
      "stayTimes": "12:00 - 12:30",
      "t_start": "2020-04-05T10:00:00",
      "t_end": "2020-04-05T10:30:00",
      "link": ""
    },
    {
      "id": 382557,
      "lat": 32.167390137,
      "lon": 34.841294954,
      "label": "חנות פארם - הרצליה",
      "text": "",
      "stayTimes": "12:30 - 13:00",
      "t_start": "2020-04-05T10:30:00",
      "t_end": "2020-04-05T11:00:00",
      "link": ""
    },
    {
      "id": 382558,
      "lat": 32.1818416,
      "lon": 34.8698910000001,
      "label": "ויקטורי - רעננה",
      "text": "",
      "stayTimes": "19:00 - 20:00",
      "t_start": "2020-04-05T17:00:00",
      "t_end": "2020-04-05T18:00:00",
      "link": ""
    },
    {
      "id": 382559,
      "lat": 31.7390859130001,
      "lon": 34.981738953,
      "label": "מכולת רחוב הנורית - בית שמש",
      "text": "",
      "stayTimes": "10:00 - 10:30",
      "t_start": "2020-04-03T08:00:00",
      "t_end": "2020-04-03T08:30:00",
      "link": ""
    },
    {
      "id": 382560,
      "lat": 31.739338,
      "lon": 34.9829987000001,
      "label": "סופר \"הצלחה\" - בית שמש",
      "text": "",
      "stayTimes": "11:00 - 11:30",
      "t_start": "2020-04-03T09:00:00",
      "t_end": "2020-04-03T09:30:00",
      "link": ""
    },
    {
      "id": 382561,
      "lat": 32.0909845570001,
      "lon": 34.833674724,
      "label": "מכלת - בני ברק",
      "text": "",
      "stayTimes": "09:00 - 10:00",
      "t_start": "2020-03-31T07:00:00",
      "t_end": "2020-03-31T08:00:00",
      "link": ""
    },
    {
      "id": 382562,
      "lat": 32.7791922000001,
      "lon": 35.5029054,
      "label": "סופר מרקט יוחננוף - טבריה",
      "text": "",
      "stayTimes": "06:00 - 17:00",
      "t_start": "2020-03-31T04:00:00",
      "t_end": "2020-03-31T15:00:00",
      "link": ""
    },
    {
      "id": 382563,
      "lat": 32.7791922000001,
      "lon": 35.5029054,
      "label": "סופר מרקט יוחננוף - טבריה",
      "text": "",
      "stayTimes": "06:00 - 17:00",
      "t_start": "2020-04-01T04:00:00",
      "t_end": "2020-04-01T15:00:00",
      "link": ""
    },
    {
      "id": 382564,
      "lat": 32.7791922000001,
      "lon": 35.5029054,
      "label": "סופר מרקט יוחננוף - טבריה",
      "text": "",
      "stayTimes": "06:00 - 17:00",
      "t_start": "2020-04-02T04:00:00",
      "t_end": "2020-04-02T15:00:00",
      "link": ""
    },
    {
      "id": 382565,
      "lat": 31.6611049270001,
      "lon": 34.589126434,
      "label": "סופר פארם קניון חוצות - אשקלון",
      "text": "",
      "stayTimes": "10:00 - 10:30",
      "t_start": "2020-04-03T08:00:00",
      "t_end": "2020-04-03T08:30:00",
      "link": ""
    },
    {
      "id": 382566,
      "lat": 31.6910123000001,
      "lon": 34.5748005,
      "label": "קופת חולים היובל כללית - אשקלון",
      "text": "",
      "stayTimes": "08:30 - 09:00",
      "t_start": "2020-03-31T06:30:00",
      "t_end": "2020-03-31T07:00:00",
      "link": ""
    },
    {
      "id": 382567,
      "lat": 32.079161442,
      "lon": 34.8384144680001,
      "label": "יש חסד - בני ברק",
      "text": "",
      "stayTimes": "12:00 - 14:00",
      "t_start": "2020-04-02T10:00:00",
      "t_end": "2020-04-02T12:00:00",
      "link": ""
    },
    {
      "id": 382568,
      "lat": 32.0914802,
      "lon": 34.8858244,
      "label": "סופר \"ויקטורי\" - פתח תקווה",
      "text": "",
      "stayTimes": "21:00 - 21:40",
      "t_start": "2020-04-02T19:00:00",
      "t_end": "2020-04-02T19:40:00",
      "link": ""
    },
    {
      "id": 382569,
      "lat": 32.1058370000001,
      "lon": 34.8923941,
      "label": "סופר \"אושר עד\" - פתח תקווה",
      "text": "",
      "stayTimes": "14:00 - 15:00",
      "t_start": "2020-04-05T12:00:00",
      "t_end": "2020-04-05T13:00:00",
      "link": ""
    },
    {
      "id": 382570,
      "lat": 32.5734600420001,
      "lon": 34.953848388,
      "label": "בנק הפועלים - זכרון יעקב",
      "text": "",
      "stayTimes": "21:00 - 21:30",
      "t_start": "2020-03-31T19:00:00",
      "t_end": "2020-03-31T19:30:00",
      "link": ""
    },
    {
      "id": 382571,
      "lat": 32.5744528000001,
      "lon": 34.9573079,
      "label": "10 TO 10 - זכרון יעקב",
      "text": "",
      "stayTimes": "16:00 - 17:00",
      "t_start": "2020-04-01T14:00:00",
      "t_end": "2020-04-01T15:00:00",
      "link": ""
    },
    {
      "id": 382572,
      "lat": 32.5669928,
      "lon": 34.9636553,
      "label": "שופר סל אקספרס - זכרון יעקב",
      "text": "",
      "stayTimes": "14:00 - 15:00",
      "t_start": "2020-03-31T12:00:00",
      "t_end": "2020-03-31T13:00:00",
      "link": ""
    },
    {
      "id": 382573,
      "lat": 32.055586707,
      "lon": 34.8633571340001,
      "label": "קופת חולים כללית - קרית אונו",
      "text": "",
      "stayTimes": "07:30 - 13:00",
      "t_start": "2020-04-01T05:30:00",
      "t_end": "2020-04-01T11:00:00",
      "link": ""
    },
    {
      "id": 382574,
      "lat": 32.0779937,
      "lon": 34.8285547,
      "label": "סופר \"בני תורה\" - בני ברק",
      "text": "",
      "stayTimes": "21:00 - 21:30",
      "t_start": "2020-04-02T19:00:00",
      "t_end": "2020-04-02T19:30:00",
      "link": ""
    },
    {
      "id": 382575,
      "lat": 32.0788934,
      "lon": 34.8407025000001,
      "label": "סופר \"יש חסד\" - בני ברק",
      "text": "",
      "stayTimes": "10:00 - 13:00",
      "t_start": "2020-04-02T08:00:00",
      "t_end": "2020-04-02T11:00:00",
      "link": ""
    },
    {
      "id": 382576,
      "lat": 32.1028236000001,
      "lon": 34.8361701000001,
      "label": "שופרסל דיל - בני ברק",
      "text": "",
      "stayTimes": "17:00 - 17:30",
      "t_start": "2020-03-31T15:00:00",
      "t_end": "2020-03-31T15:30:00",
      "link": ""
    },
    {
      "id": 382577,
      "lat": 31.419078719,
      "lon": 34.5959949430001,
      "label": "מסעדת טעם לשבח - שדרות",
      "text": "",
      "stayTimes": "08:00 - 08:30",
      "t_start": "2020-04-02T06:00:00",
      "t_end": "2020-04-02T06:30:00",
      "link": ""
    },
    {
      "id": 382578,
      "lat": 32.0555648280001,
      "lon": 34.86339502,
      "label": "קופת חולים כללית - קרית אונו",
      "text": "",
      "stayTimes": "07:30 - 14:00",
      "t_start": "2020-04-02T05:30:00",
      "t_end": "2020-04-02T12:00:00",
      "link": ""
    },
    {
      "id": 382579,
      "lat": 32.0751450000001,
      "lon": 34.854613,
      "label": "סופר חביב - גבעת שמואל",
      "text": "",
      "stayTimes": "09:00 - 09:30",
      "t_start": "2020-04-03T07:00:00",
      "t_end": "2020-04-03T07:30:00",
      "link": ""
    },
    {
      "id": 382580,
      "lat": 32.0754956430001,
      "lon": 34.8548399530001,
      "label": "על המשקל - גבעת שמואל",
      "text": "",
      "stayTimes": "09:30 - 09:45",
      "t_start": "2020-04-03T07:30:00",
      "t_end": "2020-04-03T07:45:00",
      "link": ""
    },
    {
      "id": 382581,
      "lat": 32.0887443710001,
      "lon": 34.826628558,
      "label": "נתיב החסד - בני ברק",
      "text": "",
      "stayTimes": "08:00 - 10:00",
      "t_start": "2020-03-31T06:00:00",
      "t_end": "2020-03-31T08:00:00",
      "link": ""
    },
    {
      "id": 382582,
      "lat": 32.0773136,
      "lon": 34.8423142,
      "label": "שוק העיר - בני ברק",
      "text": "",
      "stayTimes": "20:30 - 22:00",
      "t_start": "2020-04-02T18:30:00",
      "t_end": "2020-04-02T20:00:00",
      "link": ""
    },
    {
      "id": 382583,
      "lat": 31.930354962,
      "lon": 34.798596252,
      "label": "סופרפארם - נס ציונה",
      "text": "",
      "stayTimes": "08:55 - 09:05",
      "t_start": "2020-04-01T06:55:00",
      "t_end": "2020-04-01T07:05:00",
      "link": ""
    },
    {
      "id": 382584,
      "lat": 32.4407945040001,
      "lon": 34.894924458,
      "label": "יוחננוף סופר מרקט - חדרה",
      "text": "",
      "stayTimes": "10:00 - 12:00",
      "t_start": "2020-04-03T08:00:00",
      "t_end": "2020-04-03T10:00:00",
      "link": ""
    },
    {
      "id": 382585,
      "lat": 31.922140217,
      "lon": 34.7937006000001,
      "label": "סופרפארם ישפרו סנטר - נס ציונה",
      "text": "",
      "stayTimes": "18:25 - 18:45",
      "t_start": "2020-04-02T16:25:00",
      "t_end": "2020-04-02T16:45:00",
      "link": ""
    },
    {
      "id": 382586,
      "lat": 32.0988918520001,
      "lon": 34.829724405,
      "label": "אושר עד - בני ברק",
      "text": "",
      "stayTimes": "13:00 - 14:00",
      "t_start": "2020-03-31T11:00:00",
      "t_end": "2020-03-31T12:00:00",
      "link": ""
    },
    {
      "id": 382587,
      "lat": 32.0751450000001,
      "lon": 34.854613,
      "label": "סופר חביב - גבעת שמואל",
      "text": "",
      "stayTimes": "09:00 - 09:30",
      "t_start": "2020-04-03T07:00:00",
      "t_end": "2020-04-03T07:30:00",
      "link": ""
    },
    {
      "id": 382588,
      "lat": 31.2543038860001,
      "lon": 34.817905528,
      "label": "סופר מחסני השוק - באר שבע",
      "text": "",
      "stayTimes": "16:00 - 21:00",
      "t_start": "2020-04-01T14:00:00",
      "t_end": "2020-04-01T19:00:00",
      "link": ""
    },
    {
      "id": 382589,
      "lat": 32.1722288730001,
      "lon": 34.9248283950001,
      "label": "מרכז לסר- ביצים - כפר סבא",
      "text": "",
      "stayTimes": "15:00 - 16:00",
      "t_start": "2020-04-06T13:00:00",
      "t_end": "2020-04-06T14:00:00",
      "link": ""
    },
    {
      "id": 382590,
      "lat": 32.0541667000001,
      "lon": 34.9638889,
      "label": "נתיב החסד - אלעד",
      "text": "",
      "stayTimes": "15:00 - 15:30",
      "t_start": "2020-04-05T13:00:00",
      "t_end": "2020-04-05T13:30:00",
      "link": ""
    },
    {
      "id": 382591,
      "lat": 32.0937264,
      "lon": 34.8172910000001,
      "label": "סופר פאם קניון אילון - רמת גן",
      "text": "",
      "stayTimes": "17:30 - 18:00",
      "t_start": "2020-04-01T15:30:00",
      "t_end": "2020-04-01T16:00:00",
      "link": ""
    },
    {
      "id": 382592,
      "lat": 31.8701542580001,
      "lon": 34.821657896,
      "label": "יוחננוף בילו סנטר - קרית עקרון",
      "text": "",
      "stayTimes": "15:00 - 16:20",
      "t_start": "2020-04-01T13:00:00",
      "t_end": "2020-04-01T14:20:00",
      "link": ""
    },
    {
      "id": 382593,
      "lat": 31.9007017000001,
      "lon": 34.8146673000001,
      "label": "מלש\"ח רחובות - רחובות",
      "text": "",
      "stayTimes": "08:00 - 13:00",
      "t_start": "2020-03-31T06:00:00",
      "t_end": "2020-03-31T11:00:00",
      "link": ""
    },
    {
      "id": 382594,
      "lat": 32.09014696,
      "lon": 34.834895751,
      "label": "ברכול יש חסד - בני ברק",
      "text": "",
      "stayTimes": "17:00 - 19:00",
      "t_start": "2020-03-31T15:00:00",
      "t_end": "2020-03-31T17:00:00",
      "link": ""
    },
    {
      "id": 382595,
      "lat": 32.0504166260001,
      "lon": 34.9503998230001,
      "label": "כולל סנטר - אלעד",
      "text": "",
      "stayTimes": "10:45 - 11:30",
      "t_start": "2020-04-05T08:45:00",
      "t_end": "2020-04-05T09:30:00",
      "link": ""
    },
    {
      "id": 382596,
      "lat": 32.7791922000001,
      "lon": 35.5029054,
      "label": "סופר מרקט יוחננוף - טבריה",
      "text": "",
      "stayTimes": "06:00 - 14:00",
      "t_start": "2020-04-02T04:00:00",
      "t_end": "2020-04-02T12:00:00",
      "link": ""
    },
    {
      "id": 382597,
      "lat": 32.7791922000001,
      "lon": 35.5029054,
      "label": "סופר מרקט יוחננוף - טבריה",
      "text": "",
      "stayTimes": "07:00 - 13:00",
      "t_start": "2020-04-05T05:00:00",
      "t_end": "2020-04-05T11:00:00",
      "link": ""
    },
    {
      "id": 382598,
      "lat": 32.7791922000001,
      "lon": 35.5029054,
      "label": "סופר מרקט יוחננוף - טבריה",
      "text": "",
      "stayTimes": "06:00 - 14:00",
      "t_start": "2020-04-01T04:00:00",
      "t_end": "2020-04-01T12:00:00",
      "link": ""
    },
    {
      "id": 382599,
      "lat": 31.9485812,
      "lon": 34.7889725000001,
      "label": "מרכז גריאטרי ראש\"צ - ראשון לציון",
      "text": "",
      "stayTimes": "08:00 - 08:30",
      "t_start": "2020-04-05T06:00:00",
      "t_end": "2020-04-05T06:30:00",
      "link": ""
    },
    {
      "id": 382600,
      "lat": 32.0552343410001,
      "lon": 34.960695565,
      "label": "שוק מהדרין - אלעד",
      "text": "",
      "stayTimes": "15:25 - 16:00",
      "t_start": "2020-04-01T13:25:00",
      "t_end": "2020-04-01T14:00:00",
      "link": ""
    },
    {
      "id": 382601,
      "lat": 31.9628202980001,
      "lon": 34.913545292,
      "label": "מכולת - גינתון",
      "text": "",
      "stayTimes": "13:15 - 13:30",
      "t_start": "2020-04-02T11:15:00",
      "t_end": "2020-04-02T11:30:00",
      "link": ""
    },
    {
      "id": 382602,
      "lat": 32.1079332,
      "lon": 34.9551265000001,
      "label": "רמי לוי - ראש העין",
      "text": "",
      "stayTimes": "14:30 - 15:30",
      "t_start": "2020-03-31T12:30:00",
      "t_end": "2020-03-31T13:30:00",
      "link": ""
    },
    {
      "id": 382603,
      "lat": 32.0908013000001,
      "lon": 34.8389312,
      "label": "יש - בני ברק",
      "text": "",
      "stayTimes": "22:00 - 22:30",
      "t_start": "2020-03-31T20:00:00",
      "t_end": "2020-03-31T20:30:00",
      "link": ""
    },
    {
      "id": 382604,
      "lat": 32.0827834,
      "lon": 34.8426542,
      "label": "צרכניית אחיעזר - בני ברק",
      "text": "",
      "stayTimes": "12:00 - 13:00",
      "t_start": "2020-04-02T10:00:00",
      "t_end": "2020-04-02T11:00:00",
      "link": ""
    },
    {
      "id": 382605,
      "lat": 31.6760700130001,
      "lon": 34.575832205,
      "label": "ויקטורי - אשקלון",
      "text": "",
      "stayTimes": "16:00 - 17:00",
      "t_start": "2020-04-01T14:00:00",
      "t_end": "2020-04-01T15:00:00",
      "link": ""
    },
    {
      "id": 382606,
      "lat": 32.0525832270001,
      "lon": 34.9512222270001,
      "label": "סופר \"יש חסד\" - אלעד",
      "text": "",
      "stayTimes": "11:00 - 12:20",
      "t_start": "2020-04-05T09:00:00",
      "t_end": "2020-04-05T10:20:00",
      "link": ""
    },
    {
      "id": 382607,
      "lat": 32.0480153020001,
      "lon": 34.9546538440001,
      "label": "סופר \"שוק מהדרין\" - אלעד",
      "text": "",
      "stayTimes": "21:00 - 21:30",
      "t_start": "2020-04-05T19:00:00",
      "t_end": "2020-04-05T19:30:00",
      "link": ""
    },
    {
      "id": 382608,
      "lat": 31.8030403000001,
      "lon": 35.2161090000001,
      "label": "מעון אורים - ירושלים",
      "text": "",
      "stayTimes": "08:00 - 08:30",
      "t_start": "2020-04-05T06:00:00",
      "t_end": "2020-04-05T06:30:00",
      "link": ""
    },
    {
      "id": 382609,
      "lat": 32.0675613000001,
      "lon": 34.7946249,
      "label": "סופר \"אושר עד\" - תל אביב - יפו",
      "text": "",
      "stayTimes": "12:30 - 14:00",
      "t_start": "2020-04-05T10:30:00",
      "t_end": "2020-04-05T12:00:00",
      "link": ""
    },
    {
      "id": 382610,
      "lat": 32.0899773560001,
      "lon": 34.8385067240001,
      "label": "חנות ירקות \"שיווק ישיר\" - בני ברק",
      "text": "",
      "stayTimes": "13:00 - 14:00",
      "t_start": "2020-04-01T11:00:00",
      "t_end": "2020-04-01T12:00:00",
      "link": ""
    },
    {
      "id": 382611,
      "lat": 32.0860612750001,
      "lon": 34.8307003580001,
      "label": "רבי עקיבא 86, בני ברק",
      "text": "",
      "stayTimes": "13:30 - 14:30",
      "t_start": "2020-03-31T11:30:00",
      "t_end": "2020-03-31T12:30:00",
      "link": ""
    },
    {
      "id": 382612,
      "lat": 31.9094111000001,
      "lon": 34.8054978000001,
      "label": "סופר פארם שער רחובות - רחובות",
      "text": "",
      "stayTimes": "21:00 - 22:00",
      "t_start": "2020-04-03T19:00:00",
      "t_end": "2020-04-03T20:00:00",
      "link": ""
    },
    {
      "id": 382613,
      "lat": 31.3103803000001,
      "lon": 34.629463,
      "label": "מפעל שניב תעשיות נייר - אופקים",
      "text": "",
      "stayTimes": "07:30 - 12:00",
      "t_start": "2020-04-04T05:30:00",
      "t_end": "2020-04-04T10:00:00",
      "link": ""
    },
    {
      "id": 382614,
      "lat": 31.3103803000001,
      "lon": 34.629463,
      "label": "שניב תעשיית נייר - אופקים",
      "text": "",
      "stayTimes": "08:00 - 12:30",
      "t_start": "2020-04-01T06:00:00",
      "t_end": "2020-04-01T10:30:00",
      "link": ""
    },
    {
      "id": 382615,
      "lat": 31.4173985,
      "lon": 34.6148693000001,
      "label": "סופר רמי לוי השקמה - נתיבות",
      "text": "",
      "stayTimes": "18:00 - 20:00",
      "t_start": "2020-03-31T16:00:00",
      "t_end": "2020-03-31T18:00:00",
      "link": ""
    },
    {
      "id": 382616,
      "lat": 31.416920222,
      "lon": 34.5902385630001,
      "label": "סופר כהן אזור התעשיה - נתיבות",
      "text": "",
      "stayTimes": "16:00 - 18:00",
      "t_start": "2020-04-05T14:00:00",
      "t_end": "2020-04-05T16:00:00",
      "link": ""
    },
    {
      "id": 382617,
      "lat": 31.3945686060001,
      "lon": 34.77711365,
      "label": "נעים מרקט - רהט",
      "text": "",
      "stayTimes": "08:00 - 08:30",
      "t_start": "2020-04-04T06:00:00",
      "t_end": "2020-04-04T06:30:00",
      "link": ""
    },
    {
      "id": 382618,
      "lat": 32.0827834,
      "lon": 34.8426542,
      "label": "צרכניית אחיעזר - בני ברק",
      "text": "",
      "stayTimes": "19:00 - 21:00",
      "t_start": "2020-04-02T17:00:00",
      "t_end": "2020-04-02T19:00:00",
      "link": ""
    },
    {
      "id": 382619,
      "lat": 32.0827834,
      "lon": 34.8426542,
      "label": "צרכניית אחיעזר - בני ברק",
      "text": "",
      "stayTimes": "09:30 - 12:30",
      "t_start": "2020-04-03T07:30:00",
      "t_end": "2020-04-03T10:30:00",
      "link": ""
    },
    {
      "id": 382620,
      "lat": 32.6750960000001,
      "lon": 35.2498850000001,
      "label": "בית מרקחת קופ\"ח נוף העמק - מגדל העמק",
      "text": "",
      "stayTimes": "10:00 - 11:00",
      "t_start": "2020-04-04T08:00:00",
      "t_end": "2020-04-04T09:00:00",
      "link": ""
    },
    {
      "id": 382621,
      "lat": 32.6821624,
      "lon": 35.2773957000001,
      "label": "בית מרקחת  של קופ\"ח כללית - יפיע",
      "text": "",
      "stayTimes": "10:00 - 10:30",
      "t_start": "2020-04-05T08:00:00",
      "t_end": "2020-04-05T08:30:00",
      "link": ""
    },
    {
      "id": 382622,
      "lat": 32.1058370000001,
      "lon": 34.8923941,
      "label": "אושר עד - פתח תקווה",
      "text": "",
      "stayTimes": "14:00 - 17:30",
      "t_start": "2020-03-31T12:00:00",
      "t_end": "2020-03-31T15:30:00",
      "link": ""
    },
    {
      "id": 382623,
      "lat": 32.0100150000001,
      "lon": 34.8097050000001,
      "label": "סניף חצי חינם - חולון",
      "text": "",
      "stayTimes": "11:30 - 13:00",
      "t_start": "2020-04-02T09:30:00",
      "t_end": "2020-04-02T11:00:00",
      "link": ""
    },
    {
      "id": 382624,
      "lat": 32.7791922000001,
      "lon": 35.5029054,
      "label": "סופר מרקט יוחננוף - טבריה",
      "text": "",
      "stayTimes": "00:00 - 06:00",
      "t_start": "2020-04-02T22:00:00",
      "t_end": "2020-04-03T04:00:00",
      "link": ""
    },
    {
      "id": 382625,
      "lat": 32.7791922000001,
      "lon": 35.5029054,
      "label": "סופר מרקט יוחננוף - טבריה",
      "text": "",
      "stayTimes": "07:00 - 15:00",
      "t_start": "2020-03-31T05:00:00",
      "t_end": "2020-03-31T13:00:00",
      "link": ""
    },
    {
      "id": 382626,
      "lat": 32.451313,
      "lon": 34.8957780000001,
      "label": "רנטגן הלל יפה - חדרה",
      "text": "",
      "stayTimes": "14:30 - 22:30",
      "t_start": "2020-04-08T12:30:00",
      "t_end": "2020-04-08T20:30:00",
      "link": ""
    },
    {
      "id": 382627,
      "lat": 31.6653535520001,
      "lon": 34.5629569230001,
      "label": "בית מרקחת - אשקלון",
      "text": "",
      "stayTimes": "08:00 - 08:30",
      "t_start": "2020-03-31T06:00:00",
      "t_end": "2020-03-31T06:30:00",
      "link": ""
    },
    {
      "id": 382628,
      "lat": 31.7553799,
      "lon": 35.2236139,
      "label": "טרם תלפיות - ירושלים",
      "text": "",
      "stayTimes": "19:00 - 20:00",
      "t_start": "2020-04-04T17:00:00",
      "t_end": "2020-04-04T18:00:00",
      "link": ""
    },
    {
      "id": 382629,
      "lat": 32.0751450000001,
      "lon": 34.854613,
      "label": "סופר \"חביב\" - גבעת שמואל",
      "text": "",
      "stayTimes": "14:00 - 21:00",
      "t_start": "2020-03-31T12:00:00",
      "t_end": "2020-03-31T19:00:00",
      "link": ""
    },
    {
      "id": 382630,
      "lat": 32.052599582,
      "lon": 34.9512085910001,
      "label": "סופר \"יש חסד\" - אלעד",
      "text": "",
      "stayTimes": "12:30 - 13:30",
      "t_start": "2020-04-02T10:30:00",
      "t_end": "2020-04-02T11:30:00",
      "link": ""
    },
    {
      "id": 382631,
      "lat": 32.0306095,
      "lon": 34.764846,
      "label": "מקווה עלק\"א - חולון",
      "text": "",
      "stayTimes": "20:30 - 21:00",
      "t_start": "2020-03-31T18:30:00",
      "t_end": "2020-03-31T19:00:00",
      "link": ""
    },
    {
      "id": 382632,
      "lat": 31.786811275,
      "lon": 35.2099441140001,
      "label": "קופת חולים מאוחדת - ירושלים",
      "text": "",
      "stayTimes": "21:00 - 23:00",
      "t_start": "2020-03-31T19:00:00",
      "t_end": "2020-03-31T21:00:00",
      "link": ""
    },
    {
      "id": 382633,
      "lat": 32.4623320160001,
      "lon": 35.046626772,
      "label": "שופרסל אקספרס - חריש",
      "text": "",
      "stayTimes": "19:30 - 20:00",
      "t_start": "2020-04-07T17:30:00",
      "t_end": "2020-04-07T18:00:00",
      "link": ""
    },
    {
      "id": 382634,
      "lat": 31.6109624000001,
      "lon": 34.7546495,
      "label": "ברכת אלעזר - קרית גת",
      "text": "",
      "stayTimes": "12:30 - 14:30",
      "t_start": "2020-04-03T10:30:00",
      "t_end": "2020-04-03T12:30:00",
      "link": ""
    },
    {
      "id": 382635,
      "lat": 32.1778493,
      "lon": 34.8031954000001,
      "label": "מדיקל סנטר - הרצליה",
      "text": "",
      "stayTimes": "07:00 - 14:00",
      "t_start": "2020-03-31T05:00:00",
      "t_end": "2020-03-31T12:00:00",
      "link": ""
    },
    {
      "id": 382636,
      "lat": 31.8114754490001,
      "lon": 35.21739906,
      "label": "יש חסד - ירושלים",
      "text": "",
      "stayTimes": "09:00 - 11:00",
      "t_start": "2020-03-31T07:00:00",
      "t_end": "2020-03-31T09:00:00",
      "link": ""
    },
    {
      "id": 382637,
      "lat": 31.7970699000001,
      "lon": 34.6486206000001,
      "label": "שוק העיר - אשדוד",
      "text": "",
      "stayTimes": "08:45 - 16:00",
      "t_start": "2020-04-01T06:45:00",
      "t_end": "2020-04-01T14:00:00",
      "link": ""
    },
    {
      "id": 382638,
      "lat": 31.7970699000001,
      "lon": 34.6486206000001,
      "label": "שוק העיר - אשדוד",
      "text": "",
      "stayTimes": "16:00 - 19:30",
      "t_start": "2020-04-02T14:00:00",
      "t_end": "2020-04-02T17:30:00",
      "link": ""
    },
    {
      "id": 382639,
      "lat": 31.7617113000001,
      "lon": 35.1977669,
      "label": "מרפאת מאוחדת בגבעת מרדכי - ירושלים",
      "text": "",
      "stayTimes": "10:00 - 12:00",
      "t_start": "2020-04-01T08:00:00",
      "t_end": "2020-04-01T10:00:00",
      "link": ""
    },
    {
      "id": 382640,
      "lat": 31.7617156000001,
      "lon": 35.1977709000001,
      "label": "בית מרקחת מאוחדת בגבעת מרדכי - ירושלים",
      "text": "",
      "stayTimes": "10:00 - 12:00",
      "t_start": "2020-04-01T08:00:00",
      "t_end": "2020-04-01T10:00:00",
      "link": ""
    },
    {
      "id": 382641,
      "lat": 32.0796082150001,
      "lon": 34.8340191250001,
      "label": "סמינר גור - בני ברק",
      "text": "",
      "stayTimes": "12:00 - 12:30",
      "t_start": "2020-03-31T10:00:00",
      "t_end": "2020-03-31T10:30:00",
      "link": ""
    },
    {
      "id": 382642,
      "lat": 31.856344994,
      "lon": 35.2198147080001,
      "label": "גלאט עוף - ירושלים",
      "text": "",
      "stayTimes": "08:00 - 08:30",
      "t_start": "2020-04-01T06:00:00",
      "t_end": "2020-04-01T06:30:00",
      "link": ""
    },
    {
      "id": 382643,
      "lat": 32.0327739410001,
      "lon": 34.8510602710001,
      "label": "סופר יוחננוף - אור יהודה",
      "text": "",
      "stayTimes": "18:00 - 22:00",
      "t_start": "2020-03-31T16:00:00",
      "t_end": "2020-03-31T20:00:00",
      "link": ""
    },
    {
      "id": 382644,
      "lat": 32.032746655,
      "lon": 34.851054907,
      "label": "סופר יוחננוף - אור יהודה",
      "text": "",
      "stayTimes": "13:30 - 15:30",
      "t_start": "2020-04-01T11:30:00",
      "t_end": "2020-04-01T13:30:00",
      "link": ""
    },
    {
      "id": 382645,
      "lat": 31.6179695000001,
      "lon": 34.7537336,
      "label": "סניף קופ\"ח מאוחדת - קרית גת",
      "text": "",
      "stayTimes": "11:40 - 12:00",
      "t_start": "2020-03-31T09:40:00",
      "t_end": "2020-03-31T10:00:00",
      "link": ""
    },
    {
      "id": 382646,
      "lat": 31.2567036,
      "lon": 35.2087649000001,
      "label": "חנות \"אדלר דגים\" - ערד",
      "text": "",
      "stayTimes": "12:00 - 12:10",
      "t_start": "2020-04-03T10:00:00",
      "t_end": "2020-04-03T10:10:00",
      "link": ""
    },
    {
      "id": 382647,
      "lat": 31.2563912970001,
      "lon": 35.20824499,
      "label": "חנות ירקות\" ברכת הדה\" - ערד",
      "text": "",
      "stayTimes": "12:10 - 12:40",
      "t_start": "2020-04-03T10:10:00",
      "t_end": "2020-04-03T10:40:00",
      "link": ""
    },
    {
      "id": 382648,
      "lat": 32.0468299,
      "lon": 34.9085715000001,
      "label": "יש חסד - בארות יצחק",
      "text": "",
      "stayTimes": "20:00 - 20:30",
      "t_start": "2020-03-31T18:00:00",
      "t_end": "2020-03-31T18:30:00",
      "link": ""
    },
    {
      "id": 382649,
      "lat": 32.083679573,
      "lon": 34.827650249,
      "label": "עריית בני ברק - בני ברק",
      "text": "",
      "stayTimes": "08:00 - 11:00",
      "t_start": "2020-04-02T06:00:00",
      "t_end": "2020-04-02T09:00:00",
      "link": ""
    },
    {
      "id": 382650,
      "lat": 32.0862991000001,
      "lon": 34.8348894000001,
      "label": "רשת נתיב החסד - בני ברק",
      "text": "",
      "stayTimes": "07:00 - 09:00",
      "t_start": "2020-04-07T05:00:00",
      "t_end": "2020-04-07T07:00:00",
      "link": ""
    },
    {
      "id": 382651,
      "lat": 32.0891573540001,
      "lon": 34.8440267920001,
      "label": "רשת נתיב החסד - בני ברק",
      "text": "",
      "stayTimes": "12:30 - 13:00",
      "t_start": "2020-04-07T10:30:00",
      "t_end": "2020-04-07T11:00:00",
      "link": ""
    },
    {
      "id": 382652,
      "lat": 32.0796249000001,
      "lon": 34.8411712000001,
      "label": "ברכול - בני ברק",
      "text": "",
      "stayTimes": "11:00 - 12:00",
      "t_start": "2020-04-07T09:00:00",
      "t_end": "2020-04-07T10:00:00",
      "link": ""
    },
    {
      "id": 382653,
      "lat": 32.086883636,
      "lon": 34.826847243,
      "label": "רשת נתיב החסד - בני ברק",
      "text": "",
      "stayTimes": "09:30 - 10:30",
      "t_start": "2020-04-07T07:30:00",
      "t_end": "2020-04-07T08:30:00",
      "link": ""
    },
    {
      "id": 382654,
      "lat": 31.7199276870001,
      "lon": 35.0896630180001,
      "label": "for home - צור הדסה",
      "text": "",
      "stayTimes": "17:00 - 18:00",
      "t_start": "2020-04-02T15:00:00",
      "t_end": "2020-04-02T16:00:00",
      "link": ""
    },
    {
      "id": 382655,
      "lat": 32.0692707000001,
      "lon": 34.8386134,
      "label": "ברכול - רמת גן",
      "text": "",
      "stayTimes": "09:00 - 12:30",
      "t_start": "2020-04-06T07:00:00",
      "t_end": "2020-04-06T10:30:00",
      "link": ""
    },
    {
      "id": 382656,
      "lat": 31.7970699000001,
      "lon": 34.6486206000001,
      "label": "שוק העיר - אשדוד",
      "text": "",
      "stayTimes": "08:45 - 12:20",
      "t_start": "2020-03-31T06:45:00",
      "t_end": "2020-03-31T10:20:00",
      "link": ""
    },
    {
      "id": 382657,
      "lat": 31.7970699000001,
      "lon": 34.6486206000001,
      "label": "שוק העיר - אשדוד",
      "text": "",
      "stayTimes": "08:45 - 16:00",
      "t_start": "2020-04-01T06:45:00",
      "t_end": "2020-04-01T14:00:00",
      "link": ""
    },
    {
      "id": 382658,
      "lat": 32.090804238,
      "lon": 34.8389328600001,
      "label": "יש חסד - בני ברק",
      "text": "",
      "stayTimes": "11:30 - 12:00",
      "t_start": "2020-04-03T09:30:00",
      "t_end": "2020-04-03T10:00:00",
      "link": ""
    },
    {
      "id": 382659,
      "lat": 32.0859644000001,
      "lon": 34.8315077,
      "label": "מעיין 2000 - בני ברק",
      "text": "",
      "stayTimes": "10:30 - 12:00",
      "t_start": "2020-04-02T08:30:00",
      "t_end": "2020-04-02T10:00:00",
      "link": ""
    },
    {
      "id": 382660,
      "lat": 32.0905592940001,
      "lon": 34.8345385960001,
      "label": "מעיין 2000 - בני ברק",
      "text": "",
      "stayTimes": "08:30 - 11:00",
      "t_start": "2020-04-03T06:30:00",
      "t_end": "2020-04-03T09:00:00",
      "link": ""
    },
    {
      "id": 382661,
      "lat": 32.0751126710001,
      "lon": 34.838131892,
      "label": "נתיב החסד - בני ברק",
      "text": "",
      "stayTimes": "09:00 - 10:00",
      "t_start": "2020-04-05T07:00:00",
      "t_end": "2020-04-05T08:00:00",
      "link": ""
    },
    {
      "id": 382662,
      "lat": 32.1028236000001,
      "lon": 34.8361701000001,
      "label": "שופרסל דיל - בני ברק",
      "text": "",
      "stayTimes": "21:00 - 22:00",
      "t_start": "2020-04-04T19:00:00",
      "t_end": "2020-04-04T20:00:00",
      "link": ""
    },
    {
      "id": 382663,
      "lat": 32.1018083000001,
      "lon": 34.8298623000001,
      "label": "רמי לוי - בני ברק",
      "text": "",
      "stayTimes": "18:00 - 19:00",
      "t_start": "2020-04-06T16:00:00",
      "t_end": "2020-04-06T17:00:00",
      "link": ""
    },
    {
      "id": 382664,
      "lat": 32.098441286,
      "lon": 34.8242140410001,
      "label": "ויקטורי בקניון איילון - רמת גן",
      "text": "",
      "stayTimes": "19:00 - 20:00",
      "t_start": "2020-04-06T17:00:00",
      "t_end": "2020-04-06T18:00:00",
      "link": ""
    },
    {
      "id": 382665,
      "lat": 32.0467100000001,
      "lon": 34.8428520000001,
      "label": "מתחם קורונה תל השומר - רמת גן",
      "text": "",
      "stayTimes": "15:00 - 18:00",
      "t_start": "2020-04-02T13:00:00",
      "t_end": "2020-04-02T16:00:00",
      "link": ""
    },
    {
      "id": 382666,
      "lat": 31.987133865,
      "lon": 34.765409902,
      "label": "שופרסל - ראשון לציון",
      "text": "",
      "stayTimes": "06:00 - 15:00",
      "t_start": "2020-03-31T04:00:00",
      "t_end": "2020-03-31T13:00:00",
      "link": ""
    },
    {
      "id": 382667,
      "lat": 31.987137402,
      "lon": 34.765414671,
      "label": "שופרסל - ראשון לציון",
      "text": "",
      "stayTimes": "06:00 - 15:00",
      "t_start": "2020-04-01T04:00:00",
      "t_end": "2020-04-01T13:00:00",
      "link": ""
    },
    {
      "id": 382668,
      "lat": 32.0905605450001,
      "lon": 34.8670575350001,
      "label": "בית חולים בלינסון - פתח תקווה",
      "text": "",
      "stayTimes": "07:45 - 12:15",
      "t_start": "2020-04-06T05:45:00",
      "t_end": "2020-04-06T10:15:00",
      "link": ""
    },
    {
      "id": 382669,
      "lat": 32.0885748740001,
      "lon": 34.889485597,
      "label": "קופת חולים לאומית - פתח תקווה",
      "text": "",
      "stayTimes": "08:00 - 08:20",
      "t_start": "2020-04-02T06:00:00",
      "t_end": "2020-04-02T06:20:00",
      "link": ""
    },
    {
      "id": 382670,
      "lat": 32.0885839650001,
      "lon": 34.889469504,
      "label": "קופת חולים לאומית - פתח תקווה",
      "text": "",
      "stayTimes": "08:00 - 08:20",
      "t_start": "2020-04-05T06:00:00",
      "t_end": "2020-04-05T06:20:00",
      "link": ""
    },
    {
      "id": 382671,
      "lat": 32.0801900000001,
      "lon": 34.8754429000001,
      "label": "טרם מוקד רפואה דחופה - פתח תקווה",
      "text": "",
      "stayTimes": "22:20 - 00:00",
      "t_start": "2020-04-03T20:20:00",
      "t_end": "2020-04-02T22:00:00",
      "link": ""
    },
    {
      "id": 382672,
      "lat": 32.0967519980001,
      "lon": 34.840960135,
      "label": "נתיב החסד - בני ברק",
      "text": "",
      "stayTimes": "12:00 - 14:30",
      "t_start": "2020-04-05T10:00:00",
      "t_end": "2020-04-05T12:30:00",
      "link": ""
    },
    {
      "id": 382673,
      "lat": 31.8881216,
      "lon": 34.8190833,
      "label": "סופר בר-כל - רחובות",
      "text": "",
      "stayTimes": "18:30 - 19:30",
      "t_start": "2020-03-31T16:30:00",
      "t_end": "2020-03-31T17:30:00",
      "link": ""
    },
    {
      "id": 382674,
      "lat": 32.0986354120001,
      "lon": 34.839776977,
      "label": "נתיב החסד - בני ברק",
      "text": "",
      "stayTimes": "14:30 - 16:30",
      "t_start": "2020-04-05T12:30:00",
      "t_end": "2020-04-05T14:30:00",
      "link": ""
    },
    {
      "id": 382675,
      "lat": 32.0974892090001,
      "lon": 34.836421236,
      "label": "נתיב החסד - בני ברק",
      "text": "",
      "stayTimes": "08:00 - 09:00",
      "t_start": "2020-04-05T06:00:00",
      "t_end": "2020-04-05T07:00:00",
      "link": ""
    },
    {
      "id": 382676,
      "lat": 32.1018083000001,
      "lon": 34.8298623000001,
      "label": "רמי לוי - בני ברק",
      "text": "",
      "stayTimes": "22:00 - 23:30",
      "t_start": "2020-04-04T20:00:00",
      "t_end": "2020-04-04T21:30:00",
      "link": ""
    },
    {
      "id": 382677,
      "lat": 31.8030403000001,
      "lon": 35.2161090000001,
      "label": "בית אבות שומרי חומות - ירושלים",
      "text": "",
      "stayTimes": "08:00 - 08:30",
      "t_start": "2020-04-03T06:00:00",
      "t_end": "2020-04-03T06:30:00",
      "link": ""
    },
    {
      "id": 382678,
      "lat": 31.9396899000001,
      "lon": 35.0389091000001,
      "label": "מאפיה הודיה - מודיעין עילית",
      "text": "",
      "stayTimes": "11:30 - 12:00",
      "t_start": "2020-03-31T09:30:00",
      "t_end": "2020-03-31T10:00:00",
      "link": ""
    },
    {
      "id": 382679,
      "lat": 32.7791804720001,
      "lon": 35.5029169950001,
      "label": "החרושת 10, טבריה",
      "text": "",
      "stayTimes": "15:00 - 17:00",
      "t_start": "2020-03-31T13:00:00",
      "t_end": "2020-03-31T15:00:00",
      "link": ""
    },
    {
      "id": 382680,
      "lat": 31.9397089340001,
      "lon": 35.038911462,
      "label": "מאפיית הודיה - מודיעין עילית",
      "text": "",
      "stayTimes": "18:30 - 08:45",
      "t_start": "2020-04-02T16:30:00",
      "t_end": "2020-04-02T06:45:00",
      "link": ""
    },
    {
      "id": 382681,
      "lat": 32.052559,
      "lon": 34.9512194000001,
      "label": "סופרמרקט יש חסד - מודיעין עילית",
      "text": "",
      "stayTimes": "14:30 - 14:45",
      "t_start": "2020-03-31T12:30:00",
      "t_end": "2020-03-31T12:45:00",
      "link": ""
    },
    {
      "id": 382682,
      "lat": 32.1655278000001,
      "lon": 34.8419696,
      "label": "קופת חולים מאוחדת - הרצליה",
      "text": "",
      "stayTimes": "13:30 - 14:00",
      "t_start": "2020-04-05T11:30:00",
      "t_end": "2020-04-05T12:00:00",
      "link": ""
    },
    {
      "id": 382683,
      "lat": 32.0827834,
      "lon": 34.8426542,
      "label": "צרכניה אחיעזר - בני ברק",
      "text": "",
      "stayTimes": "19:00 - 20:00",
      "t_start": "2020-04-05T17:00:00",
      "t_end": "2020-04-05T18:00:00",
      "link": ""
    },
    {
      "id": 382684,
      "lat": 31.9839168010001,
      "lon": 34.7689122560001,
      "label": "סופר רמי לוי מתחם G סינמה סיטי - ראשון לציון",
      "text": "",
      "stayTimes": "12:30 - 13:06",
      "t_start": "2020-04-06T10:30:00",
      "t_end": "2020-04-06T11:06:00",
      "link": ""
    },
    {
      "id": 382685,
      "lat": 31.8084006130001,
      "lon": 34.65008235,
      "label": "ישיבה מאירת שמועה - אשדוד",
      "text": "",
      "stayTimes": "08:00 - 19:00",
      "t_start": "2020-03-31T06:00:00",
      "t_end": "2020-03-31T17:00:00",
      "link": ""
    },
    {
      "id": 382686,
      "lat": 32.0833881,
      "lon": 34.8405592,
      "label": "קופ\"ח מכבי בני ברק רח\" קהנמן 64 - בני ברק",
      "text": "",
      "stayTimes": "17:40 - 18:10",
      "t_start": "2020-04-06T15:40:00",
      "t_end": "2020-04-06T16:10:00",
      "link": ""
    },
    {
      "id": 382687,
      "lat": 31.764983806,
      "lon": 35.1494208570001,
      "label": "מח' תינוקות בי\"ח הדסה - ירושלים",
      "text": "",
      "stayTimes": "07:00 - 14:00",
      "t_start": "2020-04-06T05:00:00",
      "t_end": "2020-04-06T12:00:00",
      "link": ""
    },
    {
      "id": 382688,
      "lat": 31.7649503000001,
      "lon": 35.1494106000001,
      "label": "מח' תינוקות בהדסה - ירושלים",
      "text": "",
      "stayTimes": "07:00 - 15:00",
      "t_start": "2020-04-02T05:00:00",
      "t_end": "2020-04-02T13:00:00",
      "link": ""
    },
    {
      "id": 382689,
      "lat": 31.7649503000001,
      "lon": 35.1494106000001,
      "label": "מח' תינוקות בהדסה - ירושלים",
      "text": "",
      "stayTimes": "07:00 - 15:00",
      "t_start": "2020-04-01T05:00:00",
      "t_end": "2020-04-01T13:00:00",
      "link": ""
    },
    {
      "id": 382690,
      "lat": 31.7868018410001,
      "lon": 35.2099549070001,
      "label": "מוקד ערב של קופת חולים מאוחדת - ירושלים",
      "text": "",
      "stayTimes": "21:00 - 23:00",
      "t_start": "2020-04-05T19:00:00",
      "t_end": "2020-04-05T21:00:00",
      "link": ""
    },
    {
      "id": 382691,
      "lat": 31.7867898440001,
      "lon": 35.2099478700001,
      "label": "קופת חולים מאוחדת - ירושלים",
      "text": "",
      "stayTimes": "12:00 - 12:45",
      "t_start": "2020-04-06T10:00:00",
      "t_end": "2020-04-06T10:45:00",
      "link": ""
    },
    {
      "id": 382692,
      "lat": 32.0282193,
      "lon": 34.7483546,
      "label": "בית בלב בת ים - בת ים",
      "text": "",
      "stayTimes": "08:00 - 08:30",
      "t_start": "2020-03-31T06:00:00",
      "t_end": "2020-03-31T06:30:00",
      "link": ""
    },
    {
      "id": 382693,
      "lat": 32.0504127,
      "lon": 34.9504010000001,
      "label": "כולל סטור - אלעד",
      "text": "",
      "stayTimes": "17:00 - 17:30",
      "t_start": "2020-04-02T15:00:00",
      "t_end": "2020-04-02T15:30:00",
      "link": ""
    },
    {
      "id": 382694,
      "lat": 31.786802649,
      "lon": 35.2099533480001,
      "label": "קופ\"ח הטורים - ירושלים",
      "text": "",
      "stayTimes": "09:30 - 10:00",
      "t_start": "2020-03-31T07:30:00",
      "t_end": "2020-03-31T08:00:00",
      "link": ""
    },
    {
      "id": 382695,
      "lat": 32.311183,
      "lon": 34.9632374,
      "label": "סופרמרקט \"מרדקו גולד\" - תנובות",
      "text": "",
      "stayTimes": "07:30 - 08:00",
      "t_start": "2020-03-31T05:30:00",
      "t_end": "2020-03-31T06:00:00",
      "link": ""
    },
    {
      "id": 382696,
      "lat": 32.3011492000001,
      "lon": 34.9138428000001,
      "label": "מרכז לבריאות הנפש \"לב השרון\" - פרדסיה",
      "text": "",
      "stayTimes": "08:00 - 16:30",
      "t_start": "2020-03-31T06:00:00",
      "t_end": "2020-03-31T14:30:00",
      "link": ""
    },
    {
      "id": 382697,
      "lat": 32.1058543,
      "lon": 34.9402346000001,
      "label": "סופר \"יינות ביתן\" - ראש העין",
      "text": "",
      "stayTimes": "18:00 - 18:30",
      "t_start": "2020-04-02T16:00:00",
      "t_end": "2020-04-02T16:30:00",
      "link": ""
    },
    {
      "id": 382698,
      "lat": 31.8610938,
      "lon": 34.8058639000001,
      "label": "קשת טעמים - קרית עקרון",
      "text": "",
      "stayTimes": "18:45 - 19:45",
      "t_start": "2020-03-31T16:45:00",
      "t_end": "2020-03-31T17:45:00",
      "link": ""
    },
    {
      "id": 382699,
      "lat": 32.0742854000001,
      "lon": 34.8699868,
      "label": "שופר סל שלי/קיון גנים - פתח תקווה",
      "text": "",
      "stayTimes": "12:00 - 12:30",
      "t_start": "2020-04-01T10:00:00",
      "t_end": "2020-04-01T10:30:00",
      "link": ""
    },
    {
      "id": 382700,
      "lat": 31.7888178960001,
      "lon": 35.338612448,
      "label": "ליאן יצור ושיווק בע\"מ - מעלה אדומים",
      "text": "",
      "stayTimes": "08:00 - 08:30",
      "t_start": "2020-04-01T06:00:00",
      "t_end": "2020-04-01T06:30:00",
      "link": ""
    },
    {
      "id": 382701,
      "lat": 31.7888409,
      "lon": 35.3386003000001,
      "label": "יקב ציון - מעלה אדומים",
      "text": "",
      "stayTimes": "08:00 - 08:30",
      "t_start": "2020-04-01T06:00:00",
      "t_end": "2020-04-01T06:30:00",
      "link": ""
    },
    {
      "id": 382702,
      "lat": 31.7905403,
      "lon": 35.3337349,
      "label": "מאפיית ביכורים - מעלה אדומים",
      "text": "",
      "stayTimes": "08:00 - 08:30",
      "t_start": "2020-04-01T06:00:00",
      "t_end": "2020-04-01T06:30:00",
      "link": ""
    },
    {
      "id": 382703,
      "lat": 31.793080375,
      "lon": 35.3351584710001,
      "label": "מפעל מיה - מעלה אדומים",
      "text": "",
      "stayTimes": "08:00 - 08:30",
      "t_start": "2020-04-01T06:00:00",
      "t_end": "2020-04-01T06:30:00",
      "link": ""
    },
    {
      "id": 382704,
      "lat": 31.7928283000001,
      "lon": 34.6535121000001,
      "label": "מרקט בראש צעיר - אשדוד",
      "text": "",
      "stayTimes": "12:00 - 12:30",
      "t_start": "2020-04-03T10:00:00",
      "t_end": "2020-04-03T10:30:00",
      "link": ""
    },
    {
      "id": 382705,
      "lat": 31.7892705800001,
      "lon": 35.2181986470001,
      "label": "קופת חולים מאוחדת פסגת זאב - ירושלים",
      "text": "",
      "stayTimes": "16:45 - 17:00",
      "t_start": "2020-04-05T14:45:00",
      "t_end": "2020-04-05T15:00:00",
      "link": ""
    },
    {
      "id": 382706,
      "lat": 31.7707530000001,
      "lon": 35.243902,
      "label": "קופ\"ח כללית - אלחכמה - ירושלים",
      "text": "",
      "stayTimes": "09:30 - 10:30",
      "t_start": "2020-03-31T07:30:00",
      "t_end": "2020-03-31T08:30:00",
      "link": ""
    },
    {
      "id": 382707,
      "lat": 32.0862991000001,
      "lon": 34.8348894000001,
      "label": "נתיב החסד - בני ברק",
      "text": "",
      "stayTimes": "11:00 - 11:30",
      "t_start": "2020-04-03T09:00:00",
      "t_end": "2020-04-03T09:30:00",
      "link": ""
    },
    {
      "id": 382708,
      "lat": 32.0840122000001,
      "lon": 34.8342287,
      "label": "מכולת מילר - בני ברק",
      "text": "",
      "stayTimes": "11:00 - 11:30",
      "t_start": "2020-04-02T09:00:00",
      "t_end": "2020-04-02T09:30:00",
      "link": ""
    },
    {
      "id": 382709,
      "lat": 32.130969346,
      "lon": 34.8939377580001,
      "label": "הנגר 3, הוד השרון",
      "text": "",
      "stayTimes": "09:00 - 17:00",
      "t_start": "2020-03-31T07:00:00",
      "t_end": "2020-03-31T15:00:00",
      "link": ""
    },
    {
      "id": 382710,
      "lat": 32.131060201,
      "lon": 34.8938519270001,
      "label": "הנגר 3, הוד השרון",
      "text": "",
      "stayTimes": "09:00 - 17:00",
      "t_start": "2020-04-01T07:00:00",
      "t_end": "2020-04-01T15:00:00",
      "link": ""
    },
    {
      "id": 382711,
      "lat": 32.1557439000001,
      "lon": 34.8911459,
      "label": "\"שקדיה\" - הוד השרון",
      "text": "",
      "stayTimes": "08:00 - 08:30",
      "t_start": "2020-04-08T06:00:00",
      "t_end": "2020-04-08T06:30:00",
      "link": ""
    },