{
  "points": [
    {
      "id": 480326,
      "lat": 32.4381675060001,
      "lon": 34.921736131,
      "label": "סופר ויקטורי  קניון חדרה - חדרה",
      "text": "",
      "stayTimes": "20:00 - 21:00",
      "t_start": "2020-04-13T18:00:00",
      "t_end": "2020-04-13T19:00:00",
      "link": ""
    },
    {
      "id": 480327,
      "lat": 32.4855131,
      "lon": 34.9698419000001,
      "label": "מרכז גריאטרי שוהם - פרדס חנה-כרכור",
      "text": "",
      "stayTimes": "07:00 - 15:00",
      "t_start": "2020-04-13T05:00:00",
      "t_end": "2020-04-13T13:00:00",
      "link": ""
    },
    {
      "id": 480328,
      "lat": 31.7839243650001,
      "lon": 35.211389889,
      "label": "שערי הלכה - ירושלים",
      "text": "",
      "stayTimes": "08:00 - 08:30",
      "t_start": "2020-04-13T06:00:00",
      "t_end": "2020-04-13T06:30:00",
      "link": ""
    },
    {
      "id": 480329,
      "lat": 32.097276767,
      "lon": 34.896168312,
      "label": "Yellow - פתח תקווה",
      "text": "",
      "stayTimes": "00:30 - 01:00",
      "t_start": "2020-04-14T22:30:00",
      "t_end": "2020-04-14T23:00:00",
      "link": ""
    },
    {
      "id": 480330,
      "lat": 31.748793311,
      "lon": 34.9910159770001,
      "label": "מד\"א בית שמש - בית שמש",
      "text": "",
      "stayTimes": "15:30 - 23:00",
      "t_start": "2020-04-16T13:30:00",
      "t_end": "2020-04-16T21:00:00",
      "link": ""
    },
    {
      "id": 480331,
      "lat": 31.748793311,
      "lon": 34.9910159770001,
      "label": "מד\"א בית-שמש - בית שמש",
      "text": "",
      "stayTimes": "08:00 - 15:00",
      "t_start": "2020-04-19T06:00:00",
      "t_end": "2020-04-19T13:00:00",
      "link": ""
    },
    {
      "id": 480332,
      "lat": 31.748793311,
      "lon": 34.9910159770001,
      "label": "מד\"א בית שמש - בית שמש",
      "text": "",
      "stayTimes": "08:00 - 15:00",
      "t_start": "2020-04-20T06:00:00",
      "t_end": "2020-04-20T13:00:00",
      "link": ""
    },
    {
      "id": 480333,
      "lat": 32.182045563,
      "lon": 34.89608739,
      "label": "פנימית ג בי\"ח מאיר - כפר סבא",
      "text": "",
      "stayTimes": "07:00 - 19:00",
      "t_start": "2020-04-15T05:00:00",
      "t_end": "2020-04-15T17:00:00",
      "link": ""
    },
    {
      "id": 480334,
      "lat": 32.1550269150001,
      "lon": 34.9536160170001,
      "label": "מרפאה כללית - ג'לג'וליה",
      "text": "",
      "stayTimes": "17:00 - 17:10",
      "t_start": "2020-04-14T15:00:00",
      "t_end": "2020-04-14T15:10:00",
      "link": ""
    },
    {
      "id": 480335,
      "lat": 32.11685601,
      "lon": 34.976999334,
      "label": "מוקד שרות רפואה דחופה - כפר קאסם",
      "text": "",
      "stayTimes": "16:00 - 16:15",
      "t_start": "2020-04-17T14:00:00",
      "t_end": "2020-04-17T14:15:00",
      "link": ""
    },
    {
      "id": 480336,
      "lat": 31.785329443,
      "lon": 35.213897563,
      "label": "תחנת שלם מרחב קדם מחוז ירושלים - ירושלים",
      "text": "",
      "stayTimes": "12:00 - 23:00",
      "t_start": "2020-04-13T10:00:00",
      "t_end": "2020-04-13T21:00:00",
      "link": ""
    },
    {
      "id": 480337,
      "lat": 32.049602749,
      "lon": 34.9535502260001,
      "label": "חנות ירקות - אלעד",
      "text": "",
      "stayTimes": "10:00 - 10:30",
      "t_start": "2020-04-14T08:00:00",
      "t_end": "2020-04-14T08:30:00",
      "link": ""
    },
    {
      "id": 480338,
      "lat": 32.098927535,
      "lon": 34.829715252,
      "label": "אושר עד - בני ברק",
      "text": "",
      "stayTimes": "08:00 - 08:30",
      "t_start": "2020-04-14T06:00:00",
      "t_end": "2020-04-14T06:30:00",
      "link": ""
    },
    {
      "id": 480339,
      "lat": 31.788221164,
      "lon": 35.220505142,
      "label": "סופר זול ובגדול - ירושלים",
      "text": "",
      "stayTimes": "10:00 - 12:00",
      "t_start": "2020-04-14T08:00:00",
      "t_end": "2020-04-14T10:00:00",
      "link": ""
    },
    {
      "id": 480340,
      "lat": 31.788221164,
      "lon": 35.220505142,
      "label": "סופר זול ובגדול - ירושלים",
      "text": "",
      "stayTimes": "10:00 - 13:00",
      "t_start": "2020-04-13T08:00:00",
      "t_end": "2020-04-13T11:00:00",
      "link": ""
    },
    {
      "id": 480341,
      "lat": 32.4746736180001,
      "lon": 34.9978632830001,
      "label": "שופרסל \"שלי\" אחוזה ירוקה כרכור - פרדס חנה-כרכור",
      "text": "",
      "stayTimes": "09:00 - 10:00",
      "t_start": "2020-04-17T07:00:00",
      "t_end": "2020-04-17T08:00:00",
      "link": ""
    },
    {
      "id": 480342,
      "lat": 31.7884694700001,
      "lon": 35.205537007,
      "label": "טרם - ירושלים",
      "text": "",
      "stayTimes": "15:00 - 23:59",
      "t_start": "2020-04-20T13:00:00",
      "t_end": "2020-04-20T21:59:00",
      "link": ""
    },
    {
      "id": 480343,
      "lat": 32.0798922610001,
      "lon": 34.9024021450001,
      "label": "סופר \"שופרסל דיל\" - פתח תקווה",
      "text": "",
      "stayTimes": "11:00 - 12:00",
      "t_start": "2020-04-16T09:00:00",
      "t_end": "2020-04-16T10:00:00",
      "link": ""
    },
    {
      "id": 480344,
      "lat": 32.4704617,
      "lon": 35.0387773,
      "label": "שופרסל דיל חריש - חריש",
      "text": "",
      "stayTimes": "12:30 - 13:30",
      "t_start": "2020-04-17T10:30:00",
      "t_end": "2020-04-17T11:30:00",
      "link": ""
    },
    {
      "id": 480345,
      "lat": 32.4705928000001,
      "lon": 35.0391716,
      "label": "סופר פארם חריש - חריש",
      "text": "",
      "stayTimes": "13:30 - 13:45",
      "t_start": "2020-04-17T11:30:00",
      "t_end": "2020-04-17T11:45:00",
      "link": ""
    },
    {
      "id": 480346,
      "lat": 32.0860474580001,
      "lon": 34.832200765,
      "label": "אופטיקה 280 - בני ברק",
      "text": "",
      "stayTimes": "14:00 - 14:40",
      "t_start": "2020-04-20T12:00:00",
      "t_end": "2020-04-20T12:40:00",
      "link": ""
    },
    {
      "id": 480347,
      "lat": 32.4746736180001,
      "lon": 34.9978632830001,
      "label": "שופרסל \"שלי \" סניף פרדס חנה - פרדס חנה-כרכור",
      "text": "",
      "stayTimes": "11:30 - 11:45",
      "t_start": "2020-04-17T09:30:00",
      "t_end": "2020-04-17T09:45:00",
      "link": ""
    },
    {
      "id": 480348,
      "lat": 31.4159425080001,
      "lon": 34.579142615,
      "label": "מאפיית אוחיון - נתיבות",
      "text": "",
      "stayTimes": "20:30 - 21:00",
      "t_start": "2020-04-16T18:30:00",
      "t_end": "2020-04-16T19:00:00",
      "link": ""
    },
    {
      "id": 480349,
      "lat": 31.416068571,
      "lon": 34.5790315040001,
      "label": "מאפיית אוחיון - נתיבות",
      "text": "",
      "stayTimes": "21:00 - 21:30",
      "t_start": "2020-04-18T19:00:00",
      "t_end": "2020-04-18T19:30:00",
      "link": ""
    },
    {
      "id": 480350,
      "lat": 31.817951475,
      "lon": 35.199893156,
      "label": "\"סופר מרזיב\" שירת הים - ירושלים",
      "text": "",
      "stayTimes": "12:00 - 13:00",
      "t_start": "2020-04-13T10:00:00",
      "t_end": "2020-04-13T11:00:00",
      "link": ""
    },
    {
      "id": 480351,
      "lat": 31.7512059050001,
      "lon": 35.18655062,
      "label": "סופר פארם קניון מלחה - ירושלים",
      "text": "",
      "stayTimes": "15:30 - 16:00",
      "t_start": "2020-04-13T13:30:00",
      "t_end": "2020-04-13T14:00:00",
      "link": ""
    },
    {
      "id": 480352,
      "lat": 31.7488410980001,
      "lon": 35.2109615050001,
      "label": "יוחננוף - ירושלים",
      "text": "",
      "stayTimes": "21:00 - 22:00",
      "t_start": "2020-04-16T19:00:00",
      "t_end": "2020-04-16T20:00:00",
      "link": ""
    },
    {
      "id": 480353,
      "lat": 32.470720903,
      "lon": 35.038988143,
      "label": "יין בעיר חריש - חריש",
      "text": "",
      "stayTimes": "13:45 - 14:00",
      "t_start": "2020-04-17T11:45:00",
      "t_end": "2020-04-17T12:00:00",
      "link": ""
    },
    {
      "id": 480354,
      "lat": 31.7051188,
      "lon": 35.1168587000001,
      "label": "סופר יש חסד - ביתר עילית",
      "text": "",
      "stayTimes": "11:30 - 12:00",
      "t_start": "2020-04-13T09:30:00",
      "t_end": "2020-04-13T10:00:00",
      "link": ""
    },
    {
      "id": 480355,
      "lat": 32.0879306000001,
      "lon": 34.8567575000001,
      "label": "רמי לוי - פתח תקווה",
      "text": "",
      "stayTimes": "10:00 - 11:00",
      "t_start": "2020-04-16T08:00:00",
      "t_end": "2020-04-16T09:00:00",
      "link": ""
    },
    {
      "id": 480356,
      "lat": 31.7852588000001,
      "lon": 35.1830189,
      "label": "אושר עד גבעת שאול - ירושלים",
      "text": "",
      "stayTimes": "11:00 - 12:00",
      "t_start": "2020-04-22T09:00:00",
      "t_end": "2020-04-22T10:00:00",
      "link": ""
    },
    {
      "id": 480357,
      "lat": 31.6654723890001,
      "lon": 34.562808182,
      "label": "מרפאת שיניים אפרת - אשקלון",
      "text": "",
      "stayTimes": "10:30 - 12:30",
      "t_start": "2020-04-21T08:30:00",
      "t_end": "2020-04-21T10:30:00",
      "link": ""
    },
    {
      "id": 480358,
      "lat": 31.2543245000001,
      "lon": 34.7916569000001,
      "label": "הירקניה של דוד - באר שבע",
      "text": "",
      "stayTimes": "09:00 - 10:30",
      "t_start": "2020-04-17T07:00:00",
      "t_end": "2020-04-17T08:30:00",
      "link": ""
    },
    {
      "id": 480359,
      "lat": 32.090821981,
      "lon": 34.8388174410001,
      "label": "סופר יש חסד - בני ברק",
      "text": "",
      "stayTimes": "19:00 - 20:00",
      "t_start": "2020-04-13T17:00:00",
      "t_end": "2020-04-13T18:00:00",
      "link": ""
    },
    {
      "id": 480360,
      "lat": 31.9272982360001,
      "lon": 35.0383409300001,
      "label": "יש חסד - מודיעין עילית",
      "text": "",
      "stayTimes": "00:00 - 00:30",
      "t_start": "2020-04-16T22:00:00",
      "t_end": "2020-04-16T22:30:00",
      "link": ""
    },
    {
      "id": 480361,
      "lat": 32.8428574000001,
      "lon": 35.1641175,
      "label": "אל  משהדאוי  סופרמרקט - טמרה",
      "text": "",
      "stayTimes": "15:30 - 16:00",
      "t_start": "2020-04-20T13:30:00",
      "t_end": "2020-04-20T14:00:00",
      "link": ""
    },
    {
      "id": 480362,
      "lat": 31.2656951230001,
      "lon": 34.7633655970001,
      "label": "סופר דיל - באר שבע",
      "text": "",
      "stayTimes": "11:00 - 11:30",
      "t_start": "2020-04-14T09:00:00",
      "t_end": "2020-04-14T09:30:00",
      "link": ""
    },
    {
      "id": 480363,
      "lat": 32.181293979,
      "lon": 34.8952400370001,
      "label": "בית חולים מאיר מחלקת אורטופדיה - כפר סבא",
      "text": "",
      "stayTimes": "08:00 - 08:30",
      "t_start": "2020-04-17T06:00:00",
      "t_end": "2020-04-17T06:30:00",
      "link": ""
    },
    {
      "id": 480364,
      "lat": 32.1812576560001,
      "lon": 34.895211427,
      "label": "בית חולים מאיר מח' אורטופדיה - כפר סבא",
      "text": "",
      "stayTimes": "12:00 - 12:30",
      "t_start": "2020-04-17T10:00:00",
      "t_end": "2020-04-17T10:30:00",
      "link": ""
    },
    {
      "id": 480365,
      "lat": 32.1812394950001,
      "lon": 34.8952758,
      "label": "בית חולים מאיר מח' אורטופדיה - כפר סבא",
      "text": "",
      "stayTimes": "08:00 - 08:30",
      "t_start": "2020-04-18T06:00:00",
      "t_end": "2020-04-18T06:30:00",
      "link": ""
    },
    {
      "id": 480366,
      "lat": 32.1810270340001,
      "lon": 34.8948060590001,
      "label": "בית חולים מאיר מח' אורטופדיה - כפר סבא",
      "text": "",
      "stayTimes": "12:00 - 12:30",
      "t_start": "2020-04-18T10:00:00",
      "t_end": "2020-04-18T10:30:00",
      "link": ""
    },
    {
      "id": 480367,
      "lat": 32.181275817,
      "lon": 34.8952293080001,
      "label": "בית חולים מאיר מח' אורטופדיה - כפר סבא",
      "text": "",
      "stayTimes": "08:00 - 08:30",
      "t_start": "2020-04-19T06:00:00",
      "t_end": "2020-04-19T06:30:00",
      "link": ""
    },
    {
      "id": 480368,
      "lat": 32.181275817,
      "lon": 34.8952328840001,
      "label": "בית חולים מאיר מח' אורטופדיה - כפר סבא",
      "text": "",
      "stayTimes": "12:00 - 12:30",
      "t_start": "2020-04-19T10:00:00",
      "t_end": "2020-04-19T10:30:00",
      "link": ""
    },
    {
      "id": 480369,
      "lat": 32.181266737,
      "lon": 34.895215003,
      "label": "בית חולים מאיר מח' אורטופדיה - כפר סבא",
      "text": "",
      "stayTimes": "08:00 - 08:30",
      "t_start": "2020-04-20T06:00:00",
      "t_end": "2020-04-20T06:30:00",
      "link": ""
    },
    {
      "id": 480370,
      "lat": 32.1812637100001,
      "lon": 34.8952507650001,
      "label": "בית חולים מאיר מח' אורטופדיה - כפר סבא",
      "text": "",
      "stayTimes": "12:00 - 12:30",
      "t_start": "2020-04-20T10:00:00",
      "t_end": "2020-04-20T10:30:00",
      "link": ""
    },
    {
      "id": 480371,
      "lat": 31.607740259,
      "lon": 34.7593345600001,
      "label": "החייל האלמוני 6, קרית גת",
      "text": "",
      "stayTimes": "11:00 - 13:00",
      "t_start": "2020-04-21T09:00:00",
      "t_end": "2020-04-21T11:00:00",
      "link": ""
    },
    {
      "id": 480372,
      "lat": 32.0193588000001,
      "lon": 34.9614117,
      "label": "יקביי הכרמל - שוהם",
      "text": "",
      "stayTimes": "14:00 - 16:30",
      "t_start": "2020-04-21T12:00:00",
      "t_end": "2020-04-21T14:30:00",
      "link": ""
    },
    {
      "id": 480373,
      "lat": 31.416792851,
      "lon": 34.571979212,
      "label": "אלי זול  (חנות ממתקים) - נתיבות",
      "text": "",
      "stayTimes": "14:00 - 14:30",
      "t_start": "2020-04-13T12:00:00",
      "t_end": "2020-04-13T12:30:00",
      "link": ""
    },
    {
      "id": 480374,
      "lat": 32.9173842220001,
      "lon": 35.250529106,
      "label": "תחנת דלק YELLOW מג'ד אל כרום - מג'ד אל-כרום",
      "text": "",
      "stayTimes": "06:00 - 14:00",
      "t_start": "2020-04-14T04:00:00",
      "t_end": "2020-04-14T12:00:00",
      "link": ""
    },
    {
      "id": 480375,
      "lat": 32.9173842220001,
      "lon": 35.250529106,
      "label": "תחנת דלק YELLOW - מג'ד אל-כרום",
      "text": "",
      "stayTimes": "10:00 - 23:00",
      "t_start": "2020-04-15T08:00:00",
      "t_end": "2020-04-15T21:00:00",
      "link": ""
    },
    {
      "id": 480376,
      "lat": 32.9173842220001,
      "lon": 35.250529106,
      "label": "תחנת דלק YELLOW - מג'ד אל-כרום",
      "text": "",
      "stayTimes": "12:00 - 14:00",
      "t_start": "2020-04-18T10:00:00",
      "t_end": "2020-04-18T12:00:00",
      "link": ""
    },
    {
      "id": 480377,
      "lat": 31.7674248810001,
      "lon": 35.295225841,
      "label": "טרם מעלה אדומים - מעלה אדומים",
      "text": "",
      "stayTimes": "16:00 - 16:30",
      "t_start": "2020-04-14T14:00:00",
      "t_end": "2020-04-14T14:30:00",
      "link": ""
    },
    {
      "id": 480378,
      "lat": 32.047602512,
      "lon": 34.9560923880001,
      "label": "קופת חולים לאומית - אלעד",
      "text": "",
      "stayTimes": "08:00 - 08:30",
      "t_start": "2020-04-19T06:00:00",
      "t_end": "2020-04-19T06:30:00",
      "link": ""
    },
    {
      "id": 480379,
      "lat": 31.934637566,
      "lon": 35.0423227520001,
      "label": "סופרמרקט \"בר כל\" - מודיעין עילית",
      "text": "",
      "stayTimes": "20:00 - 21:00",
      "t_start": "2020-04-19T18:00:00",
      "t_end": "2020-04-19T19:00:00",
      "link": ""
    },
    {
      "id": 480380,
      "lat": 31.9302372230001,
      "lon": 35.038582725,
      "label": "סופר מרקט \"יש\" - מודיעין עילית",
      "text": "",
      "stayTimes": "10:00 - 10:30",
      "t_start": "2020-04-16T08:00:00",
      "t_end": "2020-04-16T08:30:00",
      "link": ""
    },
    {
      "id": 480381,
      "lat": 32.0900685,
      "lon": 34.867923326,
      "label": "בית חולים בלינסון - פתח תקווה",
      "text": "",
      "stayTimes": "20:30 - 21:00",
      "t_start": "2020-04-18T18:30:00",
      "t_end": "2020-04-18T19:00:00",
      "link": ""
    },
    {
      "id": 480382,
      "lat": 32.088662105,
      "lon": 34.889573473,
      "label": "מרפאה לאומית - פתח תקווה",
      "text": "",
      "stayTimes": "09:40 - 09:50",
      "t_start": "2020-04-13T07:40:00",
      "t_end": "2020-04-13T07:50:00",
      "link": ""
    },
    {
      "id": 480383,
      "lat": 32.088662105,
      "lon": 34.889573473,
      "label": "מרפאה לאומית - פתח תקווה",
      "text": "",
      "stayTimes": "09:50 - 10:00",
      "t_start": "2020-04-13T07:50:00",
      "t_end": "2020-04-13T08:00:00",
      "link": ""
    },
    {
      "id": 480384,
      "lat": 33.0063472950001,
      "lon": 35.0976566780001,
      "label": "זוגלובק - שלומי",
      "text": "",
      "stayTimes": "06:00 - 17:00",
      "t_start": "2020-04-13T04:00:00",
      "t_end": "2020-04-13T15:00:00",
      "link": ""
    },
    {
      "id": 480385,
      "lat": 33.0063472950001,
      "lon": 35.0976566780001,
      "label": "זוגלובאק - שלומי",
      "text": "",
      "stayTimes": "06:00 - 17:00",
      "t_start": "2020-04-16T04:00:00",
      "t_end": "2020-04-16T15:00:00",
      "link": ""
    },
    {
      "id": 480386,
      "lat": 31.7884481940001,
      "lon": 35.207115382,
      "label": "בית אגד מרפאה - מאוחדת - ירושלים",
      "text": "",
      "stayTimes": "11:00 - 12:00",
      "t_start": "2020-04-19T09:00:00",
      "t_end": "2020-04-19T10:00:00",
      "link": ""
    },
    {
      "id": 480387,
      "lat": 33.0197082020001,
      "lon": 35.2828309440001,
      "label": "זול סטוק - מעלות-תרשיחא",
      "text": "",
      "stayTimes": "17:30 - 17:35",
      "t_start": "2020-04-19T15:30:00",
      "t_end": "2020-04-19T15:35:00",
      "link": ""
    },
    {
      "id": 480388,
      "lat": 32.952275382,
      "lon": 35.178511498,
      "label": "הום סנטר - ירכא",
      "text": "",
      "stayTimes": "10:00 - 11:30",
      "t_start": "2020-04-17T08:00:00",
      "t_end": "2020-04-17T09:30:00",
      "link": ""
    },
    {
      "id": 480389,
      "lat": 32.1847524660001,
      "lon": 34.8967412600001,
      "label": "מוניות הורדים - כפר סבא",
      "text": "",
      "stayTimes": "10:00 - 13:00",
      "t_start": "2020-04-18T08:00:00",
      "t_end": "2020-04-18T11:00:00",
      "link": ""
    },
    {
      "id": 480390,
      "lat": 32.2697890000001,
      "lon": 35.017976,
      "label": "מרכז רפואי אלראזי כביש 26 טייבה - טייבה",
      "text": "",
      "stayTimes": "20:45 - 21:10",
      "t_start": "2020-04-14T18:45:00",
      "t_end": "2020-04-14T19:10:00",
      "link": ""
    },
    {
      "id": 480391,
      "lat": 32.9243927000001,
      "lon": 35.2769814000001,
      "label": "קניון דבאח - דייר אל-אסד",
      "text": "",
      "stayTimes": "12:00 - 20:00",
      "t_start": "2020-04-13T10:00:00",
      "t_end": "2020-04-13T18:00:00",
      "link": ""
    },
    {
      "id": 480392,
      "lat": 32.9243927000001,
      "lon": 35.2769814000001,
      "label": "קניון דבאח - דייר אל-אסד",
      "text": "",
      "stayTimes": "08:00 - 15:30",
      "t_start": "2020-04-16T06:00:00",
      "t_end": "2020-04-16T13:30:00",
      "link": ""
    },
    {
      "id": 480393,
      "lat": 31.416792851,
      "lon": 34.571979212,
      "label": "חנות ממתקים אלי זול - נתיבות",
      "text": "",
      "stayTimes": "13:30 - 14:30",
      "t_start": "2020-04-14T11:30:00",
      "t_end": "2020-04-14T12:30:00",
      "link": ""
    },
    {
      "id": 480394,
      "lat": 31.8084865750001,
      "lon": 35.1985345690001,
      "label": "קופ\"ח לאומית - ירושלים",
      "text": "",
      "stayTimes": "08:00 - 20:30",
      "t_start": "2020-04-20T06:00:00",
      "t_end": "2020-04-20T18:30:00",
      "link": ""
    },
    {
      "id": 480395,
      "lat": 32.066217646,
      "lon": 34.8287757260001,
      "label": "סופר סל שלי - רמת גן",
      "text": "",
      "stayTimes": "11:45 - 12:15",
      "t_start": "2020-04-19T09:45:00",
      "t_end": "2020-04-19T10:15:00",
      "link": ""
    },
    {
      "id": 480396,
      "lat": 31.7884694700001,
      "lon": 35.205537007,
      "label": "טרם שערי העיר - ירושלים",
      "text": "",
      "stayTimes": "03:00 - 06:00",
      "t_start": "2020-04-22T01:00:00",
      "t_end": "2020-04-22T04:00:00",
      "link": ""
    },
    {
      "id": 480397,
      "lat": 31.6928544,
      "lon": 35.1096686000001,
      "label": "חסד לאלפים רמות - ירושלים",
      "text": "",
      "stayTimes": "10:00 - 10:30",
      "t_start": "2020-04-22T08:00:00",
      "t_end": "2020-04-22T08:30:00",
      "link": ""
    },
    {
      "id": 480398,
      "lat": 31.7884373910001,
      "lon": 35.2064509310001,
      "label": "מעיין 2000 - ירושלים",
      "text": "",
      "stayTimes": "12:00 - 12:30",
      "t_start": "2020-04-17T10:00:00",
      "t_end": "2020-04-17T10:30:00",
      "link": ""
    },
    {
      "id": 480399,
      "lat": 31.7921554440001,
      "lon": 35.2047189260001,
      "label": "שערי רווחה - ירושלים",
      "text": "",
      "stayTimes": "18:00 - 18:30",
      "t_start": "2020-04-20T16:00:00",
      "t_end": "2020-04-20T16:30:00",
      "link": ""
    },
    {
      "id": 480400,
      "lat": 32.1681408000001,
      "lon": 34.8421635,
      "label": "הוד מרקט - הרצליה",
      "text": "",
      "stayTimes": "11:30 - 12:00",
      "t_start": "2020-04-22T09:30:00",
      "t_end": "2020-04-22T10:00:00",
      "link": ""
    },
    {
      "id": 480401,
      "lat": 32.008773428,
      "lon": 34.778331404,
      "label": "יינות ביתן - חולון",
      "text": "",
      "stayTimes": "18:30 - 19:00",
      "t_start": "2020-04-13T16:30:00",
      "t_end": "2020-04-13T17:00:00",
      "link": ""
    },
    {
      "id": 480402,
      "lat": 31.7997442980001,
      "lon": 34.6623996050001,
      "label": "יש חסד - אשדוד",
      "text": "",
      "stayTimes": "12:00 - 12:30",
      "t_start": "2020-04-21T10:00:00",
      "t_end": "2020-04-21T10:30:00",
      "link": ""
    },
    {
      "id": 480403,
      "lat": 32.9223311590001,
      "lon": 35.071718494,
      "label": "מכולת ג'ארחי - עכו",
      "text": "",
      "stayTimes": "16:00 - 17:00",
      "t_start": "2020-04-17T14:00:00",
      "t_end": "2020-04-17T15:00:00",
      "link": ""
    },
    {
      "id": 480404,
      "lat": 32.9223773140001,
      "lon": 35.071742634,
      "label": "מכולת ג'ארחי - עכו",
      "text": "",
      "stayTimes": "16:00 - 17:30",
      "t_start": "2020-04-21T14:00:00",
      "t_end": "2020-04-21T15:30:00",
      "link": ""
    },
    {
      "id": 480405,
      "lat": 31.7511387440001,
      "lon": 35.215422888,
      "label": "רמי לוי - ירושלים",
      "text": "",
      "stayTimes": "16:00 - 18:00",
      "t_start": "2020-04-22T14:00:00",
      "t_end": "2020-04-22T16:00:00",
      "link": ""
    },
    {
      "id": 480406,
      "lat": 32.922368308,
      "lon": 35.0715629260001,
      "label": "שלון חומרי בנין - עכו",
      "text": "",
      "stayTimes": "12:00 - 18:00",
      "t_start": "2020-04-23T10:00:00",
      "t_end": "2020-04-23T16:00:00",
      "link": ""
    },
    {
      "id": 480407,
      "lat": 32.9223671830001,
      "lon": 35.071564267,
      "label": "שלון חומרי בניין - עכו",
      "text": "",
      "stayTimes": "12:00 - 20:00",
      "t_start": "2020-04-22T10:00:00",
      "t_end": "2020-04-22T18:00:00",
      "link": ""
    },
    {
      "id": 480408,
      "lat": 31.7662681210001,
      "lon": 35.1478980860001,
      "label": "סניף סופר פארם בקניון של הדסה עין כרם - ירושלים",
      "text": "",
      "stayTimes": "13:00 - 13:20",
      "t_start": "2020-04-21T11:00:00",
      "t_end": "2020-04-21T11:20:00",
      "link": ""
    },
    {
      "id": 480409,
      "lat": 32.0525778960001,
      "lon": 34.9511771420001,
      "label": "יש חסד - אלעד",
      "text": "",
      "stayTimes": "22:00 - 23:00",
      "t_start": "2020-04-19T20:00:00",
      "t_end": "2020-04-19T21:00:00",
      "link": ""
    },
    {
      "id": 480410,
      "lat": 31.766297766,
      "lon": 35.1478960750001,
      "label": "סניף סופר פארם בקניון של הדסה עין כרם - ירושלים",
      "text": "",
      "stayTimes": "09:00 - 09:10",
      "t_start": "2020-04-20T07:00:00",
      "t_end": "2020-04-20T07:10:00",
      "link": ""
    },
    {
      "id": 480411,
      "lat": 31.3976681,
      "lon": 34.7562129,
      "label": "שופר סל - רהט",
      "text": "",
      "stayTimes": "08:00 - 08:30",
      "t_start": "2020-04-19T06:00:00",
      "t_end": "2020-04-19T06:30:00",
      "link": ""
    },
    {
      "id": 480412,
      "lat": 31.396469,
      "lon": 34.757193,
      "label": "קופח לאומיחת - רהט",
      "text": "",
      "stayTimes": "16:00 - 16:30",
      "t_start": "2020-04-21T14:00:00",
      "t_end": "2020-04-21T14:30:00",
      "link": ""
    },
    {
      "id": 480413,
      "lat": 31.3182278,
      "lon": 34.6253776,
      "label": "שופרסל - אופקים",
      "text": "",
      "stayTimes": "08:00 - 11:00",
      "t_start": "2020-04-15T06:00:00",
      "t_end": "2020-04-15T09:00:00",
      "link": ""
    },
    {
      "id": 480414,
      "lat": 31.3182278,
      "lon": 34.6253776,
      "label": "שופר סל - אופקים",
      "text": "",
      "stayTimes": "18:30 - 22:00",
      "t_start": "2020-04-16T16:30:00",
      "t_end": "2020-04-16T20:00:00",
      "link": ""
    },
    {
      "id": 480415,
      "lat": 31.7144626350001,
      "lon": 34.9904344030001,
      "label": "שוק מהדרין - בית שמש",
      "text": "",
      "stayTimes": "21:30 - 22:00",
      "t_start": "2020-04-15T19:30:00",
      "t_end": "2020-04-15T20:00:00",
      "link": ""
    },
    {
      "id": 480416,
      "lat": 32.098620264,
      "lon": 34.839771022,
      "label": "נתיב החסד - בני ברק",
      "text": "",
      "stayTimes": "18:30 - 21:00",
      "t_start": "2020-04-23T16:30:00",
      "t_end": "2020-04-23T19:00:00",
      "link": ""
    },
    {
      "id": 480417,
      "lat": 32.090821981,
      "lon": 34.8388174410001,
      "label": "סופר מרקט \"יש\" - בני ברק",
      "text": "",
      "stayTimes": "07:30 - 08:30",
      "t_start": "2020-04-22T05:30:00",
      "t_end": "2020-04-22T06:30:00",
      "link": ""
    },
    {
      "id": 480418,
      "lat": 31.9302824420001,
      "lon": 35.0386059690001,
      "label": "יש חסד - מודיעין עילית",
      "text": "",
      "stayTimes": "07:50 - 14:30",
      "t_start": "2020-04-14T05:50:00",
      "t_end": "2020-04-14T12:30:00",
      "link": ""
    },
    {
      "id": 480419,
      "lat": 31.9302824420001,
      "lon": 35.0386059690001,
      "label": "יש חסד - מודיעין עילית",
      "text": "",
      "stayTimes": "08:00 - 15:40",
      "t_start": "2020-04-24T06:00:00",
      "t_end": "2020-04-24T13:40:00",
      "link": ""
    },
    {
      "id": 480420,
      "lat": 31.9302824420001,
      "lon": 35.0386059690001,
      "label": "יש חסד - מודיעין עילית",
      "text": "",
      "stayTimes": "07:30 - 14:45",
      "t_start": "2020-04-17T05:30:00",
      "t_end": "2020-04-17T12:45:00",
      "link": ""
    },
    {
      "id": 480421,
      "lat": 31.9302824420001,
      "lon": 35.0386059690001,
      "label": "יש חסד - מודיעין עילית",
      "text": "",
      "stayTimes": "12:00 - 20:30",
      "t_start": "2020-04-19T10:00:00",
      "t_end": "2020-04-19T18:30:00",
      "link": ""
    },
    {
      "id": 480422,
      "lat": 31.9302824420001,
      "lon": 35.0386059690001,
      "label": "יש חסד - מודיעין עילית",
      "text": "",
      "stayTimes": "14:00 - 20:00",
      "t_start": "2020-04-20T12:00:00",
      "t_end": "2020-04-20T18:00:00",
      "link": ""
    },
    {
      "id": 480423,
      "lat": 31.9302824420001,
      "lon": 35.0386059690001,
      "label": "יש חסד - מודיעין עילית",
      "text": "",
      "stayTimes": "07:30 - 16:00",
      "t_start": "2020-04-21T05:30:00",
      "t_end": "2020-04-21T14:00:00",
      "link": ""
    },
    {
      "id": 480424,
      "lat": 31.72654185,
      "lon": 34.7450478210001,
      "label": "ויקטורי - קרית מלאכי",
      "text": "",
      "stayTimes": "17:30 - 18:00",
      "t_start": "2020-04-21T15:30:00",
      "t_end": "2020-04-21T16:00:00",
      "link": ""
    },
    {
      "id": 480425,
      "lat": 32.1168797080001,
      "lon": 34.976998929,
      "label": "מרכז שר'פ - כפר קאסם",
      "text": "",
      "stayTimes": "19:30 - 20:00",
      "t_start": "2020-04-19T17:30:00",
      "t_end": "2020-04-19T18:00:00",
      "link": ""
    },
    {
      "id": 480426,
      "lat": 32.9235495,
      "lon": 35.3140916,
      "label": "מפעל דבאח לעופות כרמיאל - כרמיאל",
      "text": "",
      "stayTimes": "08:00 - 16:00",
      "t_start": "2020-04-13T06:00:00",
      "t_end": "2020-04-13T14:00:00",
      "link": ""
    },
    {
      "id": 480427,
      "lat": 31.2391248480001,
      "lon": 34.769202066,
      "label": "ברכת כוהנים בית מאפה - באר שבע",
      "text": "",
      "stayTimes": "10:00 - 10:30",
      "t_start": "2020-04-17T08:00:00",
      "t_end": "2020-04-17T08:30:00",
      "link": ""
    },
    {
      "id": 480428,
      "lat": 31.8006962640001,
      "lon": 34.641055894,
      "label": "בוטיק הפיתה - אשדוד",
      "text": "",
      "stayTimes": "04:30 - 14:30",
      "t_start": "2020-04-16T02:30:00",
      "t_end": "2020-04-16T12:30:00",
      "link": ""
    },
    {
      "id": 480429,
      "lat": 31.8006962640001,
      "lon": 34.641055894,
      "label": "בוטיק הפיתה - אשדוד",
      "text": "",
      "stayTimes": "04:30 - 14:30",
      "t_start": "2020-04-17T02:30:00",
      "t_end": "2020-04-17T12:30:00",
      "link": ""
    },
    {
      "id": 480430,
      "lat": 31.8006962640001,
      "lon": 34.641055894,
      "label": "בוטיק הפיתה - אשדוד",
      "text": "",
      "stayTimes": "04:00 - 14:00",
      "t_start": "2020-04-19T02:00:00",
      "t_end": "2020-04-19T12:00:00",
      "link": ""
    },
    {
      "id": 480431,
      "lat": 31.8006962640001,
      "lon": 34.641055894,
      "label": "בוטיק הפיתה - אשדוד",
      "text": "",
      "stayTimes": "04:00 - 14:00",
      "t_start": "2020-04-20T02:00:00",
      "t_end": "2020-04-20T12:00:00",
      "link": ""
    },
    {
      "id": 480432,
      "lat": 31.8006962640001,
      "lon": 34.641055894,
      "label": "בוטיק הפיתה - אשדוד",
      "text": "",
      "stayTimes": "04:00 - 14:00",
      "t_start": "2020-04-21T02:00:00",
      "t_end": "2020-04-21T12:00:00",
      "link": ""
    },
    {
      "id": 480433,
      "lat": 31.8006962640001,
      "lon": 34.641055894,
      "label": "בוטיק הפיתה - אשדוד",
      "text": "",
      "stayTimes": "04:30 - 14:00",
      "t_start": "2020-04-22T02:30:00",
      "t_end": "2020-04-22T12:00:00",
      "link": ""
    },
    {
      "id": 480434,
      "lat": 32.952925355,
      "lon": 35.182686812,
      "label": "מולה נוף ירכא - ירכא",
      "text": "",
      "stayTimes": "08:00 - 08:30",
      "t_start": "2020-04-24T06:00:00",
      "t_end": "2020-04-24T06:30:00",
      "link": ""
    },
    {
      "id": 480435,
      "lat": 29.5576985710001,
      "lon": 34.951990596,
      "label": "בית החולים יוספטל מיון כללי - אילת",
      "text": "",
      "stayTimes": "18:00 - 19:00",
      "t_start": "2020-04-18T16:00:00",
      "t_end": "2020-04-18T17:00:00",
      "link": ""
    },
    {
      "id": 480436,
      "lat": 29.5571977220001,
      "lon": 34.9451359890001,
      "label": "קופת חולים מרפאת אופיר - אילת",
      "text": "",
      "stayTimes": "08:00 - 08:30",
      "t_start": "2020-04-20T06:00:00",
      "t_end": "2020-04-20T06:30:00",
      "link": ""
    },
    {
      "id": 480437,
      "lat": 29.5697508000001,
      "lon": 34.9572891,
      "label": "פרי ארצנו - אילת",
      "text": "",
      "stayTimes": "17:30 - 18:00",
      "t_start": "2020-04-21T15:30:00",
      "t_end": "2020-04-21T16:00:00",
      "link": ""
    },
    {
      "id": 480438,
      "lat": 31.7797643640001,
      "lon": 34.6283885460001,
      "label": "בוטיק הפיתה - אשדוד",
      "text": "",
      "stayTimes": "07:30 - 20:00",
      "t_start": "2020-04-16T05:30:00",
      "t_end": "2020-04-16T18:00:00",
      "link": ""
    },
    {
      "id": 480439,
      "lat": 31.7797643640001,
      "lon": 34.6283885460001,
      "label": "בוטיק הפיתה - אשדוד",
      "text": "",
      "stayTimes": "07:00 - 16:00",
      "t_start": "2020-04-17T05:00:00",
      "t_end": "2020-04-17T14:00:00",
      "link": ""
    },
    {
      "id": 480440,
      "lat": 31.7797643640001,
      "lon": 34.6283885460001,
      "label": "בוטיק הפיתה - אשדוד",
      "text": "",
      "stayTimes": "06:00 - 13:30",
      "t_start": "2020-04-19T04:00:00",
      "t_end": "2020-04-19T11:30:00",
      "link": ""
    },
    {
      "id": 480441,
      "lat": 31.7797643640001,
      "lon": 34.6283885460001,
      "label": "בוטיק הפיתה - אשדוד",
      "text": "",
      "stayTimes": "12:30 - 20:00",
      "t_start": "2020-04-20T10:30:00",
      "t_end": "2020-04-20T18:00:00",
      "link": ""
    },
    {
      "id": 480442,
      "lat": 31.7797643640001,
      "lon": 34.6283885460001,
      "label": "בוטיק הפיתה - אשדוד",
      "text": "",
      "stayTimes": "12:30 - 20:00",
      "t_start": "2020-04-21T10:30:00",
      "t_end": "2020-04-21T18:00:00",
      "link": ""
    },
    {
      "id": 480443,
      "lat": 31.7797643640001,
      "lon": 34.6283885460001,
      "label": "בוטיק הפיתה - אשדוד",
      "text": "",
      "stayTimes": "12:30 - 20:00",
      "t_start": "2020-04-22T10:30:00",
      "t_end": "2020-04-22T18:00:00",
      "link": ""
    },
    {
      "id": 480444,
      "lat": 32.8117458,
      "lon": 35.0038105,
      "label": "חנות מפעם- שוק הפשפשים - חיפה",
      "text": "",
      "stayTimes": "09:00 - 14:00",
      "t_start": "2020-04-21T07:00:00",
      "t_end": "2020-04-21T12:00:00",
      "link": ""
    },
    {
      "id": 480445,
      "lat": 31.2576980000001,
      "lon": 34.7681700000001,
      "label": "דואר - קניון שאול המלך - באר שבע",
      "text": "",
      "stayTimes": "12:30 - 15:30",
      "t_start": "2020-04-21T10:30:00",
      "t_end": "2020-04-21T13:30:00",
      "link": ""
    },
    {
      "id": 480446,
      "lat": 31.245815979,
      "lon": 34.776824193,
      "label": "קופ\"ח כללית ט' - באר שבע",
      "text": "",
      "stayTimes": "10:00 - 11:00",
      "t_start": "2020-04-19T08:00:00",
      "t_end": "2020-04-19T09:00:00",
      "link": ""
    },
    {
      "id": 480447,
      "lat": 32.0865883170001,
      "lon": 34.8820112180001,
      "label": "סופר יש - פתח תקווה",
      "text": "",
      "stayTimes": "00:00 - 00:01",
      "t_start": "2020-04-12T22:00:00",
      "t_end": "2020-04-12T22:01:00",
      "link": ""
    },
    {
      "id": 480448,
      "lat": 32.0865883170001,
      "lon": 34.8820112180001,
      "label": "סופר יש - פתח תקווה",
      "text": "",
      "stayTimes": "00:00 - 00:01",
      "t_start": "2020-04-13T22:00:00",
      "t_end": "2020-04-13T22:01:00",
      "link": ""
    },
    {
      "id": 480449,
      "lat": 32.0865883170001,
      "lon": 34.8820112180001,
      "label": "סופר יש - פתח תקווה",
      "text": "",
      "stayTimes": "21:00 - 22:00",
      "t_start": "2020-04-15T19:00:00",
      "t_end": "2020-04-15T20:00:00",
      "link": ""
    },
    {
      "id": 480450,
      "lat": 32.6038847,
      "lon": 35.2930428000001,
      "label": "רמי לוי - עפולה",
      "text": "",
      "stayTimes": "12:00 - 13:00",
      "t_start": "2020-04-24T10:00:00",
      "t_end": "2020-04-24T11:00:00",
      "link": ""
    },
    {
      "id": 480451,
      "lat": 32.60272173,
      "lon": 35.2899566950001,
      "label": "בית כנסת - עפולה",
      "text": "",
      "stayTimes": "17:30 - 18:00",
      "t_start": "2020-04-24T15:30:00",
      "t_end": "2020-04-24T16:00:00",
      "link": ""
    },
    {
      "id": 480452,
      "lat": 32.0865883170001,
      "lon": 34.8820112180001,
      "label": "סופר יש - פתח תקווה",
      "text": "",
      "stayTimes": "00:00 - 00:01",
      "t_start": "2020-04-15T22:00:00",
      "t_end": "2020-04-15T22:01:00",
      "link": ""
    },
    {
      "id": 480453,
      "lat": 32.0525778960001,
      "lon": 34.9511771420001,
      "label": "סופר יש - אלעד",
      "text": "",
      "stayTimes": "08:00 - 08:30",
      "t_start": "2020-04-16T06:00:00",
      "t_end": "2020-04-16T06:30:00",
      "link": ""
    },
    {
      "id": 480454,
      "lat": 32.9246137850001,
      "lon": 35.312351177,
      "label": "נפרומור כרמיאל - כרמיאל",
      "text": "",
      "stayTimes": "08:00 - 12:00",
      "t_start": "2020-04-23T06:00:00",
      "t_end": "2020-04-23T10:00:00",
      "link": ""
    },
    {
      "id": 480455,
      "lat": 31.7997442980001,
      "lon": 34.6623996050001,
      "label": "יש חסד - אשדוד",
      "text": "",
      "stayTimes": "15:00 - 16:00",
      "t_start": "2020-04-22T13:00:00",
      "t_end": "2020-04-22T14:00:00",
      "link": ""
    },
    {
      "id": 480456,
      "lat": 31.7997442980001,
      "lon": 34.6623996050001,
      "label": "יש חסד - אשדוד",
      "text": "",
      "stayTimes": "21:00 - 22:00",
      "t_start": "2020-04-19T19:00:00",
      "t_end": "2020-04-19T20:00:00",
      "link": ""
    },
    {
      "id": 480457,
      "lat": 31.7998053000001,
      "lon": 34.6519699,
      "label": "בית אבות אשדוד - אשדוד",
      "text": "",
      "stayTimes": "08:00 - 08:30",
      "t_start": "2020-04-21T06:00:00",
      "t_end": "2020-04-21T06:30:00",
      "link": ""
    },
    {
      "id": 480458,
      "lat": 32.6738158000001,
      "lon": 35.2351289000001,
      "label": "ביס' חטיבה מגדל אור - מגדל העמק",
      "text": "",
      "stayTimes": "09:00 - 11:00",
      "t_start": "2020-04-20T07:00:00",
      "t_end": "2020-04-20T09:00:00",
      "link": ""
    },
    {
      "id": 480459,
      "lat": 31.814293956,
      "lon": 34.7764854500001,
      "label": "מעון מוריה - גדרה",
      "text": "",
      "stayTimes": "08:00 - 14:00",
      "t_start": "2020-04-13T06:00:00",
      "t_end": "2020-04-13T12:00:00",
      "link": ""
    },
    {
      "id": 480460,
      "lat": 31.814293956,
      "lon": 34.7764854500001,
      "label": "מעון מוריה - גדרה",
      "text": "",
      "stayTimes": "08:00 - 14:00",
      "t_start": "2020-04-14T06:00:00",
      "t_end": "2020-04-14T12:00:00",
      "link": ""
    },
    {
      "id": 480461,
      "lat": 32.0865883170001,
      "lon": 34.8820112180001,
      "label": "סופר יש - פתח תקווה",
      "text": "",
      "stayTimes": "00:00 - 00:01",
      "t_start": "2020-04-16T22:00:00",
      "t_end": "2020-04-16T22:01:00",
      "link": ""
    },
    {
      "id": 480462,
      "lat": 32.0865883170001,
      "lon": 34.8820112180001,
      "label": "סופר יש - פתח תקווה",
      "text": "",
      "stayTimes": "00:00 - 00:01",
      "t_start": "2020-04-18T22:00:00",
      "t_end": "2020-04-18T22:01:00",
      "link": ""
    },
    {
      "id": 480463,
      "lat": 32.0865883170001,
      "lon": 34.8820112180001,
      "label": "סופר יש - פתח תקווה",
      "text": "",
      "stayTimes": "00:00 - 00:01",
      "t_start": "2020-04-19T22:00:00",
      "t_end": "2020-04-19T22:01:00",
      "link": ""
    },
    {
      "id": 480464,
      "lat": 32.0865883170001,
      "lon": 34.8820112180001,
      "label": "סופר יש - פתח תקווה",
      "text": "",
      "stayTimes": "00:00 - 00:01",
      "t_start": "2020-04-20T22:00:00",
      "t_end": "2020-04-20T22:01:00",
      "link": ""
    },
    {
      "id": 480465,
      "lat": 32.0865883170001,
      "lon": 34.8820112180001,
      "label": "סופר יש - פתח תקווה",
      "text": "",
      "stayTimes": "00:00 - 00:01",
      "t_start": "2020-04-21T22:00:00",
      "t_end": "2020-04-21T22:01:00",
      "link": ""
    },
    {
      "id": 480466,
      "lat": 32.0865883170001,
      "lon": 34.8820112180001,
      "label": "סופר יש - פתח תקווה",
      "text": "",
      "stayTimes": "00:00 - 00:01",
      "t_start": "2020-04-22T22:00:00",
      "t_end": "2020-04-22T22:01:00",
      "link": ""
    },
    {
      "id": 480467,
      "lat": 32.0865883170001,
      "lon": 34.8820112180001,
      "label": "סופר יש - פתח תקווה",
      "text": "",
      "stayTimes": "11:00 - 11:40",
      "t_start": "2020-04-24T09:00:00",
      "t_end": "2020-04-24T09:40:00",
      "link": ""
    },
    {
      "id": 480468,
      "lat": 32.07702062,
      "lon": 34.85419662,
      "label": "סופר פארם - גבעת שמואל",
      "text": "",
      "stayTimes": "11:00 - 11:15",
      "t_start": "2020-04-17T09:00:00",
      "t_end": "2020-04-17T09:15:00",
      "link": ""
    },
    {
      "id": 480469,
      "lat": 32.0751450000001,
      "lon": 34.854613,
      "label": "סופר חביב - גבעת שמואל",
      "text": "",
      "stayTimes": "11:00 - 11:30",
      "t_start": "2020-04-16T09:00:00",
      "t_end": "2020-04-16T09:30:00",
      "link": ""
    },
    {
      "id": 480470,
      "lat": 32.087737739,
      "lon": 34.881144862,
      "label": "סופר פארם - פתח תקווה",
      "text": "",
      "stayTimes": "11:40 - 12:15",
      "t_start": "2020-04-24T09:40:00",
      "t_end": "2020-04-24T10:15:00",
      "link": ""
    },
    {
      "id": 480471,
      "lat": 32.852242431,
      "lon": 35.20116899,
      "label": "הבית האיטלקי חנות רהיטים - טמרה",
      "text": "",
      "stayTimes": "19:00 - 20:00",
      "t_start": "2020-04-20T17:00:00",
      "t_end": "2020-04-20T18:00:00",
      "link": ""
    },
    {
      "id": 480472,
      "lat": 31.9258448000001,
      "lon": 35.0439081000001,
      "label": "סופר \" בר כל\" נתיבות המשפט 64 - מודיעין עילית",
      "text": "",
      "stayTimes": "07:30 - 08:00",
      "t_start": "2020-04-24T05:30:00",
      "t_end": "2020-04-24T06:00:00",
      "link": ""
    },
    {
      "id": 480473,
      "lat": 32.1059981940001,
      "lon": 34.9388189900001,
      "label": "יינות ביתן - ראש העין",
      "text": "",
      "stayTimes": "07:30 - 08:30",
      "t_start": "2020-04-17T05:30:00",
      "t_end": "2020-04-17T06:30:00",
      "link": ""
    },
    {
      "id": 480474,
      "lat": 32.783842238,
      "lon": 35.019843892,
      "label": "בית אבות  מעון הרופא - חיפה",
      "text": "",
      "stayTimes": "01:00 - 07:30",
      "t_start": "2020-04-20T23:00:00",
      "t_end": "2020-04-21T05:30:00",
      "link": ""
    },
    {
      "id": 480475,
      "lat": 32.0859816380001,
      "lon": 34.8394351330001,
      "label": "יש חסד - בני ברק",
      "text": "",
      "stayTimes": "21:30 - 22:30",
      "t_start": "2020-04-21T19:30:00",
      "t_end": "2020-04-21T20:30:00",
      "link": ""
    },
    {
      "id": 480476,
      "lat": 32.6587434250001,
      "lon": 35.1090300910001,
      "label": "מרפאת קופח כללית - הנוריות - יקנעם עילית",
      "text": "",
      "stayTimes": "10:00 - 10:40",
      "t_start": "2020-04-21T08:00:00",
      "t_end": "2020-04-21T08:40:00",
      "link": ""
    },
    {
      "id": 480477,
      "lat": 31.814293956,
      "lon": 34.7764854500001,
      "label": "מעון מוריה - גדרה",
      "text": "",
      "stayTimes": "08:00 - 14:00",
      "t_start": "2020-04-15T06:00:00",
      "t_end": "2020-04-15T12:00:00",
      "link": ""
    },
    {
      "id": 480478,
      "lat": 32.098060515,
      "lon": 34.825575814,
      "label": "פרפקט ליין - רמת גן",
      "text": "",
      "stayTimes": "10:00 - 11:30",
      "t_start": "2020-04-24T08:00:00",
      "t_end": "2020-04-24T09:30:00",
      "link": ""
    },
    {
      "id": 480479,
      "lat": 32.0628766900001,
      "lon": 34.780424113,
      "label": "משרד רו\"ח \"BDO\" - תל אביב - יפו",
      "text": "",
      "stayTimes": "10:00 - 18:00",
      "t_start": "2020-04-19T08:00:00",
      "t_end": "2020-04-19T16:00:00",
      "link": ""
    },
    {
      "id": 480480,
      "lat": 31.814293956,
      "lon": 34.7764854500001,
      "label": "מעון מוריה - גדרה",
      "text": "",
      "stayTimes": "08:00 - 14:00",
      "t_start": "2020-04-16T06:00:00",
      "t_end": "2020-04-16T12:00:00",
      "link": ""
    },
    {
      "id": 480481,
      "lat": 31.814293956,
      "lon": 34.7764854500001,
      "label": "מעון מוריה - גדרה",
      "text": "",
      "stayTimes": "08:00 - 14:00",
      "t_start": "2020-04-17T06:00:00",
      "t_end": "2020-04-17T12:00:00",
      "link": ""
    },
    {
      "id": 480482,
      "lat": 31.814293956,
      "lon": 34.7764854500001,
      "label": "מעון מוריה - גדרה",
      "text": "",
      "stayTimes": "08:00 - 14:00",
      "t_start": "2020-04-18T06:00:00",
      "t_end": "2020-04-18T12:00:00",
      "link": ""
    },
    {
      "id": 480483,
      "lat": 31.814293956,
      "lon": 34.7764854500001,
      "label": "מעון מוריה - גדרה",
      "text": "",
      "stayTimes": "08:00 - 14:00",
      "t_start": "2020-04-19T06:00:00",
      "t_end": "2020-04-19T12:00:00",
      "link": ""
    },
    {
      "id": 480484,
      "lat": 31.814293956,
      "lon": 34.7764854500001,
      "label": "מעון מוריה - גדרה",
      "text": "",
      "stayTimes": "08:00 - 14:00",
      "t_start": "2020-04-20T06:00:00",
      "t_end": "2020-04-20T12:00:00",
      "link": ""
    },
    {
      "id": 480485,
      "lat": 31.814293956,
      "lon": 34.7764854500001,
      "label": "מעון מוריה - גדרה",
      "text": "",
      "stayTimes": "08:00 - 14:00",
      "t_start": "2020-04-21T06:00:00",
      "t_end": "2020-04-21T12:00:00",
      "link": ""
    },
    {
      "id": 480486,
      "lat": 31.814293956,
      "lon": 34.7764854500001,
      "label": "מעון מוריה - גדרה",
      "text": "",
      "stayTimes": "08:00 - 14:00",
      "t_start": "2020-04-22T06:00:00",
      "t_end": "2020-04-22T12:00:00",
      "link": ""
    },
    {
      "id": 480487,
      "lat": 32.0871815630001,
      "lon": 34.8816455100001,
      "label": "בנק לאומי - פתח תקווה",
      "text": "",
      "stayTimes": "08:30 - 09:00",
      "t_start": "2020-04-26T06:30:00",
      "t_end": "2020-04-26T07:00:00",
      "link": ""
    },
    {
      "id": 480488,
      "lat": 32.0994975,
      "lon": 34.8755340000001,
      "label": "חצי חינם - פתח תקווה",
      "text": "",
      "stayTimes": "16:00 - 18:00",
      "t_start": "2020-04-22T14:00:00",
      "t_end": "2020-04-22T16:00:00",
      "link": ""
    },
    {
      "id": 480489,
      "lat": 31.416792851,
      "lon": 34.571979212,
      "label": "אלי זול - נתיבות",
      "text": "",
      "stayTimes": "20:00 - 22:00",
      "t_start": "2020-04-22T18:00:00",
      "t_end": "2020-04-22T20:00:00",
      "link": ""
    },
    {
      "id": 480490,
      "lat": 31.4173985,
      "lon": 34.6148693000001,
      "label": "סופר רמי לוי - נתיבות",
      "text": "",
      "stayTimes": "13:00 - 13:30",
      "t_start": "2020-04-13T11:00:00",
      "t_end": "2020-04-13T11:30:00",
      "link": ""
    },
    {
      "id": 480491,
      "lat": 32.9469460930001,
      "lon": 35.174164638,
      "label": "מרכז המזון - ירכא",
      "text": "",
      "stayTimes": "20:30 - 22:30",
      "t_start": "2020-04-13T18:30:00",
      "t_end": "2020-04-13T20:30:00",
      "link": ""
    },
    {
      "id": 480492,
      "lat": 31.8135049000001,
      "lon": 34.6500062000001,
      "label": "בית הדר - אשדוד",
      "text": "",
      "stayTimes": "08:00 - 08:30",
      "t_start": "2020-04-15T06:00:00",
      "t_end": "2020-04-15T06:30:00",
      "link": ""
    },
    {
      "id": 480493,
      "lat": 32.6486540000001,
      "lon": 35.288241,
      "label": "בית אבות אור העמק - מזרע",
      "text": "",
      "stayTimes": "07:10 - 14:00",
      "t_start": "2020-04-14T05:10:00",
      "t_end": "2020-04-14T12:00:00",
      "link": ""
    },
    {
      "id": 480494,
      "lat": 32.6486540000001,
      "lon": 35.288241,
      "label": "בית אבות אור העמק - מזרע",
      "text": "",
      "stayTimes": "17:30 - 20:00",
      "t_start": "2020-04-13T15:30:00",
      "t_end": "2020-04-13T18:00:00",
      "link": ""
    },
    {
      "id": 480495,
      "lat": 32.9469460930001,
      "lon": 35.174164638,
      "label": "מרכז המזון -מרכזה - ירכא",
      "text": "",
      "stayTimes": "10:00 - 10:30",
      "t_start": "2020-04-22T08:00:00",
      "t_end": "2020-04-22T08:30:00",
      "link": ""
    },
    {
      "id": 480496,
      "lat": 31.3952914000001,
      "lon": 34.7594843000001,
      "label": "דואר - רהט",
      "text": "",
      "stayTimes": "10:00 - 11:00",
      "t_start": "2020-04-19T08:00:00",
      "t_end": "2020-04-19T09:00:00",
      "link": ""
    },
    {
      "id": 480497,
      "lat": 32.6494422000001,
      "lon": 35.2905623,
      "label": "טיב טעם - מזרע",
      "text": "",
      "stayTimes": "09:00 - 09:30",
      "t_start": "2020-04-14T07:00:00",
      "t_end": "2020-04-14T07:30:00",
      "link": ""
    },
    {
      "id": 480498,
      "lat": 32.6036544460001,
      "lon": 35.2960462290001,
      "label": "מקלות וניל - עפולה",
      "text": "",
      "stayTimes": "07:30 - 07:40",
      "t_start": "2020-04-16T05:30:00",
      "t_end": "2020-04-16T05:40:00",
      "link": ""
    },
    {
      "id": 480499,
      "lat": 32.6486540000001,
      "lon": 35.288241,
      "label": "בית אבות אור העמק - מזרע",
      "text": "",
      "stayTimes": "08:00 - 17:00",
      "t_start": "2020-04-16T06:00:00",
      "t_end": "2020-04-16T15:00:00",
      "link": ""
    },
    {
      "id": 480500,
      "lat": 31.814293956,
      "lon": 34.7764854500001,
      "label": "מעון מוריה - גדרה",
      "text": "",
      "stayTimes": "05:30 - 14:30",
      "t_start": "2020-04-13T03:30:00",
      "t_end": "2020-04-13T12:30:00",
      "link": ""
    },
    {
      "id": 480501,
      "lat": 31.814293956,
      "lon": 34.7764854500001,
      "label": "מעון מוריה - גדרה",
      "text": "",
      "stayTimes": "05:30 - 12:00",
      "t_start": "2020-04-14T03:30:00",
      "t_end": "2020-04-14T10:00:00",
      "link": ""
    },
    {
      "id": 480502,
      "lat": 32.6486540000001,
      "lon": 35.288241,
      "label": "בית אבות אור העמק - מזרע",
      "text": "",
      "stayTimes": "17:00 - 22:00",
      "t_start": "2020-04-17T15:00:00",
      "t_end": "2020-04-17T20:00:00",
      "link": ""
    },
    {
      "id": 480503,
      "lat": 32.3220808740001,
      "lon": 34.8715314300001,
      "label": "רמי לוי - נתניה",
      "text": "",
      "stayTimes": "17:30 - 18:30",
      "t_start": "2020-04-13T15:30:00",
      "t_end": "2020-04-13T16:30:00",
      "link": ""
    },
    {
      "id": 480504,
      "lat": 32.6486540000001,
      "lon": 35.288241,
      "label": "בית אבות אור העמק - מזרע",
      "text": "",
      "stayTimes": "07:00 - 10:30",
      "t_start": "2020-04-17T05:00:00",
      "t_end": "2020-04-17T08:30:00",
      "link": ""
    },
    {
      "id": 480505,
      "lat": 32.0346381780001,
      "lon": 34.8494226020001,
      "label": "סופרפארם אור יהודה - אור יהודה",
      "text": "",
      "stayTimes": "16:30 - 17:00",
      "t_start": "2020-04-13T14:30:00",
      "t_end": "2020-04-13T15:00:00",
      "link": ""
    },
    {
      "id": 480506,
      "lat": 31.792264,
      "lon": 35.2132807,
      "label": "בית מדרש \"גור\"- מניין תפילה - ירושלים",
      "text": "",
      "stayTimes": "08:00 - 16:00",
      "t_start": "2020-04-13T06:00:00",
      "t_end": "2020-04-13T14:00:00",
      "link": ""
    },
    {
      "id": 480507,
      "lat": 32.0360309000001,
      "lon": 34.7627074000001,
      "label": "ב\"ח וולפסון - חולון",
      "text": "",
      "stayTimes": "07:00 - 19:00",
      "t_start": "2020-04-13T05:00:00",
      "t_end": "2020-04-13T17:00:00",
      "link": ""
    },
    {
      "id": 480508,
      "lat": 31.6802015000001,
      "lon": 34.5695303000001,
      "label": "בית כנסת אך טוב וחסד - אשקלון",
      "text": "",
      "stayTimes": "17:00 - 19:00",
      "t_start": "2020-04-14T15:00:00",
      "t_end": "2020-04-14T17:00:00",
      "link": ""
    },
    {
      "id": 480509,
      "lat": 32.3220773940001,
      "lon": 34.8714982010001,
      "label": "רמי לוי אזור תעשיה ישן - נתניה",
      "text": "",
      "stayTimes": "17:00 - 18:30",
      "t_start": "2020-04-13T15:00:00",
      "t_end": "2020-04-13T16:30:00",
      "link": ""
    },
    {
      "id": 480510,
      "lat": 32.048760551,
      "lon": 34.8427634340001,
      "label": "מחלקת יולדות תל השומר - רמת גן",
      "text": "",
      "stayTimes": "08:00 - 23:30",
      "t_start": "2020-04-13T06:00:00",
      "t_end": "2020-04-13T21:30:00",
      "link": ""
    },
    {
      "id": 480511,
      "lat": 31.315558878,
      "lon": 34.6206675030001,
      "label": "מכבי אופקים מתחם קורונה - אופקים",
      "text": "",
      "stayTimes": "08:00 - 08:30",
      "t_start": "2020-04-13T06:00:00",
      "t_end": "2020-04-13T06:30:00",
      "link": ""
    },
    {
      "id": 480512,
      "lat": 31.6584985000001,
      "lon": 34.5694202,
      "label": "סופר יעל - אשקלון",
      "text": "",
      "stayTimes": "12:00 - 14:00",
      "t_start": "2020-04-14T10:00:00",
      "t_end": "2020-04-14T12:00:00",
      "link": ""
    },
    {
      "id": 480513,
      "lat": 32.0897515830001,
      "lon": 34.8670658130001,
      "label": "חדר מיון בלינסון - פתח תקווה",
      "text": "",
      "stayTimes": "12:00 - 21:30",
      "t_start": "2020-04-13T10:00:00",
      "t_end": "2020-04-13T19:30:00",
      "link": ""
    },
    {
      "id": 480514,
      "lat": 32.0885211360001,
      "lon": 34.869083776,
      "label": "מגה בעיר - פתח תקווה",
      "text": "",
      "stayTimes": "15:00 - 15:10",
      "t_start": "2020-04-14T13:00:00",
      "t_end": "2020-04-14T13:10:00",
      "link": ""
    },
    {
      "id": 480515,
      "lat": 31.8135049000001,
      "lon": 34.6500062000001,
      "label": "בית הדר - אשדוד",
      "text": "",
      "stayTimes": "00:00 - 23:30",
      "t_start": "2020-04-12T22:00:00",
      "t_end": "2020-04-13T21:30:00",
      "link": ""
    },
    {
      "id": 480516,
      "lat": 31.6108987960001,
      "lon": 34.764898445,
      "label": "קופת חולים כללית ב - קרית גת",
      "text": "",
      "stayTimes": "07:30 - 09:30",
      "t_start": "2020-04-13T05:30:00",
      "t_end": "2020-04-13T07:30:00",
      "link": ""
    },
    {
      "id": 480517,
      "lat": 31.9328630000001,
      "lon": 34.8887540000001,
      "label": "סופר פארם קניון רמלוד - רמלה",
      "text": "",
      "stayTimes": "15:45 - 16:45",
      "t_start": "2020-04-13T13:45:00",
      "t_end": "2020-04-13T14:45:00",
      "link": ""
    },
    {
      "id": 480518,
      "lat": 32.3221211650001,
      "lon": 34.87151949,
      "label": "רמי לוי - נתניה",
      "text": "",
      "stayTimes": "17:30 - 18:30",
      "t_start": "2020-04-13T15:30:00",
      "t_end": "2020-04-13T16:30:00",
      "link": ""
    },
    {
      "id": 480519,
      "lat": 32.322080881,
      "lon": 34.8715195010001,
      "label": "רמי לוי - נתניה",
      "text": "",
      "stayTimes": "17:30 - 18:30",
      "t_start": "2020-04-13T15:30:00",
      "t_end": "2020-04-13T16:30:00",
      "link": ""
    },
    {
      "id": 480520,
      "lat": 32.6486540000001,
      "lon": 35.288241,
      "label": "בית אבות אור העמק - מזרע",
      "text": "",
      "stayTimes": "12:30 - 15:40",
      "t_start": "2020-04-17T10:30:00",
      "t_end": "2020-04-17T13:40:00",
      "link": ""
    },
    {
      "id": 480521,
      "lat": 32.3255974950001,
      "lon": 34.8607513850001,
      "label": "סופר פארם קניון השרון - נתניה",
      "text": "",
      "stayTimes": "20:30 - 21:00",
      "t_start": "2020-04-13T18:30:00",
      "t_end": "2020-04-13T19:00:00",
      "link": ""
    },
    {
      "id": 480522,
      "lat": 31.8135049000001,
      "lon": 34.6500062000001,
      "label": "בית הדר - אשדוד",
      "text": "",
      "stayTimes": "00:00 - 23:30",
      "t_start": "2020-04-12T22:00:00",
      "t_end": "2020-04-13T21:30:00",
      "link": ""
    },
    {
      "id": 480523,
      "lat": 31.8030403000001,
      "lon": 35.2161090000001,
      "label": "מעון הורים שומרי החומות - ירושלים",
      "text": "",
      "stayTimes": "07:00 - 16:00",
      "t_start": "2020-04-13T05:00:00",
      "t_end": "2020-04-13T14:00:00",
      "link": ""
    },
    {
      "id": 480524,
      "lat": 31.9911338060001,
      "lon": 34.7607513570001,
      "label": "אושר עד - ראשון לציון",
      "text": "",
      "stayTimes": "21:00 - 22:00",
      "t_start": "2020-04-13T19:00:00",
      "t_end": "2020-04-13T20:00:00",
      "link": ""
    },
    {
      "id": 480525,
      "lat": 32.0891032000001,
      "lon": 34.8380488,
      "label": "שפע ברכת השם - בני ברק",
      "text": "",
      "stayTimes": "16:00 - 16:30",
      "t_start": "2020-04-13T14:00:00",
      "t_end": "2020-04-13T14:30:00",
      "link": ""
    },
    {
      "id": 480526,
      "lat": 32.1028236000001,
      "lon": 34.8361701000001,
      "label": "שופרסל - בני ברק",
      "text": "",
      "stayTimes": "14:30 - 15:45",
      "t_start": "2020-04-13T12:30:00",
      "t_end": "2020-04-13T13:45:00",
      "link": ""
    },
    {
      "id": 480527,
      "lat": 31.675718885,
      "lon": 34.558126859,
      "label": "דיור מוגן \"זהבית\" - אשקלון",
      "text": "",
      "stayTimes": "08:00 - 08:30",
      "t_start": "2020-04-16T06:00:00",
      "t_end": "2020-04-16T06:30:00",
      "link": ""
    },
    {
      "id": 480528,
      "lat": 31.9090748,
      "lon": 34.7988794,
      "label": "בית אבות נווה עמית רחובות - רחובות",
      "text": "",
      "stayTimes": "07:00 - 17:00",
      "t_start": "2020-04-14T05:00:00",
      "t_end": "2020-04-14T15:00:00",
      "link": ""
    },
    {
      "id": 480529,
      "lat": 31.9044489090001,
      "lon": 34.8119173950001,
      "label": "מכולת פינחסוב - רחובות",
      "text": "",
      "stayTimes": "12:30 - 12:40",
      "t_start": "2020-04-14T10:30:00",
      "t_end": "2020-04-14T10:40:00",
      "link": ""
    },
    {
      "id": 480530,
      "lat": 31.8030403000001,
      "lon": 35.2161090000001,
      "label": "מעון הורים שומרי החומות - ירושלים",
      "text": "",
      "stayTimes": "00:00 - 07:00",
      "t_start": "2020-04-12T22:00:00",
      "t_end": "2020-04-13T05:00:00",
      "link": ""
    },
    {
      "id": 480531,
      "lat": 31.6757736690001,
      "lon": 34.5581590460001,
      "label": "דיור מוגן זהבית - אשקלון",
      "text": "",
      "stayTimes": "08:00 - 08:30",
      "t_start": "2020-04-16T06:00:00",
      "t_end": "2020-04-16T06:30:00",
      "link": ""
    },
    {
      "id": 480532,
      "lat": 32.048746506,
      "lon": 34.8427672490001,
      "label": "בית חולים שיבא מעון יולדות - רמת גן",
      "text": "",
      "stayTimes": "12:00 - 17:00",
      "t_start": "2020-04-15T10:00:00",
      "t_end": "2020-04-15T15:00:00",
      "link": ""
    },
    {
      "id": 480533,
      "lat": 31.9347997570001,
      "lon": 35.0422293330001,
      "label": "סופר ברכול - מודיעין עילית",
      "text": "",
      "stayTimes": "13:30 - 14:00",
      "t_start": "2020-04-14T11:30:00",
      "t_end": "2020-04-14T12:00:00",
      "link": ""
    },
    {
      "id": 480534,
      "lat": 31.8135049000001,
      "lon": 34.6500062000001,
      "label": "בית הדר, מחלקת מונשמים ג' - אשדוד",
      "text": "",
      "stayTimes": "10:30 - 11:00",
      "t_start": "2020-04-14T08:30:00",
      "t_end": "2020-04-14T09:00:00",
      "link": ""
    },
    {
      "id": 480535,
      "lat": 31.6743269340001,
      "lon": 34.5583682710001,
      "label": "סופר הטייסים - אשקלון",
      "text": "",
      "stayTimes": "11:00 - 11:30",
      "t_start": "2020-04-16T09:00:00",
      "t_end": "2020-04-16T09:30:00",
      "link": ""
    },
    {
      "id": 480536,
      "lat": 31.668080349,
      "lon": 34.557433486,
      "label": "סיטי רחמים - אשקלון",
      "text": "",
      "stayTimes": "11:30 - 12:30",
      "t_start": "2020-04-13T09:30:00",
      "t_end": "2020-04-13T10:30:00",
      "link": ""
    },
    {
      "id": 480537,
      "lat": 31.788231066,
      "lon": 35.2212232360001,
      "label": "חנות זול בגדול - ירושלים",
      "text": "",
      "stayTimes": "15:00 - 15:30",
      "t_start": "2020-04-13T13:00:00",
      "t_end": "2020-04-13T13:30:00",
      "link": ""
    },
    {
      "id": 480538,
      "lat": 31.6577452000001,
      "lon": 34.5884741,
      "label": "טיב טעם - אשקלון",
      "text": "",
      "stayTimes": "14:30 - 15:30",
      "t_start": "2020-04-15T12:30:00",
      "t_end": "2020-04-15T13:30:00",
      "link": ""
    },
    {
      "id": 480539,
      "lat": 31.6743269340001,
      "lon": 34.5583682710001,
      "label": "חנות אוכל טייסים - אשקלון",
      "text": "",
      "stayTimes": "13:00 - 13:30",
      "t_start": "2020-04-15T11:00:00",
      "t_end": "2020-04-15T11:30:00",
      "link": ""
    },
    {
      "id": 480540,
      "lat": 31.6757736690001,
      "lon": 34.558126859,
      "label": "דיור מוגן זהבית - אשקלון",
      "text": "",
      "stayTimes": "08:00 - 23:30",
      "t_start": "2020-04-15T06:00:00",
      "t_end": "2020-04-15T21:30:00",
      "link": ""
    },
    {
      "id": 480541,
      "lat": 31.8161982450001,
      "lon": 35.1913211400001,
      "label": "סופר נוח - ירושלים",
      "text": "",
      "stayTimes": "10:00 - 10:30",
      "t_start": "2020-04-13T08:00:00",
      "t_end": "2020-04-13T08:30:00",
      "link": ""
    },
    {
      "id": 480542,
      "lat": 31.8162614660001,
      "lon": 35.2026989140001,
      "label": "קופת חולים כללית רמות א - ירושלים",
      "text": "",
      "stayTimes": "11:00 - 11:30",
      "t_start": "2020-04-13T09:00:00",
      "t_end": "2020-04-13T09:30:00",
      "link": ""
    },
    {
      "id": 480543,
      "lat": 31.746205118,
      "lon": 34.9999872510001,
      "label": "זול ובגדול - בית שמש",
      "text": "",
      "stayTimes": "11:00 - 11:30",
      "t_start": "2020-04-16T09:00:00",
      "t_end": "2020-04-16T09:30:00",
      "link": ""
    },
    {
      "id": 480544,
      "lat": 31.7855956670001,
      "lon": 35.2256001110001,
      "label": "מרפאת מאוחדת - ירושלים",
      "text": "",
      "stayTimes": "13:00 - 13:30",
      "t_start": "2020-04-13T11:00:00",
      "t_end": "2020-04-13T11:30:00",
      "link": ""
    },
    {
      "id": 480545,
      "lat": 31.786257753,
      "lon": 35.1836297,
      "label": "מוסך מאפיית \"ברמן\" - ירושלים",
      "text": "",
      "stayTimes": "07:30 - 16:30",
      "t_start": "2020-04-16T05:30:00",
      "t_end": "2020-04-16T14:30:00",
      "link": ""
    },
    {
      "id": 480546,
      "lat": 31.793497605,
      "lon": 35.205474683,
      "label": "בית אבות גני אורה - ירושלים",
      "text": "",
      "stayTimes": "08:00 - 08:30",
      "t_start": "2020-04-15T06:00:00",
      "t_end": "2020-04-15T06:30:00",
      "link": ""
    },
    {
      "id": 480547,
      "lat": 32.6486540000001,
      "lon": 35.288241,
      "label": "בית אבות אור העמק - מזרע",
      "text": "",
      "stayTimes": "07:15 - 17:30",
      "t_start": "2020-04-13T05:15:00",
      "t_end": "2020-04-13T15:30:00",
      "link": ""
    },
    {
      "id": 480548,
      "lat": 32.9198531220001,
      "lon": 35.092241195,
      "label": "סופרמרקט ויקטורי - עכו",
      "text": "",
      "stayTimes": "17:00 - 18:00",
      "t_start": "2020-04-13T15:00:00",
      "t_end": "2020-04-13T16:00:00",
      "link": ""
    },
    {
      "id": 480549,
      "lat": 32.0790865270001,
      "lon": 34.840483497,
      "label": "סופר \"יש חסד \" - בני ברק",
      "text": "",
      "stayTimes": "18:00 - 19:00",
      "t_start": "2020-04-14T16:00:00",
      "t_end": "2020-04-14T17:00:00",
      "link": ""
    },
    {
      "id": 480550,
      "lat": 31.894559746,
      "lon": 34.8040664160001,
      "label": "רמז מרכז מקצועי קופ\"ח כללית - רחובות",
      "text": "",
      "stayTimes": "08:00 - 08:30",
      "t_start": "2020-04-13T06:00:00",
      "t_end": "2020-04-13T06:30:00",
      "link": ""
    },
    {
      "id": 480551,
      "lat": 32.9345874040001,
      "lon": 35.268433067,
      "label": "חצר קניון דבאח - דייר אל-אסד",
      "text": "",
      "stayTimes": "13:30 - 14:30",
      "t_start": "2020-04-14T11:30:00",
      "t_end": "2020-04-14T12:30:00",
      "link": ""
    },
    {
      "id": 480552,
      "lat": 31.789385764,
      "lon": 34.6649219500001,
      "label": "סופר נתיב החסד - אשדוד",
      "text": "",
      "stayTimes": "12:30 - 13:30",
      "t_start": "2020-04-13T10:30:00",
      "t_end": "2020-04-13T11:30:00",
      "link": ""
    },
    {
      "id": 480553,
      "lat": 31.7849069870001,
      "lon": 34.659511062,
      "label": "יינות ביתן - אשדוד",
      "text": "",
      "stayTimes": "08:00 - 09:00",
      "t_start": "2020-04-13T06:00:00",
      "t_end": "2020-04-13T07:00:00",
      "link": ""
    },
    {
      "id": 480554,
      "lat": 32.0852925070001,
      "lon": 34.8116566630001,
      "label": "סופרסל שלי בקניון - רמת גן",
      "text": "",
      "stayTimes": "15:30 - 15:40",
      "t_start": "2020-04-14T13:30:00",
      "t_end": "2020-04-14T13:40:00",
      "link": ""
    },
    {
      "id": 480555,
      "lat": 32.621038034,
      "lon": 35.3165950600001,
      "label": "בית חולים עפולה , מחלקת טיפול נמרץ - עפולה",
      "text": "",
      "stayTimes": "08:00 - 08:30",
      "t_start": "2020-04-14T06:00:00",
      "t_end": "2020-04-14T06:30:00",
      "link": ""
    },
    {
      "id": 480556,
      "lat": 31.3733931,
      "lon": 34.8092845,
      "label": "מחסני השוק להבים - להבים",
      "text": "",
      "stayTimes": "11:00 - 11:30",
      "t_start": "2020-04-16T09:00:00",
      "t_end": "2020-04-16T09:30:00",
      "link": ""
    },
    {
      "id": 480557,
      "lat": 31.7949201380001,
      "lon": 34.6399715370001,
      "label": "סופרפארם - אשדוד",
      "text": "",
      "stayTimes": "20:30 - 21:00",
      "t_start": "2020-04-14T18:30:00",
      "t_end": "2020-04-14T19:00:00",
      "link": ""
    },
    {
      "id": 480558,
      "lat": 32.1823231000001,
      "lon": 34.8954868000001,
      "label": "בי\"ח מאיר- יחידה זיהומולוגית - כפר סבא",
      "text": "",
      "stayTimes": "08:30 - 09:00",
      "t_start": "2020-04-17T06:30:00",
      "t_end": "2020-04-17T07:00:00",
      "link": ""
    },
    {
      "id": 480559,
      "lat": 32.1841665000001,
      "lon": 34.8531795000001,
      "label": "סופר פארם - רעננה",
      "text": "",
      "stayTimes": "18:15 - 18:30",
      "t_start": "2020-04-16T16:15:00",
      "t_end": "2020-04-16T16:30:00",
      "link": ""
    },
    {
      "id": 480560,
      "lat": 32.1836543000001,
      "lon": 34.8530601000001,
      "label": "טיב טעם - רעננה",
      "text": "",
      "stayTimes": "19:00 - 19:30",
      "t_start": "2020-04-16T17:00:00",
      "t_end": "2020-04-16T17:30:00",
      "link": ""
    },
    {
      "id": 480561,
      "lat": 32.189621749,
      "lon": 34.854761931,
      "label": "עמנואל - רעננה",
      "text": "",
      "stayTimes": "15:00 - 15:15",
      "t_start": "2020-04-14T13:00:00",
      "t_end": "2020-04-14T13:15:00",
      "link": ""
    },
    {
      "id": 480562,
      "lat": 32.986226855,
      "lon": 35.0958594580001,
      "label": "שוק פייסל הגדול - מזרעה",
      "text": "",
      "stayTimes": "16:00 - 18:00",
      "t_start": "2020-04-13T14:00:00",
      "t_end": "2020-04-13T16:00:00",
      "link": ""
    },
    {
      "id": 480563,
      "lat": 32.986226855,
      "lon": 35.0958594580001,
      "label": "שוק פייסל הגדול - מזרעה",
      "text": "",
      "stayTimes": "16:00 - 18:00",
      "t_start": "2020-04-13T14:00:00",
      "t_end": "2020-04-13T16:00:00",
      "link": ""
    },
    {
      "id": 480564,
      "lat": 31.2700671310001,
      "lon": 34.796756788,
      "label": "מגה בעיר - באר שבע",
      "text": "",
      "stayTimes": "12:00 - 14:00",
      "t_start": "2020-04-13T10:00:00",
      "t_end": "2020-04-13T12:00:00",
      "link": ""
    },
    {
      "id": 480565,
      "lat": 31.2700671310001,
      "lon": 34.796756788,
      "label": "מכולת הכוכב - באר שבע",
      "text": "",
      "stayTimes": "12:00 - 13:00",
      "t_start": "2020-04-14T10:00:00",
      "t_end": "2020-04-14T11:00:00",
      "link": ""
    },
    {
      "id": 480566,
      "lat": 32.1810270340001,
      "lon": 34.8948060590001,
      "label": "מיון בית חולים מאיר - כפר סבא",
      "text": "",
      "stayTimes": "20:00 - 23:30",
      "t_start": "2020-04-13T18:00:00",
      "t_end": "2020-04-13T21:30:00",
      "link": ""
    },
    {
      "id": 480567,
      "lat": 32.09055499,
      "lon": 34.867065283,
      "label": "מיון בית חולים בלינסון - פתח תקווה",
      "text": "",
      "stayTimes": "13:00 - 23:30",
      "t_start": "2020-04-16T11:00:00",
      "t_end": "2020-04-16T21:30:00",
      "link": ""
    },
    {
      "id": 480568,
      "lat": 31.7949197,
      "lon": 34.6399758000001,
      "label": "סופר פארם - אשדוד",
      "text": "",
      "stayTimes": "20:30 - 21:00",
      "t_start": "2020-04-14T18:30:00",
      "t_end": "2020-04-14T19:00:00",
      "link": ""
    },
    {
      "id": 480569,
      "lat": 32.232983893,
      "lon": 34.9755923590001,
      "label": "\"ירקות ממדוח\" - טירה",
      "text": "",
      "stayTimes": "09:30 - 09:40",
      "t_start": "2020-04-17T07:30:00",
      "t_end": "2020-04-17T07:40:00",
      "link": ""
    },
    {
      "id": 480570,
      "lat": 32.924240438,
      "lon": 35.2767429360001,
      "label": "סופרמרקט- דבאח ובניו - דייר אל-אסד",
      "text": "",
      "stayTimes": "08:00 - 15:30",
      "t_start": "2020-04-14T06:00:00",
      "t_end": "2020-04-14T13:30:00",
      "link": ""
    },
    {
      "id": 480571,
      "lat": 32.9238802100001,
      "lon": 35.277418852,
      "label": "סופרמרקט- דאבאח ובניו - דייר אל-אסד",
      "text": "",
      "stayTimes": "15:00 - 20:30",
      "t_start": "2020-04-15T13:00:00",
      "t_end": "2020-04-15T18:30:00",
      "link": ""
    },
    {
      "id": 480572,
      "lat": 32.9230336680001,
      "lon": 35.27955389,
      "label": "סופרמרקט- דבאח ובניו - דייר אל-אסד",
      "text": "",
      "stayTimes": "12:30 - 21:00",
      "t_start": "2020-04-16T10:30:00",
      "t_end": "2020-04-16T19:00:00",
      "link": ""
    },
    {
      "id": 480573,
      "lat": 32.9244025410001,
      "lon": 35.276978969,
      "label": "סופרמרקט- דבאח ובניו - דייר אל-אסד",
      "text": "",
      "stayTimes": "15:00 - 18:00",
      "t_start": "2020-04-17T13:00:00",
      "t_end": "2020-04-17T16:00:00",
      "link": ""
    },
    {
      "id": 480574,
      "lat": 31.7135938260001,
      "lon": 34.9981497320001,
      "label": "בסט סופר - בית שמש",
      "text": "",
      "stayTimes": "21:30 - 22:30",
      "t_start": "2020-04-15T19:30:00",
      "t_end": "2020-04-15T20:30:00",
      "link": ""
    },
    {
      "id": 480575,
      "lat": 31.801014567,
      "lon": 34.647436731,
      "label": "בית מרקחת \"לאומית\" - אשדוד",
      "text": "",
      "stayTimes": "11:00 - 12:00",
      "t_start": "2020-04-13T09:00:00",
      "t_end": "2020-04-13T10:00:00",
      "link": ""
    },
    {
      "id": 480576,
      "lat": 32.1823231000001,
      "lon": 34.8954868000001,
      "label": "בי\"ח מאיר- מחלקה פנימית ד' - כפר סבא",
      "text": "",
      "stayTimes": "07:00 - 19:00",
      "t_start": "2020-04-15T05:00:00",
      "t_end": "2020-04-15T17:00:00",
      "link": ""
    },
    {
      "id": 480577,
      "lat": 32.028290579,
      "lon": 34.7483266520001,
      "label": "בי\"ח שיקומי בית בלב - בת ים",
      "text": "",
      "stayTimes": "10:00 - 11:00",
      "t_start": "2020-04-17T08:00:00",
      "t_end": "2020-04-17T09:00:00",
      "link": ""
    },
    {
      "id": 480578,
      "lat": 32.181691662,
      "lon": 34.8960960370001,
      "label": "רשת BE פארם - כפר סבא",
      "text": "",
      "stayTimes": "09:05 - 09:10",
      "t_start": "2020-04-17T07:05:00",
      "t_end": "2020-04-17T07:10:00",
      "link": ""
    },
    {
      "id": 480579,
      "lat": 32.9235495,
      "lon": 35.3140916,
      "label": "מפעל דבאח בכרמיאל - כרמיאל",
      "text": "",
      "stayTimes": "07:00 - 18:00",
      "t_start": "2020-04-15T05:00:00",
      "t_end": "2020-04-15T16:00:00",
      "link": ""
    },
    {
      "id": 480580,
      "lat": 31.8153024150001,
      "lon": 35.2149615700001,
      "label": "הוסטל הלב והמעין רמת שלמה - ירושלים",
      "text": "",
      "stayTimes": "13:30 - 21:30",
      "t_start": "2020-04-16T11:30:00",
      "t_end": "2020-04-16T19:30:00",
      "link": ""
    },
    {
      "id": 480581,
      "lat": 32.182385713,
      "lon": 34.895502509,
      "label": "מיון נשימתי בי\"ח מאיר - כפר סבא",
      "text": "",
      "stayTimes": "18:30 - 23:59",
      "t_start": "2020-04-18T16:30:00",
      "t_end": "2020-04-18T21:59:00",
      "link": ""
    },
    {
      "id": 480582,
      "lat": 31.6928544,
      "lon": 35.1096686000001,
      "label": "חסד לאלפים - ביתר עילית",
      "text": "",
      "stayTimes": "02:00 - 03:00",
      "t_start": "2020-04-16T00:00:00",
      "t_end": "2020-04-16T01:00:00",
      "link": ""
    },
    {
      "id": 480583,
      "lat": 31.41472,
      "lon": 34.578362,
      "label": "בית כנסת קול יעקוב - נתיבות",
      "text": "",
      "stayTimes": "13:00 - 15:30",
      "t_start": "2020-04-16T11:00:00",
      "t_end": "2020-04-16T13:30:00",
      "link": ""
    },
    {
      "id": 480584,
      "lat": 32.0756564980001,
      "lon": 34.8363558280001,
      "label": "סופר ברכה - בני ברק",
      "text": "",
      "stayTimes": "11:00 - 11:30",
      "t_start": "2020-04-14T09:00:00",
      "t_end": "2020-04-14T09:30:00",
      "link": ""
    },
    {
      "id": 480585,
      "lat": 32.057107,
      "lon": 34.8691424,
      "label": "בית מרקחת סופר פארם גבעת סביון - גני תקווה",
      "text": "",
      "stayTimes": "12:15 - 13:00",
      "t_start": "2020-04-14T10:15:00",
      "t_end": "2020-04-14T11:00:00",
      "link": ""
    },
    {
      "id": 480586,
      "lat": 32.0295718300001,
      "lon": 34.845199742,
      "label": "קופ\"ח כללית - אור יהודה",
      "text": "",
      "stayTimes": "10:00 - 12:00",
      "t_start": "2020-04-16T08:00:00",
      "t_end": "2020-04-16T10:00:00",
      "link": ""
    },
    {
      "id": 480587,
      "lat": 32.0862216,
      "lon": 34.8530480000001,
      "label": "סופר ברקת - גבעת שמואל",
      "text": "",
      "stayTimes": "12:00 - 13:00",
      "t_start": "2020-04-17T10:00:00",
      "t_end": "2020-04-17T11:00:00",
      "link": ""
    },
    {
      "id": 480588,
      "lat": 31.697211822,
      "lon": 35.120860248,
      "label": "סופר שפע חיים - ביתר עילית",
      "text": "",
      "stayTimes": "09:00 - 11:00",
      "t_start": "2020-04-16T07:00:00",
      "t_end": "2020-04-16T09:00:00",
      "link": ""
    },
    {
      "id": 480589,
      "lat": 32.6413986200001,
      "lon": 35.3596814090001,
      "label": "\"יכין\" אלון תבור, מחלקת ירקות - עפולה",
      "text": "",
      "stayTimes": "06:30 - 10:30",
      "t_start": "2020-04-16T04:30:00",
      "t_end": "2020-04-16T08:30:00",
      "link": ""
    },
    {
      "id": 480590,
      "lat": 32.621038034,
      "lon": 35.3165950600001,
      "label": "מיון ביח' העמק - עפולה",
      "text": "",
      "stayTimes": "10:30 - 11:30",
      "t_start": "2020-04-16T08:30:00",
      "t_end": "2020-04-16T09:30:00",
      "link": ""
    },
    {
      "id": 480591,
      "lat": 32.0129061690001,
      "lon": 34.804263658,
      "label": "מפעל מוצרי נייר דפניר - חולון",
      "text": "",
      "stayTimes": "08:00 - 08:30",
      "t_start": "2020-04-13T06:00:00",
      "t_end": "2020-04-13T06:30:00",
      "link": ""
    },
    {
      "id": 480592,
      "lat": 31.7841080920001,
      "lon": 34.6528039030001,
      "label": "אסותא כלניות - אשדוד",
      "text": "",
      "stayTimes": "12:00 - 14:00",
      "t_start": "2020-04-14T10:00:00",
      "t_end": "2020-04-14T12:00:00",
      "link": ""
    },
    {
      "id": 480593,
      "lat": 32.7130058700001,
      "lon": 35.3357284310001,
      "label": "מרכאזה - נוף הגליל",
      "text": "",
      "stayTimes": "12:30 - 13:45",
      "t_start": "2020-04-16T10:30:00",
      "t_end": "2020-04-16T11:45:00",
      "link": ""
    },
    {
      "id": 480594,
      "lat": 31.791654571,
      "lon": 34.668152578,
      "label": "סופר נתיב החסד - אשדוד",
      "text": "",
      "stayTimes": "09:30 - 10:30",
      "t_start": "2020-04-13T07:30:00",
      "t_end": "2020-04-13T08:30:00",
      "link": ""
    },
    {
      "id": 480595,
      "lat": 31.792128765,
      "lon": 34.667103534,
      "label": "סופר נתיב החסד - אשדוד",
      "text": "",
      "stayTimes": "09:30 - 10:30",
      "t_start": "2020-04-15T07:30:00",
      "t_end": "2020-04-15T08:30:00",
      "link": ""
    },
    {
      "id": 480596,
      "lat": 31.7921053800001,
      "lon": 34.667089359,
      "label": "סופר נתיב החסד - אשדוד",
      "text": "",
      "stayTimes": "09:30 - 10:30",
      "t_start": "2020-04-16T07:30:00",
      "t_end": "2020-04-16T08:30:00",
      "link": ""
    },
    {
      "id": 480597,
      "lat": 32.0999678970001,
      "lon": 34.8952338130001,
      "label": "שופרסל דיל - פתח תקווה",
      "text": "",
      "stayTimes": "08:00 - 08:30",
      "t_start": "2020-04-16T06:00:00",
      "t_end": "2020-04-16T06:30:00",
      "link": ""
    },
    {
      "id": 480598,
      "lat": 32.0999678970001,
      "lon": 34.8952338130001,
      "label": "שופרסל דיל - פתח תקווה",
      "text": "",
      "stayTimes": "08:00 - 08:30",
      "t_start": "2020-04-14T06:00:00",
      "t_end": "2020-04-14T06:30:00",
      "link": ""
    },
    {
      "id": 480599,
      "lat": 31.4213816120001,
      "lon": 34.600072927,
      "label": "פיצוחי דני - נתיבות",
      "text": "",
      "stayTimes": "15:00 - 15:30",
      "t_start": "2020-04-14T13:00:00",
      "t_end": "2020-04-14T13:30:00",
      "link": ""
    },
    {
      "id": 480600,
      "lat": 32.6933943000001,
      "lon": 35.3034068000001,
      "label": "משהדאוי קינג סטור - נוף הגליל",
      "text": "",
      "stayTimes": "14:00 - 14:45",
      "t_start": "2020-04-16T12:00:00",
      "t_end": "2020-04-16T12:45:00",
      "link": ""
    },
    {
      "id": 480601,
      "lat": 32.0256611360001,
      "lon": 34.7573726840001,
      "label": "בית חולים אברבנל - בת ים",
      "text": "",
      "stayTimes": "00:00 - 23:59",
      "t_start": "2020-04-12T22:00:00",
      "t_end": "2020-04-13T21:59:00",
      "link": ""
    },
    {
      "id": 480602,
      "lat": 32.0256611360001,
      "lon": 34.7573726840001,
      "label": "בית חולים אברבנל - בת ים",
      "text": "",
      "stayTimes": "00:00 - 23:59",
      "t_start": "2020-04-13T22:00:00",
      "t_end": "2020-04-14T21:59:00",
      "link": ""
    },
    {
      "id": 480603,
      "lat": 32.0256611360001,
      "lon": 34.7573726840001,
      "label": "בית חולים אברבנל - בת ים",
      "text": "",
      "stayTimes": "00:00 - 23:59",
      "t_start": "2020-04-14T22:00:00",
      "t_end": "2020-04-15T21:59:00",
      "link": ""
    },
    {
      "id": 480604,
      "lat": 32.0256611360001,
      "lon": 34.7573726840001,
      "label": "בית חולים אברבנל - בת ים",
      "text": "",
      "stayTimes": "00:00 - 23:59",
      "t_start": "2020-04-15T22:00:00",
      "t_end": "2020-04-16T21:59:00",
      "link": ""
    },
    {
      "id": 480605,
      "lat": 32.0481437330001,
      "lon": 34.8442158660001,
      "label": "בית חולים שיבא,פנימית א - רמת גן",
      "text": "",
      "stayTimes": "00:00 - 07:30",
      "t_start": "2020-04-14T22:00:00",
      "t_end": "2020-04-15T05:30:00",
      "link": ""
    },
    {
      "id": 480606,
      "lat": 32.0482594110001,
      "lon": 34.843937505,
      "label": "בית חולים שיבא,פנימית א - רמת גן",
      "text": "",
      "stayTimes": "07:00 - 19:30",
      "t_start": "2020-04-16T05:00:00",
      "t_end": "2020-04-16T17:30:00",
      "link": ""
    },
    {
      "id": 480607,
      "lat": 32.0482649940001,
      "lon": 34.8439179160001,
      "label": "בית חולים שיבא,פנימית א - רמת גן",
      "text": "",
      "stayTimes": "19:00 - 23:59",
      "t_start": "2020-04-17T17:00:00",
      "t_end": "2020-04-17T21:59:00",
      "link": ""
    },
    {
      "id": 480608,
      "lat": 32.0482649960001,
      "lon": 34.8439345130001,
      "label": "בית חולים שיבא,פנימית א - רמת גן",
      "text": "",
      "stayTimes": "00:00 - 07:30",
      "t_start": "2020-04-17T22:00:00",
      "t_end": "2020-04-18T05:30:00",
      "link": ""
    },
    {
      "id": 480609,
      "lat": 31.7880137970001,
      "lon": 34.6440177630001,
      "label": "מרפאה בבית פרימאק - אשדוד",
      "text": "",
      "stayTimes": "17:30 - 18:30",
      "t_start": "2020-04-16T15:30:00",
      "t_end": "2020-04-16T16:30:00",
      "link": ""
    },
    {
      "id": 480610,
      "lat": 32.986226855,
      "lon": 35.0958594580001,
      "label": "שוק פייסל  מזרעה - מזרעה",
      "text": "",
      "stayTimes": "16:00 - 18:00",
      "t_start": "2020-04-13T14:00:00",
      "t_end": "2020-04-13T16:00:00",
      "link": ""
    },
    {
      "id": 480611,
      "lat": 32.1024538980001,
      "lon": 34.896089196,
      "label": "פלאפון - פתח תקווה",
      "text": "",
      "stayTimes": "09:15 - 09:30",
      "t_start": "2020-04-17T07:15:00",
      "t_end": "2020-04-17T07:30:00",
      "link": ""
    },
    {
      "id": 480612,
      "lat": 32.083765934,
      "lon": 34.8073842680001,
      "label": "MF MOBILE - רמת גן",
      "text": "",
      "stayTimes": "06:00 - 10:00",
      "t_start": "2020-04-16T04:00:00",
      "t_end": "2020-04-16T08:00:00",
      "link": ""
    },
    {
      "id": 480613,
      "lat": 32.0835023160001,
      "lon": 34.8072072420001,
      "label": "MF MOBILE - רמת גן",
      "text": "",
      "stayTimes": "11:00 - 13:00",
      "t_start": "2020-04-16T09:00:00",
      "t_end": "2020-04-16T11:00:00",
      "link": ""
    },
    {
      "id": 480614,
      "lat": 32.621038034,
      "lon": 35.3165950600001,
      "label": "מח' אורולוגית ביח' העמק - עפולה",
      "text": "",
      "stayTimes": "08:00 - 23:30",
      "t_start": "2020-04-16T06:00:00",
      "t_end": "2020-04-16T21:30:00",
      "link": ""
    },
    {
      "id": 480615,
      "lat": 32.621038034,
      "lon": 35.3165950600001,
      "label": "מח' אורולוגית ביח' העמק - עפולה",
      "text": "",
      "stayTimes": "08:00 - 23:30",
      "t_start": "2020-04-17T06:00:00",
      "t_end": "2020-04-17T21:30:00",
      "link": ""
    },
    {
      "id": 480616,
      "lat": 32.621038034,
      "lon": 35.3165950600001,
      "label": "מח' אורולוגית ביח' העמק - עפולה",
      "text": "",
      "stayTimes": "08:00 - 23:30",
      "t_start": "2020-04-18T06:00:00",
      "t_end": "2020-04-18T21:30:00",
      "link": ""
    },
    {
      "id": 480617,
      "lat": 32.621038034,
      "lon": 35.3165950600001,
      "label": "מיון פנימי ביח' העמק - עפולה",
      "text": "",
      "stayTimes": "17:30 - 23:59",
      "t_start": "2020-04-16T15:30:00",
      "t_end": "2020-04-16T21:59:00",
      "link": ""
    },
    {
      "id": 480618,
      "lat": 32.621038034,
      "lon": 35.3165950600001,
      "label": "מיון פנימי ביח' העמק - עפולה",
      "text": "",
      "stayTimes": "00:00 - 23:30",
      "t_start": "2020-04-16T22:00:00",
      "t_end": "2020-04-17T21:30:00",
      "link": ""
    },
    {
      "id": 480619,
      "lat": 31.9374902430001,
      "lon": 35.043191828,
      "label": "מכולת ברכת הרשבי - מודיעין עילית",
      "text": "",
      "stayTimes": "10:00 - 10:45",
      "t_start": "2020-04-13T08:00:00",
      "t_end": "2020-04-13T08:45:00",
      "link": ""
    },
    {
      "id": 480620,
      "lat": 32.0452360780001,
      "lon": 34.842521306,
      "label": "מיון תל השומר - רמת גן",
      "text": "",
      "stayTimes": "08:00 - 10:30",
      "t_start": "2020-04-20T06:00:00",
      "t_end": "2020-04-20T08:30:00",
      "link": ""
    },
    {
      "id": 480621,
      "lat": 32.7130058700001,
      "lon": 35.3357284310001,
      "label": "מרכאזה - נוף הגליל",
      "text": "",
      "stayTimes": "14:00 - 16:00",
      "t_start": "2020-04-14T12:00:00",
      "t_end": "2020-04-14T14:00:00",
      "link": ""
    },
    {
      "id": 480622,
      "lat": 32.621038034,
      "lon": 35.3165950600001,
      "label": "מח' אורולוגית ביח' העמק - עפולה",
      "text": "",
      "stayTimes": "08:00 - 23:30",
      "t_start": "2020-04-13T06:00:00",
      "t_end": "2020-04-13T21:30:00",
      "link": ""
    },
    {
      "id": 480623,
      "lat": 32.621038034,
      "lon": 35.3165950600001,
      "label": "מח' אורולוגית ביח' העמק - עפולה",
      "text": "",
      "stayTimes": "08:00 - 23:30",
      "t_start": "2020-04-14T06:00:00",
      "t_end": "2020-04-14T21:30:00",
      "link": ""
    },
    {
      "id": 480624,
      "lat": 32.621038034,
      "lon": 35.3165950600001,
      "label": "מח' אורולוגית ביח' העמק - עפולה",
      "text": "",
      "stayTimes": "08:00 - 23:30",
      "t_start": "2020-04-15T06:00:00",
      "t_end": "2020-04-15T21:30:00",
      "link": ""
    },
    {
      "id": 480625,
      "lat": 31.6928544,
      "lon": 35.1096686000001,
      "label": "חסד לאלפים - ביתר עילית",
      "text": "",
      "stayTimes": "02:00 - 03:00",
      "t_start": "2020-04-16T00:00:00",
      "t_end": "2020-04-16T01:00:00",
      "link": ""
    },
    {
      "id": 480626,
      "lat": 31.6904939,
      "lon": 35.1084599000001,
      "label": "שפע ברכת ה' - ביתר עילית",
      "text": "",
      "stayTimes": "10:00 - 11:30",
      "t_start": "2020-04-14T08:00:00",
      "t_end": "2020-04-14T09:30:00",
      "link": ""
    },
    {
      "id": 480627,
      "lat": 32.9235793720001,
      "lon": 35.314100136,
      "label": "באסם דאבח בע\"מ - כרמיאל",
      "text": "",
      "stayTimes": "07:00 - 17:00",
      "t_start": "2020-04-13T05:00:00",
      "t_end": "2020-04-13T15:00:00",
      "link": ""
    },
    {
      "id": 480628,
      "lat": 32.642628013,
      "lon": 35.0918972360001,
      "label": "שופרסל ביג - יקנעם עילית",
      "text": "",
      "stayTimes": "09:00 - 10:00",
      "t_start": "2020-04-17T07:00:00",
      "t_end": "2020-04-17T08:00:00",
      "link": ""
    },
    {
      "id": 480629,
      "lat": 32.7338385,
      "lon": 35.1403368000001,
      "label": "מוסך רכב, ח'אלד זובידאת - בסמת טבעון",
      "text": "",
      "stayTimes": "14:00 - 14:30",
      "t_start": "2020-04-17T12:00:00",
      "t_end": "2020-04-17T12:30:00",
      "link": ""
    },
    {
      "id": 480630,
      "lat": 32.0484680760001,
      "lon": 34.8434910710001,
      "label": "בית חולים שיבא,פנימית א - רמת גן",
      "text": "",
      "stayTimes": "07:00 - 19:00",
      "t_start": "2020-04-13T05:00:00",
      "t_end": "2020-04-13T17:00:00",
      "link": ""
    },
    {
      "id": 480631,
      "lat": 32.0484680760001,
      "lon": 34.8434910710001,
      "label": "בית חולים שיבא,פנימית א - רמת גן",
      "text": "",
      "stayTimes": "19:00 - 23:59",
      "t_start": "2020-04-14T17:00:00",
      "t_end": "2020-04-14T21:59:00",
      "link": ""
    },
    {
      "id": 480632,
      "lat": 31.2135308480001,
      "lon": 34.8110135210001,
      "label": "סופר אושר עד - באר שבע",
      "text": "",
      "stayTimes": "08:00 - 08:30",
      "t_start": "2020-04-17T06:00:00",
      "t_end": "2020-04-17T06:30:00",
      "link": ""
    },
    {
      "id": 480633,
      "lat": 32.0484680760001,
      "lon": 34.8434910710001,
      "label": "בית חולים שיבא,פנימית א - רמת גן",
      "text": "",
      "stayTimes": "07:00 - 19:00",
      "t_start": "2020-04-16T05:00:00",
      "t_end": "2020-04-16T17:00:00",
      "link": ""
    },
    {
      "id": 480634,
      "lat": 32.0484680760001,
      "lon": 34.8434910710001,
      "label": "בית חולים שיבא,פנימית א - רמת גן",
      "text": "",
      "stayTimes": "07:00 - 19:00",
      "t_start": "2020-04-19T05:00:00",
      "t_end": "2020-04-19T17:00:00",
      "link": ""
    },
    {
      "id": 480635,
      "lat": 32.0484680760001,
      "lon": 34.8434910710001,
      "label": "בית חולים שיבא,פנימית א - רמת גן",
      "text": "",
      "stayTimes": "07:00 - 19:00",
      "t_start": "2020-04-13T05:00:00",
      "t_end": "2020-04-13T17:00:00",
      "link": ""
    },
    {
      "id": 480636,
      "lat": 32.0525778960001,
      "lon": 34.9511771420001,
      "label": "יש חסד - אלעד",
      "text": "",
      "stayTimes": "11:30 - 11:50",
      "t_start": "2020-04-19T09:30:00",
      "t_end": "2020-04-19T09:50:00",
      "link": ""
    },
    {
      "id": 480637,
      "lat": 31.7997442980001,
      "lon": 34.6623996050001,
      "label": "יש חסד - אשדוד",
      "text": "",
      "stayTimes": "13:00 - 13:10",
      "t_start": "2020-04-14T11:00:00",
      "t_end": "2020-04-14T11:10:00",
      "link": ""
    },
    {
      "id": 480638,
      "lat": 31.7997442980001,
      "lon": 34.6623996050001,
      "label": "יש חסד - אשדוד",
      "text": "",
      "stayTimes": "14:00 - 14:10",
      "t_start": "2020-04-14T12:00:00",
      "t_end": "2020-04-14T12:10:00",
      "link": ""
    },
    {
      "id": 480639,
      "lat": 32.0556761820001,
      "lon": 34.9606221220001,
      "label": "דואר - אלעד",
      "text": "",
      "stayTimes": "10:50 - 11:15",
      "t_start": "2020-04-19T08:50:00",
      "t_end": "2020-04-19T09:15:00",
      "link": ""
    },
    {
      "id": 480640,
      "lat": 32.0946102820001,
      "lon": 34.8857519630001,
      "label": "HOT MOBILE - פתח תקווה",
      "text": "",
      "stayTimes": "12:00 - 12:45",
      "t_start": "2020-04-17T10:00:00",
      "t_end": "2020-04-17T10:45:00",
      "link": ""
    },
    {
      "id": 480641,
      "lat": 31.7915405540001,
      "lon": 35.1995432150001,
      "label": "תחנת מד\"א שנלר - ירושלים",
      "text": "",
      "stayTimes": "15:30 - 17:00",
      "t_start": "2020-04-16T13:30:00",
      "t_end": "2020-04-16T15:00:00",
      "link": ""
    },
    {
      "id": 480642,
      "lat": 31.7915405540001,
      "lon": 35.1995432150001,
      "label": "תחנת מד\"א שנלר - ירושלים",
      "text": "",
      "stayTimes": "15:30 - 17:00",
      "t_start": "2020-04-16T13:30:00",
      "t_end": "2020-04-16T15:00:00",
      "link": ""
    },
    {
      "id": 480643,
      "lat": 32.090821981,
      "lon": 34.8388174410001,
      "label": "\"יש\" - בני ברק",
      "text": "",
      "stayTimes": "19:30 - 20:00",
      "t_start": "2020-04-16T17:30:00",
      "t_end": "2020-04-16T18:00:00",
      "link": ""
    },
    {
      "id": 480644,
      "lat": 31.7915405540001,
      "lon": 35.1995432150001,
      "label": "תחנת מד\"א שנלר - ירושלים",
      "text": "",
      "stayTimes": "15:30 - 17:00",
      "t_start": "2020-04-16T13:30:00",
      "t_end": "2020-04-16T15:00:00",
      "link": ""
    },
    {
      "id": 480645,
      "lat": 31.7010023,
      "lon": 35.1119254000001,
      "label": "שפע זול - ביתר עילית",
      "text": "",
      "stayTimes": "21:00 - 21:30",
      "t_start": "2020-04-15T19:00:00",
      "t_end": "2020-04-15T19:30:00",
      "link": ""
    },
    {
      "id": 480646,
      "lat": 31.753177212,
      "lon": 35.212837075,
      "label": "אושר עד - ירושלים",
      "text": "",
      "stayTimes": "13:00 - 14:00",
      "t_start": "2020-04-16T11:00:00",
      "t_end": "2020-04-16T12:00:00",
      "link": ""
    },
    {
      "id": 480647,
      "lat": 32.8047780000001,
      "lon": 35.0033715000001,
      "label": "שוק מהדרין - חיפה",
      "text": "",
      "stayTimes": "09:30 - 10:30",
      "t_start": "2020-04-13T07:30:00",
      "t_end": "2020-04-13T08:30:00",
      "link": ""
    },
    {
      "id": 480648,
      "lat": 32.80547125,
      "lon": 35.001583135,
      "label": "נתיב החסד - חיפה",
      "text": "",
      "stayTimes": "09:00 - 10:00",
      "t_start": "2020-04-17T07:00:00",
      "t_end": "2020-04-17T08:00:00",
      "link": ""
    },
    {
      "id": 480649,
      "lat": 32.263651538,
      "lon": 35.017031773,
      "label": "סופר \"ביג סטור\" - טייבה",
      "text": "",
      "stayTimes": "21:55 - 22:35",
      "t_start": "2020-04-15T19:55:00",
      "t_end": "2020-04-15T20:35:00",
      "link": ""
    },
    {
      "id": 480650,
      "lat": 31.72654185,
      "lon": 34.7450478210001,
      "label": "ויקטורי - קרית מלאכי",
      "text": "",
      "stayTimes": "11:00 - 16:00",
      "t_start": "2020-04-16T09:00:00",
      "t_end": "2020-04-16T14:00:00",
      "link": ""
    },
    {
      "id": 480651,
      "lat": 32.9166121530001,
      "lon": 35.250258011,
      "label": "תחנת  דלק YELLO - מג'ד אל-כרום",
      "text": "",
      "stayTimes": "14:00 - 15:00",
      "t_start": "2020-04-19T12:00:00",
      "t_end": "2020-04-19T13:00:00",
      "link": ""
    },
    {
      "id": 480652,
      "lat": 32.9240333440001,
      "lon": 35.2762804970001,
      "label": "מקאטו - דייר אל-אסד",
      "text": "",
      "stayTimes": "15:00 - 15:30",
      "t_start": "2020-04-17T13:00:00",
      "t_end": "2020-04-17T13:30:00",
      "link": ""
    },
    {
      "id": 480653,
      "lat": 32.138536,
      "lon": 34.8439339,
      "label": "מרפאת מכבי - רמת השרון",
      "text": "",
      "stayTimes": "15:00 - 16:00",
      "t_start": "2020-04-16T13:00:00",
      "t_end": "2020-04-16T14:00:00",
      "link": ""
    },
    {
      "id": 480654,
      "lat": 31.424246152,
      "lon": 34.598053834,
      "label": "קופת חולים מכבי - נתיבות",
      "text": "",
      "stayTimes": "12:00 - 12:30",
      "t_start": "2020-04-17T10:00:00",
      "t_end": "2020-04-17T10:30:00",
      "link": ""
    },
    {
      "id": 480655,
      "lat": 32.4855131,
      "lon": 34.9698419000001,
      "label": "מרכז גריאטרי שוהם - פרדס חנה-כרכור",
      "text": "",
      "stayTimes": "07:00 - 15:00",
      "t_start": "2020-04-19T05:00:00",
      "t_end": "2020-04-19T13:00:00",
      "link": ""
    },
    {
      "id": 480656,
      "lat": 31.794856135,
      "lon": 35.224791254,
      "label": "קופת חולים כללית סניף מעלות דפנה - ירושלים",
      "text": "",
      "stayTimes": "08:00 - 08:30",
      "t_start": "2020-04-14T06:00:00",
      "t_end": "2020-04-14T06:30:00",
      "link": ""
    },
    {
      "id": 480657,
      "lat": 31.7535868320001,
      "lon": 35.214401308,
      "label": "שופרסל - ירושלים",
      "text": "",
      "stayTimes": "04:49 - 15:30",
      "t_start": "2020-04-13T02:49:00",
      "t_end": "2020-04-13T13:30:00",
      "link": ""
    },
    {
      "id": 480658,
      "lat": 31.7535868320001,
      "lon": 35.214401308,
      "label": "שופרסל - ירושלים",
      "text": "",
      "stayTimes": "00:01 - 03:59",
      "t_start": "2020-04-13T22:01:00",
      "t_end": "2020-04-14T01:59:00",
      "link": ""
    },
    {
      "id": 480659,
      "lat": 31.7535868320001,
      "lon": 35.214401308,
      "label": "שופרסל - ירושלים",
      "text": "",
      "stayTimes": "04:58 - 15:42",
      "t_start": "2020-04-16T02:58:00",
      "t_end": "2020-04-16T13:42:00",
      "link": ""
    },
    {
      "id": 480660,
      "lat": 31.7535868320001,
      "lon": 35.214401308,
      "label": "שופרסל - ירושלים",
      "text": "",
      "stayTimes": "00:01 - 07:19",
      "t_start": "2020-04-16T22:01:00",
      "t_end": "2020-04-17T05:19:00",
      "link": ""
    },
    {
      "id": 480661,
      "lat": 31.7535868320001,
      "lon": 35.214401308,
      "label": "שופרסל - ירושלים",
      "text": "",
      "stayTimes": "04:49 - 14:11",
      "t_start": "2020-04-19T02:49:00",
      "t_end": "2020-04-19T12:11:00",
      "link": ""
    },
    {
      "id": 480662,
      "lat": 32.4855131,
      "lon": 34.9698419000001,
      "label": "מרכז גריאטרי שוהם - פרדס חנה-כרכור",
      "text": "",
      "stayTimes": "07:00 - 15:00",
      "t_start": "2020-04-17T05:00:00",
      "t_end": "2020-04-17T13:00:00",
      "link": ""
    },
    {
      "id": 480663,
      "lat": 32.4855131,
      "lon": 34.9698419000001,
      "label": "מרכז גריאטרי שוהם - פרדס חנה-כרכור",
      "text": "",
      "stayTimes": "07:00 - 12:00",
      "t_start": "2020-04-14T05:00:00",
      "t_end": "2020-04-14T10:00:00",
      "link": ""
    }
  ],
  "update_time": 1587952352
}