{
  "points": [
    {
      "id": 375667,
      "lat": 30.9812812000001,
      "lon": 34.9473032000001,
      "label": "בית העלמין - ירוחם",
      "text": "",
      "stayTimes": "08:30 - 09:00",
      "t_start": "2020-03-30T06:30:00",
      "t_end": "2020-03-30T07:00:00",
      "link": ""
    },
    {
      "id": 375668,
      "lat": 32.9605311,
      "lon": 35.4994390000001,
      "label": "סופר מחסני השוק - צפת",
      "text": "",
      "stayTimes": "14:00 - 14:30",
      "t_start": "2020-03-31T12:00:00",
      "t_end": "2020-03-31T12:30:00",
      "link": ""
    },
    {
      "id": 375669,
      "lat": 32.4623386490001,
      "lon": 35.0466224800001,
      "label": "שופרסל אקספרס - חריש",
      "text": "",
      "stayTimes": "19:30 - 20:00",
      "t_start": "2020-04-02T17:30:00",
      "t_end": "2020-04-02T18:00:00",
      "link": ""
    },
    {
      "id": 375670,
      "lat": 32.708734233,
      "lon": 35.172954857,
      "label": "סופר האחים דוד - רמת ישי",
      "text": "",
      "stayTimes": "13:30 - 18:00",
      "t_start": "2020-03-30T11:30:00",
      "t_end": "2020-03-30T16:00:00",
      "link": ""
    },
    {
      "id": 375671,
      "lat": 31.9497430210001,
      "lon": 34.8903589280001,
      "label": "סניף חיסכון - לוד",
      "text": "",
      "stayTimes": "08:00 - 08:30",
      "t_start": "2020-03-30T06:00:00",
      "t_end": "2020-03-30T06:30:00",
      "link": ""
    },
    {
      "id": 375672,
      "lat": 31.7931710980001,
      "lon": 34.63977012,
      "label": "סיטי  מרכז בריאות האשה - אשדוד",
      "text": "",
      "stayTimes": "17:00 - 18:00",
      "t_start": "2020-03-30T15:00:00",
      "t_end": "2020-03-30T16:00:00",
      "link": ""
    },
    {
      "id": 375673,
      "lat": 32.7910993240001,
      "lon": 34.965111936,
      "label": "בדיקת קורונה - חיפה",
      "text": "",
      "stayTimes": "11:00 - 11:02",
      "t_start": "2020-03-30T09:00:00",
      "t_end": "2020-03-30T09:02:00",
      "link": ""
    },
    {
      "id": 375674,
      "lat": 31.930992632,
      "lon": 35.0396411290001,
      "label": "טרם רפואה דחופה - מודיעין עילית",
      "text": "",
      "stayTimes": "17:50 - 18:30",
      "t_start": "2020-03-30T15:50:00",
      "t_end": "2020-03-30T16:30:00",
      "link": ""
    },
    {
      "id": 375675,
      "lat": 31.930264417,
      "lon": 35.038611476,
      "label": "קופת חולים מכבי- אבני עזר - מודיעין עילית",
      "text": "",
      "stayTimes": "10:00 - 08:00",
      "t_start": "2020-03-30T08:00:00",
      "t_end": "2020-03-30T06:00:00",
      "link": ""
    },
    {
      "id": 375676,
      "lat": 31.905703074,
      "lon": 35.007384491,
      "label": "טרם מודיעין - מודיעין-מכבים-רעות",
      "text": "",
      "stayTimes": "08:00 - 08:10",
      "t_start": "2020-03-30T06:00:00",
      "t_end": "2020-03-30T06:10:00",
      "link": ""
    },
    {
      "id": 375677,
      "lat": 32.8330348440001,
      "lon": 34.9851329100001,
      "label": "בי\"ח רמב\"ם מיון ממוגן - חיפה",
      "text": "",
      "stayTimes": "08:00 - 09:00",
      "t_start": "2020-03-31T06:00:00",
      "t_end": "2020-03-31T07:00:00",
      "link": ""
    },
    {
      "id": 375678,
      "lat": 32.839700341,
      "lon": 35.0814334740001,
      "label": "מכון רנטגן קופ\"ח מכבי - קרית מוצקין",
      "text": "",
      "stayTimes": "12:15 - 12:35",
      "t_start": "2020-03-30T10:15:00",
      "t_end": "2020-03-30T10:35:00",
      "link": ""
    },
    {
      "id": 375679,
      "lat": 32.957928569,
      "lon": 35.495673917,
      "label": "דואר, רחוב הרצל - צפת",
      "text": "",
      "stayTimes": "09:30 - 10:00",
      "t_start": "2020-04-01T07:30:00",
      "t_end": "2020-04-01T08:00:00",
      "link": ""
    },
    {
      "id": 375680,
      "lat": 32.7917232900001,
      "lon": 34.9648657970001,
      "label": "דרייב אין חיפה - חיפה",
      "text": "",
      "stayTimes": "11:00 - 11:10",
      "t_start": "2020-03-30T09:00:00",
      "t_end": "2020-03-30T09:10:00",
      "link": ""
    },
    {
      "id": 375681,
      "lat": 31.5302503770001,
      "lon": 34.6052180730001,
      "label": "בית הכנסת שדרות משעול ברנר 3 - שדרות",
      "text": "",
      "stayTimes": "06:00 - 06:45",
      "t_start": "2020-03-31T04:00:00",
      "t_end": "2020-03-25T04:45:00",
      "link": ""
    },
    {
      "id": 375682,
      "lat": 33.0083894800001,
      "lon": 35.117156675,
      "label": "מין ילדים ב\"ח גליל מערבי נהריה - נהריה",
      "text": "",
      "stayTimes": "14:30 - 18:30",
      "t_start": "2020-03-30T12:30:00",
      "t_end": "2020-03-30T16:30:00",
      "link": ""
    },
    {
      "id": 375683,
      "lat": 31.3987851210001,
      "lon": 34.5982936,
      "label": "קופת חולים כללית - מעגלים",
      "text": "",
      "stayTimes": "08:00 - 08:00",
      "t_start": "2020-03-30T06:00:00",
      "t_end": "2020-03-30T06:00:00",
      "link": ""
    },
    {
      "id": 375684,
      "lat": 32.621038034,
      "lon": 35.3165950600001,
      "label": "מיון בית חולים העמק - עפולה",
      "text": "",
      "stayTimes": "15:00 - 18:30",
      "t_start": "2020-03-30T13:00:00",
      "t_end": "2020-03-30T16:30:00",
      "link": ""
    },
    {
      "id": 375685,
      "lat": 32.5355323090001,
      "lon": 34.911462414,
      "label": "קופ\"ח לאומית ג'יסר - ג'סר א-זרקא",
      "text": "",
      "stayTimes": "10:30 - 10:45",
      "t_start": "2020-03-31T08:30:00",
      "t_end": "2020-03-31T08:45:00",
      "link": ""
    },
    {
      "id": 375686,
      "lat": 32.452217019,
      "lon": 34.8967286010001,
      "label": "מיון חלופי הלל יפה - חדרה",
      "text": "",
      "stayTimes": "12:00 - 14:30",
      "t_start": "2020-03-31T10:00:00",
      "t_end": "2020-03-31T12:30:00",
      "link": ""
    },
    {
      "id": 375687,
      "lat": 32.5355323090001,
      "lon": 34.911462414,
      "label": "קופ\"ח לאומית - ג'סר א-זרקא",
      "text": "",
      "stayTimes": "10:30 - 11:30",
      "t_start": "2020-03-31T08:30:00",
      "t_end": "2020-03-31T09:30:00",
      "link": ""
    },
    {
      "id": 375688,
      "lat": 33.0083233,
      "lon": 35.1171239,
      "label": "ביהח נהריה - נהריה",
      "text": "",
      "stayTimes": "16:00 - 19:00",
      "t_start": "2020-03-30T14:00:00",
      "t_end": "2020-03-30T17:00:00",
      "link": ""
    },
    {
      "id": 375689,
      "lat": 31.87270998,
      "lon": 34.813879625,
      "label": "בית חולים קפלן - רחובות",
      "text": "",
      "stayTimes": "09:00 - 11:00",
      "t_start": "2020-03-31T07:00:00",
      "t_end": "2020-03-31T09:00:00",
      "link": ""
    },
    {
      "id": 375690,
      "lat": 32.1040390370001,
      "lon": 34.8105286380001,
      "label": "בדיקת קורונה - דרייב אין - תל אביב - יפו",
      "text": "",
      "stayTimes": "10:00 - 11:00",
      "t_start": "2020-03-30T08:00:00",
      "t_end": "2020-03-30T09:00:00",
      "link": ""
    },
    {
      "id": 375691,
      "lat": 32.0472987380001,
      "lon": 34.845037228,
      "label": "עבדה בקר במחלקת המטו אונולוגית מבוגרים תל השומר - תל אביב - יפו",
      "text": "",
      "stayTimes": "07:00 - 19:00",
      "t_start": "2020-03-30T05:00:00",
      "t_end": "2020-03-30T17:00:00",
      "link": ""
    },
    {
      "id": 375692,
      "lat": 32.8998635,
      "lon": 35.0932117,
      "label": "דבאח עין המפרץ - עין המפרץ",
      "text": "",
      "stayTimes": "11:30 - 12:00",
      "t_start": "2020-03-31T09:30:00",
      "t_end": "2020-03-31T10:00:00",
      "link": ""
    },
    {
      "id": 375693,
      "lat": 32.061208621,
      "lon": 34.862014587,
      "label": "סופר חביב - קרית אונו",
      "text": "",
      "stayTimes": "17:40 - 18:10",
      "t_start": "2020-03-30T15:40:00",
      "t_end": "2020-03-30T16:10:00",
      "link": ""
    },
    {
      "id": 375694,
      "lat": 31.880350982,
      "lon": 35.2398425000001,
      "label": "מרפאת מאוחדת - כוכב יעקב",
      "text": "",
      "stayTimes": "17:00 - 18:00",
      "t_start": "2020-03-30T15:00:00",
      "t_end": "2020-03-30T16:00:00",
      "link": ""
    },
    {
      "id": 375695,
      "lat": 31.8803427,
      "lon": 35.2398425000001,
      "label": "מרפאת מאוחדת - כוכב יעקב",
      "text": "",
      "stayTimes": "17:00 - 18:00",
      "t_start": "2020-03-30T15:00:00",
      "t_end": "2020-03-30T16:00:00",
      "link": ""
    },
    {
      "id": 375696,
      "lat": 31.9772343510001,
      "lon": 34.799345117,
      "label": "סופר הנחלה - ראשון לציון",
      "text": "",
      "stayTimes": "10:00 - 11:00",
      "t_start": "2020-03-31T08:00:00",
      "t_end": "2020-03-31T09:00:00",
      "link": ""
    },
    {
      "id": 375697,
      "lat": 32.7211324630001,
      "lon": 35.117730108,
      "label": "מפעל כרומגן - שער העמקים",
      "text": "",
      "stayTimes": "08:00 - 16:00",
      "t_start": "2020-03-30T06:00:00",
      "t_end": "2020-03-30T14:00:00",
      "link": ""
    },
    {
      "id": 375698,
      "lat": 31.6619693000001,
      "lon": 34.55967,
      "label": "מיון בית חולים ברזילי - אשקלון",
      "text": "",
      "stayTimes": "22:00 - 00:00",
      "t_start": "2020-03-31T20:00:00",
      "t_end": "2020-03-30T22:00:00",
      "link": ""
    },
    {
      "id": 375699,
      "lat": 32.074711145,
      "lon": 34.791689628,
      "label": "מפעל \"נט-ליין\" מתחם עזריאלי בניין עגול קומה 13 - תל אביב - יפו",
      "text": "",
      "stayTimes": "07:45 - 15:30",
      "t_start": "2020-03-30T05:45:00",
      "t_end": "2020-03-30T13:30:00",
      "link": ""
    },
    {
      "id": 375700,
      "lat": 31.975751874,
      "lon": 34.8078484320001,
      "label": "סופר פארם - ראשון לציון",
      "text": "",
      "stayTimes": "20:00 - 22:00",
      "t_start": "2020-03-31T18:00:00",
      "t_end": "2020-03-31T20:00:00",
      "link": ""
    },
    {
      "id": 375701,
      "lat": 32.271171958,
      "lon": 34.8889753450001,
      "label": "מרפאת קופ\"ח כללית - אבן יהודה",
      "text": "",
      "stayTimes": "12:00 - 13:00",
      "t_start": "2020-03-30T10:00:00",
      "t_end": "2020-03-30T11:00:00",
      "link": ""
    },
    {
      "id": 375702,
      "lat": 31.800382739,
      "lon": 34.662396771,
      "label": "\"יש חסד\" - אשדוד",
      "text": "",
      "stayTimes": "08:00 - 09:30",
      "t_start": "2020-04-01T06:00:00",
      "t_end": "2020-04-01T07:30:00",
      "link": ""
    },
    {
      "id": 375703,
      "lat": 32.1823231000001,
      "lon": 34.8954868000001,
      "label": "בי\"ח מאיר מחלקה גריאטרית - כפר סבא",
      "text": "",
      "stayTimes": "19:00 - 07:00",
      "t_start": "2020-03-31T17:00:00",
      "t_end": "2020-04-01T05:00:00",
      "link": ""
    },
    {
      "id": 375704,
      "lat": 32.4714671240001,
      "lon": 34.9540670170001,
      "label": "B PHARM - פרדס חנה-כרכור",
      "text": "",
      "stayTimes": "14:15 - 14:30",
      "t_start": "2020-04-01T12:15:00",
      "t_end": "2020-04-01T12:30:00",
      "link": ""
    },
    {
      "id": 375705,
      "lat": 32.4714671240001,
      "lon": 34.9540670170001,
      "label": "סופר הדר סנטר - פרדס חנה-כרכור",
      "text": "",
      "stayTimes": "14:30 - 14:45",
      "t_start": "2020-04-01T12:30:00",
      "t_end": "2020-04-01T12:45:00",
      "link": ""
    },
    {
      "id": 375706,
      "lat": 31.65930159,
      "lon": 34.557084753,
      "label": "קופ\"ח לאומית שמשון - אשקלון",
      "text": "",
      "stayTimes": "11:00 - 12:30",
      "t_start": "2020-04-01T09:00:00",
      "t_end": "2020-04-01T10:30:00",
      "link": ""
    },
    {
      "id": 375707,
      "lat": 31.6619693000001,
      "lon": 34.55967,
      "label": "מיון בי\"ח ברזילי - אשקלון",
      "text": "",
      "stayTimes": "12:30 - 17:00",
      "t_start": "2020-04-01T10:30:00",
      "t_end": "2020-04-01T15:00:00",
      "link": ""
    },
    {
      "id": 375708,
      "lat": 32.0503718200001,
      "lon": 34.9505698570001,
      "label": "קופת חולים מאוחדת - אלעד",
      "text": "",
      "stayTimes": "08:00 - 12:00",
      "t_start": "2020-03-30T06:00:00",
      "t_end": "2020-03-30T10:00:00",
      "link": ""
    },
    {
      "id": 375709,
      "lat": 32.0503718200001,
      "lon": 34.9505698570001,
      "label": "קופת חולים מאוחדת סניף שמאי - אלעד",
      "text": "",
      "stayTimes": "08:30 - 16:00",
      "t_start": "2020-03-31T06:30:00",
      "t_end": "2020-03-31T14:00:00",
      "link": ""
    },
    {
      "id": 375710,
      "lat": 32.0503718200001,
      "lon": 34.9505698570001,
      "label": "קופת חולים מאוחדת סניף שמאי - אלעד",
      "text": "",
      "stayTimes": "08:30 - 13:30",
      "t_start": "2020-04-01T06:30:00",
      "t_end": "2020-04-01T11:30:00",
      "link": ""
    },
    {
      "id": 375711,
      "lat": 31.9704968,
      "lon": 34.8126591000001,
      "label": "סניף ויקטורי - ראשון לציון",
      "text": "",
      "stayTimes": "08:15 - 10:30",
      "t_start": "2020-04-01T06:15:00",
      "t_end": "2020-04-01T08:30:00",
      "link": ""
    },
    {
      "id": 375712,
      "lat": 31.9708494560001,
      "lon": 34.8127716980001,
      "label": "חניון ראשון לציון של סניף ויקטורי - ראשון לציון",
      "text": "",
      "stayTimes": "10:30 - 13:00",
      "t_start": "2020-04-01T08:30:00",
      "t_end": "2020-04-01T11:00:00",
      "link": ""
    },
    {
      "id": 375713,
      "lat": 31.8867341000001,
      "lon": 35.0175692,
      "label": "סניף ויקטורי - מודיעין-מכבים-רעות",
      "text": "",
      "stayTimes": "13:00 - 14:30",
      "t_start": "2020-04-01T11:00:00",
      "t_end": "2020-04-01T12:30:00",
      "link": ""
    },
    {
      "id": 375714,
      "lat": 31.8815556180001,
      "lon": 35.013349609,
      "label": "סניף ויקטורי - מודיעין-מכבים-רעות",
      "text": "",
      "stayTimes": "14:30 - 14:30",
      "t_start": "2020-04-01T12:30:00",
      "t_end": "2020-04-01T12:30:00",
      "link": ""
    },
    {
      "id": 375715,
      "lat": 31.604209729,
      "lon": 34.7724365,
      "label": "סניף ויקטורי - קרית גת",
      "text": "",
      "stayTimes": "14:30 - 16:15",
      "t_start": "2020-04-01T12:30:00",
      "t_end": "2020-04-01T14:15:00",
      "link": ""
    },
    {
      "id": 375716,
      "lat": 31.6619693000001,
      "lon": 34.55967,
      "label": "מיון ברזילי - אשקלון",
      "text": "",
      "stayTimes": "19:00 - 20:00",
      "t_start": "2020-03-31T17:00:00",
      "t_end": "2020-03-31T18:00:00",
      "link": ""
    },
    {
      "id": 375717,
      "lat": 31.6619693000001,
      "lon": 34.55967,
      "label": "מיון ברזילי - אשקלון",
      "text": "",
      "stayTimes": "21:30 - 02:30",
      "t_start": "2020-03-31T19:30:00",
      "t_end": "2020-04-01T00:30:00",
      "link": ""
    },
    {
      "id": 375718,
      "lat": 31.6760162260001,
      "lon": 34.6059661310001,
      "label": "שופרסל קוסמוס אשקלון - אשקלון",
      "text": "",
      "stayTimes": "16:00 - 17:00",
      "t_start": "2020-03-31T14:00:00",
      "t_end": "2020-03-31T15:00:00",
      "link": ""
    },
    {
      "id": 375719,
      "lat": 31.6612720090001,
      "lon": 34.563485605,
      "label": "זוהר חד פעמי חתם סופר אשקלון - אשקלון",
      "text": "",
      "stayTimes": "14:00 - 14:30",
      "t_start": "2020-03-30T12:00:00",
      "t_end": "2020-03-30T12:30:00",
      "link": ""
    },
    {
      "id": 375720,
      "lat": 31.6761465000001,
      "lon": 34.6060997000001,
      "label": "שופרסל קוסמוס - אשקלון",
      "text": "",
      "stayTimes": "14:30 - 15:00",
      "t_start": "2020-03-30T12:30:00",
      "t_end": "2020-03-30T13:00:00",
      "link": ""
    },
    {
      "id": 375721,
      "lat": 31.6748478000001,
      "lon": 34.6056682,
      "label": "גמה דיל  קוסמוס אשקלון - אשקלון",
      "text": "",
      "stayTimes": "15:00 - 15:30",
      "t_start": "2020-03-30T13:00:00",
      "t_end": "2020-03-30T13:30:00",
      "link": ""
    },
    {
      "id": 375722,
      "lat": 31.6633566,
      "lon": 34.5858855000001,
      "label": "בטרם - אשקלון",
      "text": "",
      "stayTimes": "13:30 - 18:00",
      "t_start": "2020-03-30T11:30:00",
      "t_end": "2020-03-30T16:00:00",
      "link": ""
    },
    {
      "id": 375723,
      "lat": 31.6633676590001,
      "lon": 34.585884874,
      "label": "בטרם - אשקלון",
      "text": "",
      "stayTimes": "10:49 - 11:00",
      "t_start": "2020-03-31T08:49:00",
      "t_end": "2020-03-31T09:00:00",
      "link": ""
    },
    {
      "id": 375724,
      "lat": 31.615073377,
      "lon": 34.7589492280001,
      "label": "מכולת שכונתית - קרית גת",
      "text": "",
      "stayTimes": "09:00 - 09:10",
      "t_start": "2020-03-30T07:00:00",
      "t_end": "2020-03-30T07:10:00",
      "link": ""
    },
    {
      "id": 375725,
      "lat": 31.604191454,
      "lon": 34.7724794150001,
      "label": "ויקאטורי - קרית גת",
      "text": "",
      "stayTimes": "09:30 - 13:30",
      "t_start": "2020-03-30T07:30:00",
      "t_end": "2020-03-30T11:30:00",
      "link": ""
    },
    {
      "id": 375726,
      "lat": 31.6624657040001,
      "lon": 34.5611270950001,
      "label": "ברזילי מרפאות חוץ פה ולסת - אשקלון",
      "text": "",
      "stayTimes": "07:00 - 12:00",
      "t_start": "2020-03-31T05:00:00",
      "t_end": "2020-03-31T10:00:00",
      "link": ""
    },
    {
      "id": 375727,
      "lat": 32.192448208,
      "lon": 34.8919950920001,
      "label": "סופר סל - כפר סבא",
      "text": "",
      "stayTimes": "16:00 - 17:00",
      "t_start": "2020-03-31T14:00:00",
      "t_end": "2020-03-31T15:00:00",
      "link": ""
    },
    {
      "id": 375728,
      "lat": 31.6614242220001,
      "lon": 34.5590209280001,
      "label": "חדר ניתוח חדר 6 ברזילי - אשקלון",
      "text": "",
      "stayTimes": "10:00 - 15:00",
      "t_start": "2020-03-30T08:00:00",
      "t_end": "2020-03-30T13:00:00",
      "link": ""
    },
    {
      "id": 375729,
      "lat": 31.662690292,
      "lon": 34.561155469,
      "label": "מרפאות חוץ פה ולסת ברזילי - אשקלון",
      "text": "",
      "stayTimes": "07:00 - 10:00",
      "t_start": "2020-03-30T05:00:00",
      "t_end": "2020-03-30T08:00:00",
      "link": ""
    },
    {
      "id": 375730,
      "lat": 31.6620182400001,
      "lon": 34.559667974,
      "label": "מיון ,ב\"ח ברזילאי - אשקלון",
      "text": "",
      "stayTimes": "16:30 - 17:30",
      "t_start": "2020-04-01T14:30:00",
      "t_end": "2020-04-01T15:30:00",
      "link": ""
    },
    {
      "id": 375731,
      "lat": 31.663273953,
      "lon": 34.5860549130001,
      "label": "\"טרם \" - אשקלון",
      "text": "",
      "stayTimes": "17:00 - 17:30",
      "t_start": "2020-03-30T15:00:00",
      "t_end": "2020-03-30T15:30:00",
      "link": ""
    },
    {
      "id": 375732,
      "lat": 32.1827488970001,
      "lon": 34.865604267,
      "label": "שניצל 20 טעמים - רעננה",
      "text": "",
      "stayTimes": "12:50 - 13:30",
      "t_start": "2020-03-31T10:50:00",
      "t_end": "2020-03-31T11:30:00",
      "link": ""
    },
    {
      "id": 375733,
      "lat": 32.1831304020001,
      "lon": 34.86570677,
      "label": "שוק למהדרין - רעננה",
      "text": "",
      "stayTimes": "16:10 - 08:20",
      "t_start": "2020-04-01T14:10:00",
      "t_end": "2020-04-01T06:20:00",
      "link": ""
    },
    {
      "id": 375734,
      "lat": 32.295669123,
      "lon": 34.858989568,
      "label": "מכולת שוק חקלאים - נתניה",
      "text": "",
      "stayTimes": "11:00 - 11:30",
      "t_start": "2020-03-31T09:00:00",
      "t_end": "2020-03-31T09:30:00",
      "link": ""
    },
    {
      "id": 375735,
      "lat": 31.424246152,
      "lon": 34.598053834,
      "label": "מכבי בית מרקחת - נתיבות",
      "text": "",
      "stayTimes": "12:00 - 12:00",
      "t_start": "2020-03-31T10:00:00",
      "t_end": "2020-03-31T10:00:00",
      "link": ""
    },
    {
      "id": 375736,
      "lat": 31.417083227,
      "lon": 34.5726796920001,
      "label": "מכון מאר נתיבות מערב - נתיבות",
      "text": "",
      "stayTimes": "11:30 - 11:45",
      "t_start": "2020-03-31T09:30:00",
      "t_end": "2020-03-31T09:45:00",
      "link": ""
    },
    {
      "id": 375737,
      "lat": 32.811575885,
      "lon": 35.1044716270001,
      "label": "מרפאת כללית מרכז הילד - קרית אתא",
      "text": "",
      "stayTimes": "08:00 - 16:00",
      "t_start": "2020-03-30T06:00:00",
      "t_end": "2020-03-30T14:00:00",
      "link": ""
    },
    {
      "id": 375738,
      "lat": 32.0796401420001,
      "lon": 34.8407271350001,
      "label": "מקום עבודה בר כל - בני ברק",
      "text": "",
      "stayTimes": "08:30 - 15:30",
      "t_start": "2020-03-30T06:30:00",
      "t_end": "2020-03-30T13:30:00",
      "link": ""
    },
    {
      "id": 375739,
      "lat": 32.089989514,
      "lon": 34.833864664,
      "label": "מכולת שמשון - בני ברק",
      "text": "",
      "stayTimes": "09:00 - 09:30",
      "t_start": "2020-03-30T07:00:00",
      "t_end": "2020-03-30T07:30:00",
      "link": ""
    },
    {
      "id": 375740,
      "lat": 31.664188487,
      "lon": 34.563273591,
      "label": "ויקטורי - אשקלון",
      "text": "",
      "stayTimes": "13:30 - 14:30",
      "t_start": "2020-04-01T11:30:00",
      "t_end": "2020-04-01T12:30:00",
      "link": ""
    },
    {
      "id": 375741,
      "lat": 31.8249657000001,
      "lon": 34.700767,
      "label": "סלע לוגיסטיקה בני דרום - בני דרום",
      "text": "",
      "stayTimes": "06:00 - 17:00",
      "t_start": "2020-03-30T04:00:00",
      "t_end": "2020-03-30T15:00:00",
      "link": ""
    },
    {
      "id": 375742,
      "lat": 31.8249657000001,
      "lon": 34.700767,
      "label": "סלע לוגיסטיקה בני דרום - בני דרום",
      "text": "",
      "stayTimes": "06:00 - 17:00",
      "t_start": "2020-03-31T04:00:00",
      "t_end": "2020-03-31T15:00:00",
      "link": ""
    },
    {
      "id": 375743,
      "lat": 31.8249657000001,
      "lon": 34.700767,
      "label": "סלע לוגיסטיקה בני דרום - בני דרום",
      "text": "",
      "stayTimes": "06:00 - 17:00",
      "t_start": "2020-04-01T04:00:00",
      "t_end": "2020-04-01T15:00:00",
      "link": ""
    },
    {
      "id": 375744,
      "lat": 32.080728848,
      "lon": 34.791058085,
      "label": "מיון בית החולים לילדים \"דנה\" איכילוב - תל אביב - יפו",
      "text": "",
      "stayTimes": "21:00 - 02:20",
      "t_start": "2020-03-31T19:00:00",
      "t_end": "2020-04-01T00:20:00",
      "link": ""
    },
    {
      "id": 375745,
      "lat": 32.106773135,
      "lon": 34.9415575950001,
      "label": "קופת חולים - ראש העין",
      "text": "",
      "stayTimes": "08:30 - 09:00",
      "t_start": "2020-03-31T06:30:00",
      "t_end": "2020-03-31T07:00:00",
      "link": ""
    },
    {
      "id": 375746,
      "lat": 32.1065055,
      "lon": 34.9414256000001,
      "label": "מרכז רפואי בטרם - ראש העין",
      "text": "",
      "stayTimes": "17:00 - 18:30",
      "t_start": "2020-03-30T15:00:00",
      "t_end": "2020-03-30T16:30:00",
      "link": ""
    },
    {
      "id": 375747,
      "lat": 32.080709703,
      "lon": 34.7910478900001,
      "label": "מחלקת ילדים א- ביה\"ח \"דנה\" איכילוב - תל אביב - יפו",
      "text": "",
      "stayTimes": "02:20 - 14:50",
      "t_start": "2020-04-01T00:20:00",
      "t_end": "2020-04-01T12:50:00",
      "link": ""
    },
    {
      "id": 375748,
      "lat": 32.0807053070001,
      "lon": 34.7910561850001,
      "label": "טיפול נמרץ ילדים- ביה\"ח \"דנה\" איכילוב - תל אביב - יפו",
      "text": "",
      "stayTimes": "14:50 - 14:50",
      "t_start": "2020-04-01T12:50:00",
      "t_end": "2020-04-01T12:50:00",
      "link": ""
    },
    {
      "id": 375749,
      "lat": 32.0817556550001,
      "lon": 34.8837997850001,
      "label": "קופת חולים רוטשילד - פתח תקווה",
      "text": "",
      "stayTimes": "16:00 - 16:30",
      "t_start": "2020-03-30T14:00:00",
      "t_end": "2020-03-30T14:30:00",
      "link": ""
    },
    {
      "id": 375750,
      "lat": 32.0881612000001,
      "lon": 34.958583,
      "label": "קופ'ח כללית מצפה אפק - ראש העין",
      "text": "",
      "stayTimes": "08:30 - 09:00",
      "t_start": "2020-03-30T06:30:00",
      "t_end": "2020-03-30T07:00:00",
      "link": ""
    },
    {
      "id": 375751,
      "lat": 31.7675679910001,
      "lon": 35.295263038,
      "label": "טר\"מ - מעלה אדומים",
      "text": "",
      "stayTimes": "15:00 - 16:00",
      "t_start": "2020-03-30T13:00:00",
      "t_end": "2020-03-30T14:00:00",
      "link": ""
    },
    {
      "id": 375752,
      "lat": 32.0256596850001,
      "lon": 34.8067020760001,
      "label": "מינימרקט נון סטופ - אזור",
      "text": "",
      "stayTimes": "16:00 - 18:00",
      "t_start": "2020-03-31T14:00:00",
      "t_end": "2020-03-31T16:00:00",
      "link": ""
    },
    {
      "id": 375753,
      "lat": 32.9879433200001,
      "lon": 35.096059488,
      "label": "סניף אוויס מתחם חאמד - נהריה",
      "text": "",
      "stayTimes": "08:00 - 08:00",
      "t_start": "2020-03-31T06:00:00",
      "t_end": "2020-03-31T06:00:00",
      "link": ""
    },
    {
      "id": 375754,
      "lat": 32.990313416,
      "lon": 35.096683872,
      "label": "תחנת דלק פז בכניסה לנהריה וחנות ילו - נהריה",
      "text": "",
      "stayTimes": "08:00 - 08:00",
      "t_start": "2020-03-31T06:00:00",
      "t_end": "2020-03-31T06:00:00",
      "link": ""
    },
    {
      "id": 375755,
      "lat": 31.2468929,
      "lon": 34.8044615000001,
      "label": "מס הכנסה - באר שבע",
      "text": "",
      "stayTimes": "08:00 - 08:00",
      "t_start": "2020-03-30T06:00:00",
      "t_end": "2020-03-30T06:00:00",
      "link": ""
    },
    {
      "id": 375756,
      "lat": 31.2399585000001,
      "lon": 34.7938263,
      "label": "סופר מחסני השוק בית אשל - באר שבע",
      "text": "",
      "stayTimes": "08:00 - 08:00",
      "t_start": "2020-03-30T06:00:00",
      "t_end": "2020-03-30T06:00:00",
      "link": ""
    },
    {
      "id": 375757,
      "lat": 31.0666732460001,
      "lon": 35.038387431,
      "label": "אחים אלין סופר - דימונה",
      "text": "",
      "stayTimes": "08:00 - 08:00",
      "t_start": "2020-03-30T06:00:00",
      "t_end": "2020-03-30T06:00:00",
      "link": ""
    },
    {
      "id": 375758,
      "lat": 31.4213816120001,
      "lon": 34.600072927,
      "label": "פיצוח דניאל זגדון - נתיבות",
      "text": "",
      "stayTimes": "08:00 - 08:00",
      "t_start": "2020-03-31T06:00:00",
      "t_end": "2020-03-31T06:00:00",
      "link": ""
    },
    {
      "id": 375759,
      "lat": 31.4120578920001,
      "lon": 34.586440345,
      "label": "סופר ח. כהן - נתיבות",
      "text": "",
      "stayTimes": "08:00 - 08:00",
      "t_start": "2020-03-31T06:00:00",
      "t_end": "2020-03-31T06:00:00",
      "link": ""
    },
    {
      "id": 375760,
      "lat": 31.7884373910001,
      "lon": 35.2064509310001,
      "label": "סופר מעיין 2000 שער בנימין - כוכב יעקב",
      "text": "",
      "stayTimes": "15:30 - 17:30",
      "t_start": "2020-04-01T13:30:00",
      "t_end": "2020-04-01T15:30:00",
      "link": ""
    },
    {
      "id": 375761,
      "lat": 32.0756564980001,
      "lon": 34.8363558280001,
      "label": "מכולת ברכה בכיכר - בני ברק",
      "text": "",
      "stayTimes": "11:00 - 11:30",
      "t_start": "2020-03-30T09:00:00",
      "t_end": "2020-03-30T09:30:00",
      "link": ""
    },
    {
      "id": 375762,
      "lat": 32.098967525,
      "lon": 34.8298053840001,
      "label": "אושר עד - סופר - בני ברק",
      "text": "",
      "stayTimes": "17:00 - 21:00",
      "t_start": "2020-03-30T15:00:00",
      "t_end": "2020-03-30T19:00:00",
      "link": ""
    },
    {
      "id": 375763,
      "lat": 31.9319194,
      "lon": 35.0303672000001,
      "label": "פנצריה \" מוסך סמדר\" אזור תעשיה - מתתיהו",
      "text": "",
      "stayTimes": "17:15 - 17:30",
      "t_start": "2020-03-30T15:15:00",
      "t_end": "2020-03-30T15:30:00",
      "link": ""
    },
    {
      "id": 375764,
      "lat": 31.9269265130001,
      "lon": 35.038510973,
      "label": "סופר \"יש\" - מודיעין עילית",
      "text": "",
      "stayTimes": "16:00 - 17:15",
      "t_start": "2020-04-01T14:00:00",
      "t_end": "2020-04-01T15:15:00",
      "link": ""
    },
    {
      "id": 375765,
      "lat": 32.0741680020001,
      "lon": 34.8334307540001,
      "label": "משנות יוסף, ברחבה של סמינר בית ויזניץ - בני ברק",
      "text": "",
      "stayTimes": "22:30 - 23:59",
      "t_start": "2020-03-31T20:30:00",
      "t_end": "2020-03-31T21:59:00",
      "link": ""
    },
    {
      "id": 375766,
      "lat": 32.928219567,
      "lon": 35.140792758,
      "label": "מאפיית אריאל - ג'דיידה-מכר",
      "text": "",
      "stayTimes": "21:30 - 21:45",
      "t_start": "2020-03-30T19:30:00",
      "t_end": "2020-03-30T19:45:00",
      "link": ""
    },
    {
      "id": 375767,
      "lat": 32.0827176180001,
      "lon": 34.8263688160001,
      "label": "סופר יש בשכונה סניף חברון - בני ברק",
      "text": "",
      "stayTimes": "13:00 - 13:30",
      "t_start": "2020-03-30T11:00:00",
      "t_end": "2020-03-30T11:30:00",
      "link": ""
    },
    {
      "id": 375768,
      "lat": 32.090821981,
      "lon": 34.8388174410001,
      "label": "יש חסד - בני ברק",
      "text": "",
      "stayTimes": "13:00 - 16:00",
      "t_start": "2020-03-30T11:00:00",
      "t_end": "2020-03-30T14:00:00",
      "link": ""
    },
    {
      "id": 375769,
      "lat": 32.8615937210001,
      "lon": 35.098750538,
      "label": "אושר עד - קרית ביאליק",
      "text": "",
      "stayTimes": "22:30 - 22:40",
      "t_start": "2020-03-30T20:30:00",
      "t_end": "2020-03-30T20:40:00",
      "link": ""
    },
    {
      "id": 375770,
      "lat": 32.085656516,
      "lon": 34.8393147190001,
      "label": "רבי עקיבא 162, בני ברק",
      "text": "",
      "stayTimes": "17:00 - 17:30",
      "t_start": "2020-03-30T15:00:00",
      "t_end": "2020-03-30T15:30:00",
      "link": ""
    },
    {
      "id": 375771,
      "lat": 31.265676,
      "lon": 34.763339,
      "label": "סופר פארם נחל עשן - באר שבע",
      "text": "",
      "stayTimes": "18:30 - 19:00",
      "t_start": "2020-03-31T16:30:00",
      "t_end": "2020-03-31T17:00:00",
      "link": ""
    },
    {
      "id": 375772,
      "lat": 31.2506606790001,
      "lon": 34.7716818120001,
      "label": "סופר פארם גרנד קניון - באר שבע",
      "text": "",
      "stayTimes": "13:00 - 13:30",
      "t_start": "2020-04-01T11:00:00",
      "t_end": "2020-04-01T11:30:00",
      "link": ""
    },
    {
      "id": 375773,
      "lat": 31.2498562070001,
      "lon": 34.771189179,
      "label": "סופר לה בגרנד קניון - באר שבע",
      "text": "",
      "stayTimes": "14:00 - 15:30",
      "t_start": "2020-04-01T12:00:00",
      "t_end": "2020-04-01T13:30:00",
      "link": ""
    },
    {
      "id": 375774,
      "lat": 32.7896506000001,
      "lon": 35.5320965000001,
      "label": "מחסני השוק - טבריה",
      "text": "",
      "stayTimes": "20:30 - 21:00",
      "t_start": "2020-03-31T18:30:00",
      "t_end": "2020-03-31T19:00:00",
      "link": ""
    },
    {
      "id": 375775,
      "lat": 32.7850348010001,
      "lon": 35.5168409520001,
      "label": "מכולת משה אוחיון בשכונה 200+ - טבריה",
      "text": "",
      "stayTimes": "11:00 - 12:00",
      "t_start": "2020-03-30T09:00:00",
      "t_end": "2020-03-30T10:00:00",
      "link": ""
    },
    {
      "id": 375776,
      "lat": 32.7850348010001,
      "lon": 35.5168409520001,
      "label": "מכולת משה אוחיון בשכונה 200+ - טבריה",
      "text": "",
      "stayTimes": "11:00 - 12:00",
      "t_start": "2020-03-31T09:00:00",
      "t_end": "2020-03-31T10:00:00",
      "link": ""
    },
    {
      "id": 375777,
      "lat": 32.7850348010001,
      "lon": 35.5168409520001,
      "label": "מכולת משה אוחיון בשכונה 200+ - טבריה",
      "text": "",
      "stayTimes": "11:00 - 12:00",
      "t_start": "2020-04-01T09:00:00",
      "t_end": "2020-04-01T10:00:00",
      "link": ""
    },
    {
      "id": 375778,
      "lat": 32.7850348010001,
      "lon": 35.5168409520001,
      "label": "מכולת משה אוחיון בשכונה 200+ - טבריה",
      "text": "",
      "stayTimes": "17:00 - 18:00",
      "t_start": "2020-03-30T15:00:00",
      "t_end": "2020-03-30T16:00:00",
      "link": ""
    },
    {
      "id": 375779,
      "lat": 31.243594,
      "lon": 34.7998825,
      "label": "חנות ביוטי סנטר מקס נורדאו 1 - באר שבע",
      "text": "",
      "stayTimes": "16:30 - 17:00",
      "t_start": "2020-03-31T14:30:00",
      "t_end": "2020-03-31T15:00:00",
      "link": ""
    },
    {
      "id": 375780,
      "lat": 31.2633917000001,
      "lon": 34.7790219,
      "label": "מגה בעיר קניון אביה - באר שבע",
      "text": "",
      "stayTimes": "19:30 - 20:30",
      "t_start": "2020-04-01T17:30:00",
      "t_end": "2020-04-01T18:30:00",
      "link": ""
    },
    {
      "id": 375781,
      "lat": 31.2434888760001,
      "lon": 34.794407703,
      "label": "קניון הנגב סופארפארם - באר שבע",
      "text": "",
      "stayTimes": "08:30 - 09:00",
      "t_start": "2020-04-02T06:30:00",
      "t_end": "2020-04-02T07:00:00",
      "link": ""
    },
    {
      "id": 375782,
      "lat": 31.2217383,
      "lon": 34.8033035,
      "label": "מתחם יאס פלנט שופרסל אקסטרא דיל - באר שבע",
      "text": "",
      "stayTimes": "09:00 - 10:30",
      "t_start": "2020-04-02T07:00:00",
      "t_end": "2020-04-02T08:30:00",
      "link": ""
    },
    {
      "id": 375783,
      "lat": 31.887029559,
      "lon": 34.8139604960001,
      "label": "בית מרקחת מאוחדת - רחובות",
      "text": "",
      "stayTimes": "11:15 - 11:34",
      "t_start": "2020-03-31T09:15:00",
      "t_end": "2020-03-31T09:34:00",
      "link": ""
    },
    {
      "id": 375784,
      "lat": 32.325122793,
      "lon": 34.859191282,
      "label": "קופת חולים לאומית בית מרקחת - נתניה",
      "text": "",
      "stayTimes": "11:10 - 11:50",
      "t_start": "2020-03-30T09:10:00",
      "t_end": "2020-03-30T09:50:00",
      "link": ""
    },
    {
      "id": 375785,
      "lat": 32.7873075640001,
      "lon": 35.54051328,
      "label": "בנק מזרחי טפחות - טבריה",
      "text": "",
      "stayTimes": "13:15 - 14:00",
      "t_start": "2020-03-31T11:15:00",
      "t_end": "2020-03-31T12:00:00",
      "link": ""
    },
    {
      "id": 375786,
      "lat": 32.7850348010001,
      "lon": 35.5168409520001,
      "label": "מכולת משה אוחיון בשכונה 200+ - טבריה",
      "text": "",
      "stayTimes": "17:00 - 18:00",
      "t_start": "2020-03-31T15:00:00",
      "t_end": "2020-03-31T16:00:00",
      "link": ""
    },
    {
      "id": 375787,
      "lat": 32.7827412280001,
      "lon": 35.5211254320001,
      "label": "פיצוציה גוזלן בתחנת דלק מצפה - מצפה",
      "text": "",
      "stayTimes": "11:00 - 13:00",
      "t_start": "2020-03-30T09:00:00",
      "t_end": "2020-03-30T11:00:00",
      "link": ""
    },
    {
      "id": 375788,
      "lat": 32.788664764,
      "lon": 35.5399412720001,
      "label": "בנק הדואר סניף מרכזי - טבריה",
      "text": "",
      "stayTimes": "12:00 - 13:30",
      "t_start": "2020-03-31T10:00:00",
      "t_end": "2020-03-31T11:30:00",
      "link": ""
    },
    {
      "id": 375789,
      "lat": 32.788631529,
      "lon": 35.53993968,
      "label": "בנק הדואר סניף מרכזי - טבריה",
      "text": "",
      "stayTimes": "14:00 - 14:30",
      "t_start": "2020-03-31T12:00:00",
      "t_end": "2020-03-31T12:30:00",
      "link": ""
    },
    {
      "id": 375790,
      "lat": 32.785659551,
      "lon": 35.5390709280001,
      "label": "חנות תבליני כהן בשוק עירוני - טבריה",
      "text": "",
      "stayTimes": "13:00 - 15:00",
      "t_start": "2020-04-01T11:00:00",
      "t_end": "2020-04-01T13:00:00",
      "link": ""
    },
    {
      "id": 375791,
      "lat": 32.0268882760001,
      "lon": 34.7464722670001,
      "label": "אירינה - בת ים",
      "text": "",
      "stayTimes": "10:00 - 11:00",
      "t_start": "2020-04-03T08:00:00",
      "t_end": "2020-04-03T09:00:00",
      "link": ""
    },
    {
      "id": 375792,
      "lat": 32.78539163,
      "lon": 35.4984768190001,
      "label": "סופר פארם - טבריה",
      "text": "",
      "stayTimes": "18:00 - 18:15",
      "t_start": "2020-03-30T16:00:00",
      "t_end": "2020-03-30T16:15:00",
      "link": ""
    },
    {
      "id": 375793,
      "lat": 32.7795991,
      "lon": 35.5169531000001,
      "label": "סופר מרקט יש חסד - טבריה",
      "text": "",
      "stayTimes": "15:00 - 15:15",
      "t_start": "2020-03-31T13:00:00",
      "t_end": "2020-03-31T13:15:00",
      "link": ""
    },
    {
      "id": 375794,
      "lat": 32.786216301,
      "lon": 35.5409460550001,
      "label": "אטליז מרכז הבשר גרבלי - טבריה",
      "text": "",
      "stayTimes": "10:45 - 11:00",
      "t_start": "2020-03-31T08:45:00",
      "t_end": "2020-03-31T09:00:00",
      "link": ""
    },
    {
      "id": 375795,
      "lat": 32.2268468,
      "lon": 34.9607505000001,
      "label": "סופר מרקט סיטי מרקט - טירה",
      "text": "",
      "stayTimes": "22:30 - 23:30",
      "t_start": "2020-04-01T20:30:00",
      "t_end": "2020-04-01T21:30:00",
      "link": ""
    },
    {
      "id": 375796,
      "lat": 32.235666184,
      "lon": 34.950557254,
      "label": "מאפיית אחים סמארה - טירה",
      "text": "",
      "stayTimes": "14:00 - 14:45",
      "t_start": "2020-04-02T12:00:00",
      "t_end": "2020-04-02T12:45:00",
      "link": ""
    },
    {
      "id": 375797,
      "lat": 32.782965618,
      "lon": 35.0154072330001,
      "label": "מכבי פארם - חיפה",
      "text": "",
      "stayTimes": "12:00 - 14:00",
      "t_start": "2020-04-01T10:00:00",
      "t_end": "2020-04-01T12:00:00",
      "link": ""
    },
    {
      "id": 375798,
      "lat": 32.109424216,
      "lon": 34.841102424,
      "label": "מדיקה - תל אביב - יפו",
      "text": "",
      "stayTimes": "08:00 - 10:00",
      "t_start": "2020-03-30T06:00:00",
      "t_end": "2020-03-30T08:00:00",
      "link": ""
    },
    {
      "id": 375799,
      "lat": 32.0737085440001,
      "lon": 34.8085681490001,
      "label": "ויצמן 20, גבעתיים",
      "text": "",
      "stayTimes": "07:30 - 08:00",
      "t_start": "2020-03-30T05:30:00",
      "t_end": "2020-03-30T06:00:00",
      "link": ""
    },
    {
      "id": 375800,
      "lat": 32.0525778960001,
      "lon": 34.9511771420001,
      "label": "סופר מרקט \"יש\" - אלעד",
      "text": "",
      "stayTimes": "07:30 - 09:30",
      "t_start": "2020-03-30T05:30:00",
      "t_end": "2020-03-30T07:30:00",
      "link": ""
    },
    {
      "id": 375801,
      "lat": 31.887029559,
      "lon": 34.8139604960001,
      "label": "בית מרקחת מאוחדת - רחובות",
      "text": "",
      "stayTimes": "11:15 - 11:34",
      "t_start": "2020-03-31T09:15:00",
      "t_end": "2020-03-31T09:34:00",
      "link": ""
    },
    {
      "id": 375802,
      "lat": 31.9540840070001,
      "lon": 34.890321778,
      "label": "אושר עד - לוד",
      "text": "",
      "stayTimes": "19:00 - 19:30",
      "t_start": "2020-03-30T17:00:00",
      "t_end": "2020-03-30T17:30:00",
      "link": ""
    },
    {
      "id": 375803,
      "lat": 32.0271037520001,
      "lon": 34.746319553,
      "label": "אירינה - בת ים",
      "text": "",
      "stayTimes": "10:00 - 11:30",
      "t_start": "2020-03-30T08:00:00",
      "t_end": "2020-03-30T09:30:00",
      "link": ""
    },
    {
      "id": 375804,
      "lat": 32.0452360780001,
      "lon": 34.842521306,
      "label": "ביח תל השומר - רמת גן",
      "text": "",
      "stayTimes": "10:30 - 16:00",
      "t_start": "2020-04-02T08:30:00",
      "t_end": "2020-04-02T14:00:00",
      "link": ""
    },
    {
      "id": 375805,
      "lat": 32.0872987000001,
      "lon": 34.8271337,
      "label": "מעיין 2000 רחוב הרב קוק 5 בני ברק - בני ברק",
      "text": "",
      "stayTimes": "13:00 - 14:00",
      "t_start": "2020-04-01T11:00:00",
      "t_end": "2020-04-01T12:00:00",
      "link": ""
    },
    {
      "id": 375806,
      "lat": 32.090821981,
      "lon": 34.8388174410001,
      "label": "יש חסד מרכז רימונים - בני ברק",
      "text": "",
      "stayTimes": "09:00 - 12:00",
      "t_start": "2020-03-31T07:00:00",
      "t_end": "2020-03-31T10:00:00",
      "link": ""
    },
    {
      "id": 375807,
      "lat": 32.0891032000001,
      "lon": 34.8380488,
      "label": "סופר \"שפע\" - בני ברק",
      "text": "",
      "stayTimes": "11:00 - 12:45",
      "t_start": "2020-03-31T09:00:00",
      "t_end": "2020-03-31T10:45:00",
      "link": ""
    },
    {
      "id": 375808,
      "lat": 32.1122901210001,
      "lon": 34.794585226,
      "label": "סוופר פארם - תל אביב - יפו",
      "text": "",
      "stayTimes": "11:00 - 12:00",
      "t_start": "2020-04-03T09:00:00",
      "t_end": "2020-04-03T10:00:00",
      "link": ""
    },
    {
      "id": 375809,
      "lat": 32.071493359,
      "lon": 34.7807476790001,
      "label": "מרמורק 9, ת\"א",
      "text": "",
      "stayTimes": "14:30 - 15:00",
      "t_start": "2020-03-31T12:30:00",
      "t_end": "2020-03-31T13:00:00",
      "link": ""
    },
    {
      "id": 375810,
      "lat": 32.0792146840001,
      "lon": 34.8413412690001,
      "label": "סופר בר קול - בני ברק",
      "text": "",
      "stayTimes": "19:30 - 20:30",
      "t_start": "2020-03-30T17:30:00",
      "t_end": "2020-03-30T18:30:00",
      "link": ""
    },
    {
      "id": 375811,
      "lat": 31.7896787760001,
      "lon": 35.205386936,
      "label": "מכולת עובדיה - ירושלים",
      "text": "",
      "stayTimes": "08:00 - 08:30",
      "t_start": "2020-04-01T06:00:00",
      "t_end": "2020-04-01T06:30:00",
      "link": ""
    },
    {
      "id": 375812,
      "lat": 32.0360309000001,
      "lon": 34.7627074000001,
      "label": "בית חולים וולפסון מחקלת דיאליזה - חולון",
      "text": "",
      "stayTimes": "07:00 - 15:00",
      "t_start": "2020-03-31T05:00:00",
      "t_end": "2020-03-31T13:00:00",
      "link": ""
    },
    {
      "id": 375813,
      "lat": 33.005553826,
      "lon": 35.1067940410001,
      "label": "חנות סברי - נהריה",
      "text": "",
      "stayTimes": "16:00 - 22:00",
      "t_start": "2020-03-30T14:00:00",
      "t_end": "2020-03-30T20:00:00",
      "link": ""
    },
    {
      "id": 375814,
      "lat": 33.005574623,
      "lon": 35.106375406,
      "label": "סברי - נהריה",
      "text": "",
      "stayTimes": "15:00 - 23:00",
      "t_start": "2020-03-31T13:00:00",
      "t_end": "2020-03-31T21:00:00",
      "link": ""
    },
    {
      "id": 375815,
      "lat": 32.1058359100001,
      "lon": 34.892393391,
      "label": "סופר אושר עד - פתח תקווה",
      "text": "",
      "stayTimes": "14:00 - 16:00",
      "t_start": "2020-03-30T12:00:00",
      "t_end": "2020-03-30T14:00:00",
      "link": ""
    },
    {
      "id": 375816,
      "lat": 32.1773179,
      "lon": 34.9033483000001,
      "label": "סופר פארם - כפר סבא",
      "text": "",
      "stayTimes": "10:00 - 10:30",
      "t_start": "2020-04-02T08:00:00",
      "t_end": "2020-04-02T08:30:00",
      "link": ""
    },
    {
      "id": 375817,
      "lat": 32.1726091,
      "lon": 34.9295943000001,
      "label": "שופרסל - כפר סבא",
      "text": "",
      "stayTimes": "10:30 - 12:00",
      "t_start": "2020-04-02T08:30:00",
      "t_end": "2020-04-02T10:00:00",
      "link": ""
    },
    {
      "id": 375818,
      "lat": 32.105877881,
      "lon": 34.80971286,
      "label": "גני תערוכה - בדיקת קורונה - תל אביב - יפו",
      "text": "",
      "stayTimes": "20:45 - 20:50",
      "t_start": "2020-03-31T18:45:00",
      "t_end": "2020-03-31T18:50:00",
      "link": ""
    },
    {
      "id": 375819,
      "lat": 31.921899287,
      "lon": 34.858908795,
      "label": "מרפאת בן גוריון כללית - רמלה",
      "text": "",
      "stayTimes": "09:45 - 10:15",
      "t_start": "2020-03-31T07:45:00",
      "t_end": "2020-03-31T08:15:00",
      "link": ""
    },
    {
      "id": 375820,
      "lat": 32.3120405,
      "lon": 34.8709662000001,
      "label": "סופר פרם - נתניה",
      "text": "",
      "stayTimes": "17:00 - 17:10",
      "t_start": "2020-04-02T15:00:00",
      "t_end": "2020-04-02T15:10:00",
      "link": ""
    },
    {
      "id": 375821,
      "lat": 32.3231348,
      "lon": 34.8713024,
      "label": "סופרסל  דיל - נתניה",
      "text": "",
      "stayTimes": "15:00 - 15:30",
      "t_start": "2020-04-01T13:00:00",
      "t_end": "2020-04-01T13:30:00",
      "link": ""
    },
    {
      "id": 375822,
      "lat": 32.105877881,
      "lon": 34.80971286,
      "label": "גני התערוכה. בדיקת קורונה - תל אביב - יפו",
      "text": "",
      "stayTimes": "14:00 - 14:15",
      "t_start": "2020-04-01T12:00:00",
      "t_end": "2020-04-01T12:15:00",
      "link": ""
    },
    {
      "id": 375823,
      "lat": 32.3604795000001,
      "lon": 34.8622635,
      "label": "מכולת - חבצלת השרון",
      "text": "",
      "stayTimes": "13:00 - 13:10",
      "t_start": "2020-04-03T11:00:00",
      "t_end": "2020-04-03T11:10:00",
      "link": ""
    },
    {
      "id": 375824,
      "lat": 32.470466376,
      "lon": 35.0387796150001,
      "label": "שופרסל קניון מור - חריש",
      "text": "",
      "stayTimes": "19:30 - 20:00",
      "t_start": "2020-03-30T17:30:00",
      "t_end": "2020-03-30T18:00:00",
      "link": ""
    },
    {
      "id": 375825,
      "lat": 32.753231617,
      "lon": 35.1040484870001,
      "label": "מתנס צוער לצוער - רכסים",
      "text": "",
      "stayTimes": "10:30 - 13:00",
      "t_start": "2020-03-30T08:30:00",
      "t_end": "2020-03-30T11:00:00",
      "link": ""
    },
    {
      "id": 375826,
      "lat": 31.793238667,
      "lon": 35.2071995640001,
      "label": "בית אבות גני אורה - ירושלים",
      "text": "",
      "stayTimes": "07:00 - 15:00",
      "t_start": "2020-03-31T05:00:00",
      "t_end": "2020-03-31T13:00:00",
      "link": ""
    },
    {
      "id": 375827,
      "lat": 31.785913856,
      "lon": 35.1817924740001,
      "label": "מפעל מצות - ירושלים",
      "text": "",
      "stayTimes": "00:00 - 08:00",
      "t_start": "2020-03-31T22:00:00",
      "t_end": "2020-04-01T06:00:00",
      "link": ""
    },
    {
      "id": 375828,
      "lat": 32.0965506220001,
      "lon": 34.9428625250001,
      "label": "ויקטורי - ראש העין",
      "text": "",
      "stayTimes": "11:30 - 13:30",
      "t_start": "2020-03-30T09:30:00",
      "t_end": "2020-03-30T11:30:00",
      "link": ""
    },
    {
      "id": 375829,
      "lat": 31.9446726,
      "lon": 34.8052458000001,
      "label": "הוסטל בית גיא - ראשון לציון",
      "text": "",
      "stayTimes": "09:30 - 18:00",
      "t_start": "2020-04-01T07:30:00",
      "t_end": "2020-04-01T16:00:00",
      "link": ""
    },
    {
      "id": 375830,
      "lat": 31.687507709,
      "lon": 34.5791652280001,
      "label": "שופרסל ברנע - אשקלון",
      "text": "",
      "stayTimes": "16:00 - 16:30",
      "t_start": "2020-03-31T14:00:00",
      "t_end": "2020-03-31T14:30:00",
      "link": ""
    },
    {
      "id": 375831,
      "lat": 31.240496481,
      "lon": 34.7883985,
      "label": "תחנת משטרה סניף טוביהו - באר שבע",
      "text": "",
      "stayTimes": "07:30 - 16:30",
      "t_start": "2020-04-02T05:30:00",
      "t_end": "2020-04-02T14:30:00",
      "link": ""
    },
    {
      "id": 375832,
      "lat": 31.704015487,
      "lon": 35.112690468,
      "label": "קדושת לוי 51, ביתר עילית",
      "text": "",
      "stayTimes": "12:00 - 13:00",
      "t_start": "2020-03-30T10:00:00",
      "t_end": "2020-03-30T11:00:00",
      "link": ""
    },
    {
      "id": 375833,
      "lat": 32.048893504,
      "lon": 34.8555952830001,
      "label": "לשכת הגיוס תל השומר - רמת גן",
      "text": "",
      "stayTimes": "11:00 - 15:00",
      "t_start": "2020-03-30T09:00:00",
      "t_end": "2020-03-30T13:00:00",
      "link": ""
    },
    {
      "id": 375834,
      "lat": 31.8003819670001,
      "lon": 35.2203480310001,
      "label": "מעיין 2000 - ירושלים",
      "text": "",
      "stayTimes": "09:30 - 10:00",
      "t_start": "2020-04-02T07:30:00",
      "t_end": "2020-04-02T08:00:00",
      "link": ""
    },
    {
      "id": 375835,
      "lat": 32.060467197,
      "lon": 34.8292856250001,
      "label": "סופר נווה יהושע - רמת גן",
      "text": "",
      "stayTimes": "19:00 - 21:30",
      "t_start": "2020-03-31T17:00:00",
      "t_end": "2020-03-31T19:30:00",
      "link": ""
    },
    {
      "id": 375836,
      "lat": 32.721913881,
      "lon": 35.4948459490001,
      "label": "ביא' יוקרה - יבנאל",
      "text": "",
      "stayTimes": "14:30 - 22:00",
      "t_start": "2020-03-30T12:30:00",
      "t_end": "2020-03-30T20:00:00",
      "link": ""
    },
    {
      "id": 375837,
      "lat": 31.968521406,
      "lon": 34.8071347420001,
      "label": "מרפאת קופת חולים כללית פינסקר - ראשון לציון",
      "text": "",
      "stayTimes": "16:30 - 17:10",
      "t_start": "2020-03-30T14:30:00",
      "t_end": "2020-03-30T15:10:00",
      "link": ""
    },
    {
      "id": 375838,
      "lat": 32.721913881,
      "lon": 35.4948459490001,
      "label": "ביא' יוקרה - יבנאל",
      "text": "",
      "stayTimes": "14:00 - 21:30",
      "t_start": "2020-03-30T12:00:00",
      "t_end": "2020-03-30T19:30:00",
      "link": ""
    },
    {
      "id": 375839,
      "lat": 32.68407204,
      "lon": 35.3748770650001,
      "label": "חנות קינג סטור - דבוריה",
      "text": "",
      "stayTimes": "21:50 - 22:10",
      "t_start": "2020-03-30T19:50:00",
      "t_end": "2020-03-30T20:10:00",
      "link": ""
    },
    {
      "id": 375840,
      "lat": 31.6677893500001,
      "lon": 34.599840172,
      "label": "הפלדה 23, אשקלון",
      "text": "",
      "stayTimes": "08:00 - 08:30",
      "t_start": "2020-03-30T06:00:00",
      "t_end": "2020-03-30T06:30:00",
      "link": ""
    },
    {
      "id": 375841,
      "lat": 32.721913881,
      "lon": 35.4948459490001,
      "label": "ביא' יוקרה - יבנאל",
      "text": "",
      "stayTimes": "14:00 - 22:30",
      "t_start": "2020-03-30T12:00:00",
      "t_end": "2020-03-30T20:30:00",
      "link": ""
    },
    {
      "id": 375842,
      "lat": 31.9161609000001,
      "lon": 34.8727313000001,
      "label": "סופר פארם מצליח - רמלה",
      "text": "",
      "stayTimes": "10:13 - 10:20",
      "t_start": "2020-03-31T08:13:00",
      "t_end": "2020-03-31T08:20:00",
      "link": ""
    },
    {
      "id": 375843,
      "lat": 31.787826233,
      "lon": 35.2228443500001,
      "label": "מאפיית מצות מאה השערים - ירושלים",
      "text": "",
      "stayTimes": "09:00 - 18:00",
      "t_start": "2020-03-31T07:00:00",
      "t_end": "2020-03-31T16:00:00",
      "link": ""
    },
    {
      "id": 375844,
      "lat": 31.7934378730001,
      "lon": 35.2054955080001,
      "label": "גני אורה - ירושלים",
      "text": "",
      "stayTimes": "15:00 - 23:00",
      "t_start": "2020-03-30T13:00:00",
      "t_end": "2020-03-30T21:00:00",
      "link": ""
    },
    {
      "id": 375845,
      "lat": 32.0860142430001,
      "lon": 34.831381514,
      "label": "מעיין 200 סופר - בני ברק",
      "text": "",
      "stayTimes": "14:00 - 16:30",
      "t_start": "2020-03-30T12:00:00",
      "t_end": "2020-03-30T14:30:00",
      "link": ""
    },
    {
      "id": 375846,
      "lat": 31.6654069530001,
      "lon": 34.5645501380001,
      "label": "מס הכנסה - אשקלון",
      "text": "",
      "stayTimes": "08:50 - 17:10",
      "t_start": "2020-03-30T06:50:00",
      "t_end": "2020-03-30T15:10:00",
      "link": ""
    },
    {
      "id": 375847,
      "lat": 31.6654069530001,
      "lon": 34.5645501380001,
      "label": "מס הכנסה - אשקלון",
      "text": "",
      "stayTimes": "13:50 - 17:00",
      "t_start": "2020-03-31T11:50:00",
      "t_end": "2020-03-31T15:00:00",
      "link": ""
    },
    {
      "id": 375848,
      "lat": 31.655729367,
      "lon": 34.5842175610001,
      "label": "בית מרקחת קופ\"ח כללית- אסף הרופא - אשקלון",
      "text": "",
      "stayTimes": "11:00 - 11:30",
      "t_start": "2020-04-01T09:00:00",
      "t_end": "2020-04-01T09:30:00",
      "link": ""
    },
    {
      "id": 375849,
      "lat": 31.6641894000001,
      "lon": 34.5632752000001,
      "label": "ויקטורי בן גוריון - אשקלון",
      "text": "",
      "stayTimes": "08:00 - 09:00",
      "t_start": "2020-03-30T06:00:00",
      "t_end": "2020-03-30T07:00:00",
      "link": ""
    },
    {
      "id": 375850,
      "lat": 32.0740832920001,
      "lon": 34.8404990080001,
      "label": "בית מרקחת הר סיני - בני ברק",
      "text": "",
      "stayTimes": "08:25 - 08:35",
      "t_start": "2020-04-02T06:25:00",
      "t_end": "2020-04-02T06:35:00",
      "link": ""
    },
    {
      "id": 375851,
      "lat": 32.0692707000001,
      "lon": 34.8386134,
      "label": "ברכול לנדס 1 רמת גן - רמת גן",
      "text": "",
      "stayTimes": "14:00 - 14:15",
      "t_start": "2020-03-30T12:00:00",
      "t_end": "2020-03-30T12:15:00",
      "link": ""
    },
    {
      "id": 375852,
      "lat": 32.0692707000001,
      "lon": 34.8386134,
      "label": "ברכול - רמת גן",
      "text": "",
      "stayTimes": "19:10 - 19:25",
      "t_start": "2020-03-30T17:10:00",
      "t_end": "2020-03-30T17:25:00",
      "link": ""
    },
    {
      "id": 375853,
      "lat": 32.0692707000001,
      "lon": 34.8386134,
      "label": "ברכול - רמת גן",
      "text": "",
      "stayTimes": "09:45 - 09:55",
      "t_start": "2020-04-02T07:45:00",
      "t_end": "2020-04-02T07:55:00",
      "link": ""
    },
    {
      "id": 375854,
      "lat": 32.071500685,
      "lon": 34.838515624,
      "label": "עשר תעשה - בני ברק",
      "text": "",
      "stayTimes": "19:25 - 19:45",
      "t_start": "2020-03-30T17:25:00",
      "t_end": "2020-03-30T17:45:00",
      "link": ""
    },
    {
      "id": 375855,
      "lat": 32.0715922260001,
      "lon": 34.8385385560001,
      "label": "חנות עשר תעשר - בני ברק",
      "text": "",
      "stayTimes": "09:00 - 09:20",
      "t_start": "2020-04-03T07:00:00",
      "t_end": "2020-04-03T07:20:00",
      "link": ""
    },
    {
      "id": 375856,
      "lat": 32.8027178,
      "lon": 35.0124521000001,
      "label": "אושר עד - חיפה",
      "text": "",
      "stayTimes": "22:00 - 23:00",
      "t_start": "2020-03-31T20:00:00",
      "t_end": "2020-03-31T21:00:00",
      "link": ""
    },
    {
      "id": 375857,
      "lat": 32.7823325950001,
      "lon": 35.02865748,
      "label": "אגד סניף נוה שאנן - חיפה",
      "text": "",
      "stayTimes": "07:30 - 07:55",
      "t_start": "2020-03-30T05:30:00",
      "t_end": "2020-03-30T05:55:00",
      "link": ""
    },
    {
      "id": 375858,
      "lat": 31.7997442980001,
      "lon": 34.6623996050001,
      "label": "יש חסד - אשדוד",
      "text": "",
      "stayTimes": "14:30 - 15:30",
      "t_start": "2020-04-01T12:30:00",
      "t_end": "2020-04-01T13:30:00",
      "link": ""
    },
    {
      "id": 375859,
      "lat": 31.7665910000001,
      "lon": 34.6308036,
      "label": "סופר מארקט מחסני להב - אשדוד",
      "text": "",
      "stayTimes": "14:00 - 14:30",
      "t_start": "2020-04-03T12:00:00",
      "t_end": "2020-04-03T12:30:00",
      "link": ""
    },
    {
      "id": 375860,
      "lat": 32.0796136600001,
      "lon": 34.8344082950001,
      "label": "בית מרקחת - בני ברק",
      "text": "",
      "stayTimes": "09:30 - 10:00",
      "t_start": "2020-04-01T07:30:00",
      "t_end": "2020-04-01T08:00:00",
      "link": ""
    },
    {
      "id": 375861,
      "lat": 31.785356157,
      "lon": 34.66136548,
      "label": "קופת חולים לאומית - אשדוד",
      "text": "",
      "stayTimes": "12:00 - 12:45",
      "t_start": "2020-03-30T10:00:00",
      "t_end": "2020-03-30T10:45:00",
      "link": ""
    },
    {
      "id": 375862,
      "lat": 31.7856686000001,
      "lon": 34.6608390000001,
      "label": "מחסני בשר - אשדוד",
      "text": "",
      "stayTimes": "13:00 - 13:30",
      "t_start": "2020-03-30T11:00:00",
      "t_end": "2020-03-30T11:30:00",
      "link": ""
    },
    {
      "id": 375863,
      "lat": 31.6731153320001,
      "lon": 34.568535766,
      "label": "סופר פארם - אשקלון",
      "text": "",
      "stayTimes": "14:00 - 15:00",
      "t_start": "2020-04-01T12:00:00",
      "t_end": "2020-04-01T13:00:00",
      "link": ""
    },
    {
      "id": 375864,
      "lat": 32.524091115,
      "lon": 35.154581358,
      "label": "קניון אלארם - אום אל-פחם",
      "text": "",
      "stayTimes": "08:00 - 09:00",
      "t_start": "2020-03-31T06:00:00",
      "t_end": "2020-03-31T07:00:00",
      "link": ""
    },
    {
      "id": 375865,
      "lat": 32.0301833250001,
      "lon": 34.883557378,
      "label": "יצחק שדה 15, יהוד",
      "text": "",
      "stayTimes": "16:00 - 19:00",
      "t_start": "2020-03-31T14:00:00",
      "t_end": "2020-04-02T17:00:00",
      "link": ""
    },
    {
      "id": 375866,
      "lat": 32.090821981,
      "lon": 34.8388174410001,
      "label": "בטוח לאומי - בני ברק",
      "text": "",
      "stayTimes": "07:00 - 11:30",
      "t_start": "2020-03-30T05:00:00",
      "t_end": "2020-03-30T09:30:00",
      "link": ""
    },
    {
      "id": 375867,
      "lat": 32.0898639000001,
      "lon": 34.8851074,
      "label": "בית מרקחת \"גוד פארם\" - פתח תקווה",
      "text": "",
      "stayTimes": "09:30 - 10:00",
      "t_start": "2020-04-03T07:30:00",
      "t_end": "2020-04-03T08:00:00",
      "link": ""
    },
    {
      "id": 375868,
      "lat": 32.0914850790001,
      "lon": 34.8856150460001,
      "label": "חנות \"ויקטורי\" - פתח תקווה",
      "text": "",
      "stayTimes": "11:45 - 12:15",
      "t_start": "2020-03-30T09:45:00",
      "t_end": "2020-03-30T10:15:00",
      "link": ""
    },
    {
      "id": 375869,
      "lat": 32.0798892330001,
      "lon": 34.902398568,
      "label": "\"שופרסל\" - פתח תקווה",
      "text": "",
      "stayTimes": "13:30 - 14:15",
      "t_start": "2020-04-03T11:30:00",
      "t_end": "2020-04-03T12:15:00",
      "link": ""
    },
    {
      "id": 375870,
      "lat": 31.8111825,
      "lon": 35.2197587000001,
      "label": "קופת חולים כללית רמת שלומה - ירושלים",
      "text": "",
      "stayTimes": "12:30 - 13:00",
      "t_start": "2020-03-30T10:30:00",
      "t_end": "2020-03-30T11:00:00",
      "link": ""
    },
    {
      "id": 375871,
      "lat": 32.7219273000001,
      "lon": 35.4949277000001,
      "label": "מחלקת כלנית בבית האבות יוקרה - יבנאל",
      "text": "",
      "stayTimes": "19:00 - 07:00",
      "t_start": "2020-04-01T17:00:00",
      "t_end": "2020-04-02T05:00:00",
      "link": ""
    },
    {
      "id": 375872,
      "lat": 32.0468299,
      "lon": 34.9085715000001,
      "label": "סופר \"יש\" - בארות יצחק",
      "text": "",
      "stayTimes": "11:00 - 12:30",
      "t_start": "2020-04-01T09:00:00",
      "t_end": "2020-04-01T10:30:00",
      "link": ""
    },
    {
      "id": 375873,
      "lat": 32.0744598960001,
      "lon": 34.9010455260001,
      "label": "מוריה 2, פתח תקווה",
      "text": "",
      "stayTimes": "10:00 - 11:00",
      "t_start": "2020-03-30T08:00:00",
      "t_end": "2020-03-30T09:00:00",
      "link": ""
    },
    {
      "id": 375874,
      "lat": 32.1762699270001,
      "lon": 34.9341393230001,
      "label": "סופרמרקט שוק העיר - כפר סבא",
      "text": "",
      "stayTimes": "12:00 - 14:30",
      "t_start": "2020-04-03T10:00:00",
      "t_end": "2020-04-03T12:30:00",
      "link": ""
    },
    {
      "id": 375875,
      "lat": 32.0332097140001,
      "lon": 34.8910968640001,
      "label": "מרפאה - יהוד",
      "text": "",
      "stayTimes": "07:30 - 09:00",
      "t_start": "2020-04-01T05:30:00",
      "t_end": "2020-04-01T07:00:00",
      "link": ""
    },
    {
      "id": 375876,
      "lat": 32.0250675660001,
      "lon": 34.7767823610001,
      "label": "סיטי מרקט - חולון",
      "text": "",
      "stayTimes": "14:30 - 15:00",
      "t_start": "2020-04-03T12:30:00",
      "t_end": "2020-04-03T13:00:00",
      "link": ""
    },
    {
      "id": 375877,
      "lat": 31.764803752,
      "lon": 35.1490061490001,
      "label": "בית חולים עין כרם - ירושלים",
      "text": "",
      "stayTimes": "06:30 - 15:00",
      "t_start": "2020-03-31T04:30:00",
      "t_end": "2020-03-31T13:00:00",
      "link": ""
    },
    {
      "id": 375878,
      "lat": 32.1461142410001,
      "lon": 34.803998865,
      "label": "שופרסל \"גלילות\" - הרצליה",
      "text": "",
      "stayTimes": "08:30 - 09:15",
      "t_start": "2020-03-30T06:30:00",
      "t_end": "2020-03-30T07:15:00",
      "link": ""
    },
    {
      "id": 375879,
      "lat": 31.99084162,
      "lon": 34.761078383,
      "label": "אושר עד - ראשון לציון",
      "text": "",
      "stayTimes": "11:30 - 12:47",
      "t_start": "2020-04-03T09:30:00",
      "t_end": "2020-04-03T10:47:00",
      "link": ""
    },
    {
      "id": 375880,
      "lat": 32.1058370000001,
      "lon": 34.8923941,
      "label": "סופר \"אושר עד\" - פתח תקווה",
      "text": "",
      "stayTimes": "13:00 - 14:00",
      "t_start": "2020-04-01T11:00:00",
      "t_end": "2020-04-01T12:00:00",
      "link": ""
    },
    {
      "id": 375881,
      "lat": 32.751025401,
      "lon": 35.09142602,
      "label": "בר כל - כפר חסידים א'",
      "text": "",
      "stayTimes": "15:00 - 15:15",
      "t_start": "2020-04-02T13:00:00",
      "t_end": "2020-04-02T13:15:00",
      "link": ""
    },
    {
      "id": 375882,
      "lat": 31.8024193380001,
      "lon": 35.2191312850001,
      "label": "קופת חולים עגלי לוין 115 - ירושלים",
      "text": "",
      "stayTimes": "15:30 - 16:00",
      "t_start": "2020-03-30T13:30:00",
      "t_end": "2020-03-30T14:00:00",
      "link": ""
    },
    {
      "id": 375883,
      "lat": 31.7051188,
      "lon": 35.1168587000001,
      "label": "סופר \"יש חסד\" - ביתר עילית",
      "text": "",
      "stayTimes": "11:00 - 12:30",
      "t_start": "2020-03-31T09:00:00",
      "t_end": "2020-03-31T10:30:00",
      "link": ""
    },
    {
      "id": 375884,
      "lat": 32.8420155470001,
      "lon": 35.0922132060001,
      "label": "מרפאת זבולון מח' קרדיולוגיה - קרית מוצקין",
      "text": "",
      "stayTimes": "13:00 - 14:00",
      "t_start": "2020-03-30T11:00:00",
      "t_end": "2020-03-30T12:00:00",
      "link": ""
    },
    {
      "id": 375885,
      "lat": 32.5330904,
      "lon": 35.3195196,
      "label": "תחנת דלק מנטה - גן נר",
      "text": "",
      "stayTimes": "12:40 - 12:52",
      "t_start": "2020-03-31T10:40:00",
      "t_end": "2020-03-31T10:52:00",
      "link": ""
    },
    {
      "id": 375886,
      "lat": 32.68407204,
      "lon": 35.3748770650001,
      "label": "סופר משהדאוי - דבוריה",
      "text": "",
      "stayTimes": "09:00 - 09:55",
      "t_start": "2020-03-30T07:00:00",
      "t_end": "2020-03-30T07:55:00",
      "link": ""
    },
    {
      "id": 375887,
      "lat": 31.3152192000001,
      "lon": 34.6247327,
      "label": "מחסני השוק - אופקים",
      "text": "",
      "stayTimes": "15:30 - 17:00",
      "t_start": "2020-03-30T13:30:00",
      "t_end": "2020-03-30T15:00:00",
      "link": ""
    },
    {
      "id": 375888,
      "lat": 32.691790129,
      "lon": 35.371605705,
      "label": "קופת חולים כללית - דבוריה",
      "text": "",
      "stayTimes": "09:00 - 09:30",
      "t_start": "2020-04-01T07:00:00",
      "t_end": "2020-04-01T07:30:00",
      "link": ""
    },
    {
      "id": 375889,
      "lat": 31.764803752,
      "lon": 35.1490061490001,
      "label": "בי\"ח הדסה עין כרם - קומה 5 - דר ברגמן + אחות - ירושלים",
      "text": "",
      "stayTimes": "11:00 - 13:00",
      "t_start": "2020-03-30T09:00:00",
      "t_end": "2020-03-30T11:00:00",
      "link": ""
    },
    {
      "id": 375890,
      "lat": 31.764803752,
      "lon": 35.1490061490001,
      "label": "בי\"ח הדסה עין כרם - מרפאת ריאות קומה 5 - ירושלים",
      "text": "",
      "stayTimes": "18:00 - 18:30",
      "t_start": "2020-03-31T16:00:00",
      "t_end": "2020-03-31T16:30:00",
      "link": ""
    },
    {
      "id": 375891,
      "lat": 31.5227328,
      "lon": 34.5955976000001,
      "label": "בנק פועלים - שדרות",
      "text": "",
      "stayTimes": "11:00 - 11:30",
      "t_start": "2020-03-30T09:00:00",
      "t_end": "2020-03-30T09:30:00",
      "link": ""
    },
    {
      "id": 375892,
      "lat": 32.047584902,
      "lon": 34.9659479750001,
      "label": "סופר \"בר כל\" - אלעד",
      "text": "",
      "stayTimes": "21:00 - 22:30",
      "t_start": "2020-03-30T19:00:00",
      "t_end": "2020-03-30T20:30:00",
      "link": ""
    },
    {
      "id": 375893,
      "lat": 32.0525796000001,
      "lon": 34.9610671,
      "label": "קצביה בנחלת יצחק - אלעד",
      "text": "",
      "stayTimes": "16:00 - 17:30",
      "t_start": "2020-03-31T14:00:00",
      "t_end": "2020-03-31T15:30:00",
      "link": ""
    },
    {
      "id": 375894,
      "lat": 32.052590728,
      "lon": 34.9610781230001,
      "label": "סופר \"מזל וברכה\",נחלת יצחק - אלעד",
      "text": "",
      "stayTimes": "16:00 - 17:00",
      "t_start": "2020-03-31T14:00:00",
      "t_end": "2020-03-31T15:00:00",
      "link": ""
    },
    {
      "id": 375895,
      "lat": 31.7939895580001,
      "lon": 34.639149387,
      "label": "ינות ביתן בסיטי אשדוד - אשדוד",
      "text": "",
      "stayTimes": "18:00 - 19:00",
      "t_start": "2020-04-01T16:00:00",
      "t_end": "2020-04-01T17:00:00",
      "link": ""
    },
    {
      "id": 375896,
      "lat": 31.7829486000001,
      "lon": 34.6549948000001,
      "label": "מעדני מניה - אשדוד",
      "text": "",
      "stayTimes": "10:00 - 11:00",
      "t_start": "2020-04-01T08:00:00",
      "t_end": "2020-04-01T09:00:00",
      "link": ""
    },
    {
      "id": 375897,
      "lat": 31.241627856,
      "lon": 34.8035148760001,
      "label": "בית הפחם - באר שבע",
      "text": "",
      "stayTimes": "12:00 - 12:30",
      "t_start": "2020-04-01T10:00:00",
      "t_end": "2020-04-01T10:30:00",
      "link": ""
    },
    {
      "id": 375898,
      "lat": 31.3210790000001,
      "lon": 34.6230639,
      "label": "ויקטורי - אופקים",
      "text": "",
      "stayTimes": "12:30 - 13:00",
      "t_start": "2020-03-30T10:30:00",
      "t_end": "2020-03-30T11:00:00",
      "link": ""
    },
    {
      "id": 375899,
      "lat": 32.0802792000001,
      "lon": 34.7901360000001,
      "label": "מרפאת עיניים בית חולים איכילוב - תל אביב - יפו",
      "text": "",
      "stayTimes": "11:30 - 15:00",
      "t_start": "2020-04-01T09:30:00",
      "t_end": "2020-04-01T13:00:00",
      "link": ""
    },
    {
      "id": 375900,
      "lat": 31.7705040000001,
      "lon": 35.1845940000001,
      "label": "בית מרקחת עוזיאל - ירושלים",
      "text": "",
      "stayTimes": "14:00 - 14:30",
      "t_start": "2020-03-31T12:00:00",
      "t_end": "2020-03-31T12:30:00",
      "link": ""
    },
    {
      "id": 375901,
      "lat": 32.1461142410001,
      "lon": 34.803998865,
      "label": "שופרסל גלילות - רמת השרון",
      "text": "",
      "stayTimes": "11:00 - 23:00",
      "t_start": "2020-03-30T09:00:00",
      "t_end": "2020-03-30T21:00:00",
      "link": ""
    },
    {
      "id": 375902,
      "lat": 31.915902386,
      "lon": 35.0243825760001,
      "label": "רמי לוי - שילת",
      "text": "",
      "stayTimes": "09:30 - 11:00",
      "t_start": "2020-04-02T07:30:00",
      "t_end": "2020-04-02T09:00:00",
      "link": ""
    },
    {
      "id": 375903,
      "lat": 32.063398797,
      "lon": 34.791994657,
      "label": "יוחננוף - תל אביב - יפו",
      "text": "",
      "stayTimes": "12:00 - 16:30",
      "t_start": "2020-03-30T10:00:00",
      "t_end": "2020-03-30T14:30:00",
      "link": ""
    },
    {
      "id": 375904,
      "lat": 32.7220525560001,
      "lon": 35.4949279050001,
      "label": "ביא' יוקרה - יבנאל",
      "text": "",
      "stayTimes": "06:00 - 14:00",
      "t_start": "2020-03-30T04:00:00",
      "t_end": "2020-03-30T12:00:00",
      "link": ""
    },
    {
      "id": 375905,
      "lat": 32.722501859,
      "lon": 35.4949278940001,
      "label": "ביא' יוקרה - יבנאל",
      "text": "",
      "stayTimes": "06:00 - 14:00",
      "t_start": "2020-03-31T04:00:00",
      "t_end": "2020-03-31T12:00:00",
      "link": ""
    },
    {
      "id": 375906,
      "lat": 32.7219883720001,
      "lon": 35.4949278780001,
      "label": "ביא' יוקרה - יבנאל",
      "text": "",
      "stayTimes": "06:00 - 14:00",
      "t_start": "2020-04-01T04:00:00",
      "t_end": "2020-04-01T12:00:00",
      "link": ""
    },
    {
      "id": 375907,
      "lat": 32.9803820000001,
      "lon": 35.543548,
      "label": "מכולת חממי - חצור הגלילית",
      "text": "",
      "stayTimes": "10:00 - 11:00",
      "t_start": "2020-04-03T08:00:00",
      "t_end": "2020-04-03T09:00:00",
      "link": ""
    },
    {
      "id": 375908,
      "lat": 32.084856874,
      "lon": 34.8411504600001,
      "label": "בר כל - בני ברק",
      "text": "",
      "stayTimes": "09:00 - 10:00",
      "t_start": "2020-03-31T07:00:00",
      "t_end": "2020-03-31T08:00:00",
      "link": ""
    },
    {
      "id": 375909,
      "lat": 31.905703074,
      "lon": 35.007384491,
      "label": "מרפאה \"טרם\" - מודיעין-מכבים-רעות",
      "text": "",
      "stayTimes": "05:30 - 06:10",
      "t_start": "2020-04-04T03:30:00",
      "t_end": "2020-04-04T04:10:00",
      "link": ""
    },
    {
      "id": 375910,
      "lat": 32.0967365880001,
      "lon": 34.840825388,
      "label": "נתיב החסד - בני ברק",
      "text": "",
      "stayTimes": "20:00 - 20:20",
      "t_start": "2020-04-01T18:00:00",
      "t_end": "2020-04-01T18:20:00",
      "link": ""
    },
    {
      "id": 375911,
      "lat": 31.22449448,
      "lon": 34.821652945,
      "label": "סופר דבאח - באר שבע",
      "text": "",
      "stayTimes": "15:00 - 16:00",
      "t_start": "2020-03-31T13:00:00",
      "t_end": "2020-03-31T14:00:00",
      "link": ""
    },
    {
      "id": 375912,
      "lat": 31.7331721460001,
      "lon": 35.197818043,
      "label": "בית הפירות - ירושלים",
      "text": "",
      "stayTimes": "18:00 - 19:00",
      "t_start": "2020-04-02T16:00:00",
      "t_end": "2020-04-02T17:00:00",
      "link": ""
    },
    {
      "id": 375913,
      "lat": 31.7316702910001,
      "lon": 35.1872594170001,
      "label": "שופרסל גילה - ירושלים",
      "text": "",
      "stayTimes": "17:00 - 18:00",
      "t_start": "2020-04-02T15:00:00",
      "t_end": "2020-04-02T16:00:00",
      "link": ""
    },
    {
      "id": 375914,
      "lat": 31.7602453000001,
      "lon": 35.1764379000001,
      "label": "קופת חולים מאוחדת קרית יובל - ירושלים",
      "text": "",
      "stayTimes": "08:00 - 08:30",
      "t_start": "2020-04-01T06:00:00",
      "t_end": "2020-04-01T06:30:00",
      "link": ""
    },
    {
      "id": 375915,
      "lat": 31.651668919,
      "lon": 35.1497913010001,
      "label": "קופת חולים כללית אפרת - אפרת",
      "text": "",
      "stayTimes": "08:00 - 12:00",
      "t_start": "2020-03-30T06:00:00",
      "t_end": "2020-03-30T10:00:00",
      "link": ""
    },
    {
      "id": 375916,
      "lat": 32.80547125,
      "lon": 35.001583135,
      "label": "נתיב החסד - חיפה",
      "text": "",
      "stayTimes": "22:00 - 22:40",
      "t_start": "2020-04-04T20:00:00",
      "t_end": "2020-04-04T20:40:00",
      "link": ""
    },
    {
      "id": 375917,
      "lat": 32.080444433,
      "lon": 34.8314383410001,
      "label": "סמינר בית יעקב - בני ברק",
      "text": "",
      "stayTimes": "17:00 - 18:00",
      "t_start": "2020-03-31T15:00:00",
      "t_end": "2020-03-31T16:00:00",
      "link": ""
    },
    {
      "id": 375918,
      "lat": 31.667580028,
      "lon": 34.5687015140001,
      "label": "\"שוק העיר\" - אשקלון",
      "text": "",
      "stayTimes": "10:00 - 11:00",
      "t_start": "2020-04-02T08:00:00",
      "t_end": "2020-04-02T09:00:00",
      "link": ""
    },
    {
      "id": 375919,
      "lat": 31.667580028,
      "lon": 34.5687015140001,
      "label": "\"שוק העיר\" - אשקלון",
      "text": "",
      "stayTimes": "14:30 - 15:00",
      "t_start": "2020-04-02T12:30:00",
      "t_end": "2020-04-02T13:00:00",
      "link": ""
    },
    {
      "id": 375920,
      "lat": 32.1823231000001,
      "lon": 34.8954868000001,
      "label": "ביה\"ח מאיר - כפר סבא",
      "text": "",
      "stayTimes": "08:00 - 08:30",
      "t_start": "2020-04-05T06:00:00",
      "t_end": "2020-04-05T06:30:00",
      "link": ""
    },
    {
      "id": 375921,
      "lat": 31.7133116000001,
      "lon": 34.9883474000001,
      "label": "סופר \"יש חסד\" - בית שמש",
      "text": "",
      "stayTimes": "10:00 - 11:30",
      "t_start": "2020-03-30T08:00:00",
      "t_end": "2020-03-30T09:30:00",
      "link": ""
    },
    {
      "id": 375922,
      "lat": 32.6220099230001,
      "lon": 35.316880306,
      "label": "בית החולים העמק - עפולה",
      "text": "",
      "stayTimes": "22:30 - 22:30",
      "t_start": "2020-03-30T20:30:00",
      "t_end": "2020-03-30T20:30:00",
      "link": ""
    },
    {
      "id": 375923,
      "lat": 32.722020463,
      "lon": 35.494889759,
      "label": "ביא' יוקרה - יבנאל",
      "text": "",
      "stayTimes": "06:00 - 14:30",
      "t_start": "2020-03-30T04:00:00",
      "t_end": "2020-03-30T12:30:00",
      "link": ""
    },
    {
      "id": 375924,
      "lat": 32.7221167430001,
      "lon": 35.4951949310001,
      "label": "ביא' יוקרה - יבנאל",
      "text": "",
      "stayTimes": "06:00 - 14:30",
      "t_start": "2020-03-31T04:00:00",
      "t_end": "2020-03-31T12:30:00",
      "link": ""
    },
    {
      "id": 375925,
      "lat": 32.722020463,
      "lon": 35.494889754,
      "label": "ביא' יוקרה - יבנאל",
      "text": "",
      "stayTimes": "06:00 - 14:00",
      "t_start": "2020-04-01T04:00:00",
      "t_end": "2020-04-01T12:00:00",
      "link": ""
    },
    {
      "id": 375926,
      "lat": 32.7221167430001,
      "lon": 35.494851608,
      "label": "ביא' יוקרה - יבנאל",
      "text": "",
      "stayTimes": "06:00 - 14:30",
      "t_start": "2020-04-02T04:00:00",
      "t_end": "2020-04-02T12:30:00",
      "link": ""
    },
    {
      "id": 375927,
      "lat": 32.722020463,
      "lon": 35.4950423440001,
      "label": "ביא' יוקרה - יבנאל",
      "text": "",
      "stayTimes": "06:00 - 14:30",
      "t_start": "2020-04-03T04:00:00",
      "t_end": "2020-04-03T12:30:00",
      "link": ""
    },
    {
      "id": 375928,
      "lat": 32.1058370000001,
      "lon": 34.8923941,
      "label": "אושר עד - פתח תקווה",
      "text": "",
      "stayTimes": "12:00 - 12:30",
      "t_start": "2020-04-03T10:00:00",
      "t_end": "2020-04-03T10:30:00",
      "link": ""
    },
    {
      "id": 375929,
      "lat": 31.2477276830001,
      "lon": 34.8019442660001,
      "label": "קופ\"ח ג' - באר שבע",
      "text": "",
      "stayTimes": "10:30 - 11:00",
      "t_start": "2020-03-30T08:30:00",
      "t_end": "2020-03-30T09:00:00",
      "link": ""
    },
    {
      "id": 375930,
      "lat": 31.2477093380001,
      "lon": 34.801954994,
      "label": "קופ\"ח ג' - באר שבע",
      "text": "",
      "stayTimes": "08:30 - 09:00",
      "t_start": "2020-04-01T06:30:00",
      "t_end": "2020-04-01T07:00:00",
      "link": ""
    },
    {
      "id": 375931,
      "lat": 31.2542123110001,
      "lon": 34.7933358230001,
      "label": "סופר לב - באר שבע",
      "text": "",
      "stayTimes": "13:00 - 14:00",
      "t_start": "2020-03-30T11:00:00",
      "t_end": "2020-03-30T12:00:00",
      "link": ""
    },
    {
      "id": 375932,
      "lat": 31.2452234580001,
      "lon": 34.7989210000001,
      "label": "בנק אוצר החייל - באר שבע",
      "text": "",
      "stayTimes": "12:00 - 13:30",
      "t_start": "2020-03-30T10:00:00",
      "t_end": "2020-03-30T11:30:00",
      "link": ""
    },
    {
      "id": 375933,
      "lat": 31.9368157000001,
      "lon": 35.0389028000001,
      "label": "יינות ביתן - מודיעין עילית",
      "text": "",
      "stayTimes": "11:00 - 11:30",
      "t_start": "2020-03-30T09:00:00",
      "t_end": "2020-03-30T09:30:00",
      "link": ""
    },
    {
      "id": 375934,
      "lat": 32.0469554490001,
      "lon": 34.8448678510001,
      "label": "מעבדה מרכזית תל השומר - רמת גן",
      "text": "",
      "stayTimes": "07:00 - 19:00",
      "t_start": "2020-03-31T05:00:00",
      "t_end": "2020-03-31T17:00:00",
      "link": ""
    },
    {
      "id": 375935,
      "lat": 32.0469554490001,
      "lon": 34.8448678510001,
      "label": "מעבדה מרכזית תל השומר - רמת גן",
      "text": "",
      "stayTimes": "07:00 - 19:00",
      "t_start": "2020-04-02T05:00:00",
      "t_end": "2020-04-02T17:00:00",
      "link": ""
    },
    {
      "id": 375936,
      "lat": 32.0469554490001,
      "lon": 34.8448678510001,
      "label": "מעבדה מרכזית תל השומר - רמת גן",
      "text": "",
      "stayTimes": "07:30 - 09:00",
      "t_start": "2020-04-05T05:30:00",
      "t_end": "2020-04-05T07:00:00",
      "link": ""
    },
    {
      "id": 375937,
      "lat": 32.9612647970001,
      "lon": 35.4950951660001,
      "label": "קופ\"ח כללית , רחות הנשיא - צפת",
      "text": "",
      "stayTimes": "08:30 - 09:30",
      "t_start": "2020-04-01T06:30:00",
      "t_end": "2020-04-01T07:30:00",
      "link": ""
    },
    {
      "id": 375938,
      "lat": 32.1013388000001,
      "lon": 35.1692249000001,
      "label": "חנות משקאות\" יין בעיר\" אזור תעשייה אריאל - אריאל",
      "text": "",
      "stayTimes": "14:15 - 14:30",
      "t_start": "2020-03-30T12:15:00",
      "t_end": "2020-03-30T12:30:00",
      "link": ""
    },
    {
      "id": 375939,
      "lat": 32.1012912,
      "lon": 35.1692272000001,
      "label": "קונדטוריה \"שבתות וחגים\" אזור תעשיה אריאל - אריאל",
      "text": "",
      "stayTimes": "14:00 - 14:15",
      "t_start": "2020-03-30T12:00:00",
      "t_end": "2020-03-30T12:15:00",
      "link": ""
    },
    {
      "id": 375940,
      "lat": 32.0444342870001,
      "lon": 34.7691806880001,
      "label": "מעבדה לבריאות הציבור אבו כביר - תל אביב - יפו",
      "text": "",
      "stayTimes": "09:30 - 12:00",
      "t_start": "2020-04-05T07:30:00",
      "t_end": "2020-04-05T10:00:00",
      "link": ""
    },
    {
      "id": 375941,
      "lat": 32.0906142640001,
      "lon": 34.945982932,
      "label": "פינוי מדא לבית חולים - ראש העין",
      "text": "",
      "stayTimes": "00:00 - 00:00",
      "t_start": "2020-04-04T22:00:00",
      "t_end": "2020-04-04T22:00:00",
      "link": ""
    },
    {
      "id": 375942,
      "lat": 32.0490370000001,
      "lon": 34.842654,
      "label": "בלובי של מיון יולדות בבית חולים תל השומר - רמת גן",
      "text": "",
      "stayTimes": "10:00 - 14:00",
      "t_start": "2020-03-31T08:00:00",
      "t_end": "2020-03-31T12:00:00",
      "link": ""
    },
    {
      "id": 375943,
      "lat": 32.0872719320001,
      "lon": 34.8304819860001,
      "label": "קופ\"ח לאומית - בני ברק",
      "text": "",
      "stayTimes": "09:00 - 10:00",
      "t_start": "2020-04-03T07:00:00",
      "t_end": "2020-04-03T08:00:00",
      "link": ""
    },
    {
      "id": 375944,
      "lat": 31.8752204370001,
      "lon": 34.7386227540001,
      "label": "בית מרקחת כללית - יבנה",
      "text": "",
      "stayTimes": "10:35 - 12:04",
      "t_start": "2020-03-31T08:35:00",
      "t_end": "2020-03-31T10:04:00",
      "link": ""
    },
    {
      "id": 375945,
      "lat": 31.9691968770001,
      "lon": 34.803969076,
      "label": "קופת חולים כללית - ראשון לציון",
      "text": "",
      "stayTimes": "08:00 - 18:30",
      "t_start": "2020-03-31T06:00:00",
      "t_end": "2020-03-31T16:30:00",
      "link": ""
    },
    {
      "id": 375946,
      "lat": 31.865596113,
      "lon": 35.260582648,
      "label": "רמי לוי  איזור תעשיה שער בנימין - ירושלים",
      "text": "",
      "stayTimes": "08:30 - 08:50",
      "t_start": "2020-03-31T06:30:00",
      "t_end": "2020-03-31T06:50:00",
      "link": ""
    },
    {
      "id": 375947,
      "lat": 31.7891822070001,
      "lon": 34.664378931,
      "label": "בית מרקחת מכבי - אשדוד",
      "text": "",
      "stayTimes": "11:30 - 12:00",
      "t_start": "2020-03-30T09:30:00",
      "t_end": "2020-03-30T10:00:00",
      "link": ""
    },
    {
      "id": 375948,
      "lat": 31.777002327,
      "lon": 35.210144358,
      "label": "מרפאת קופ\"ח וולפסון - ירושלים",
      "text": "",
      "stayTimes": "16:30 - 17:30",
      "t_start": "2020-03-30T14:30:00",
      "t_end": "2020-03-30T15:30:00",
      "link": ""
    },
    {
      "id": 375949,
      "lat": 31.8875278190001,
      "lon": 34.820285099,
      "label": "סופר יינות ביתן - רחובות",
      "text": "",
      "stayTimes": "18:00 - 20:00",
      "t_start": "2020-04-01T16:00:00",
      "t_end": "2020-04-01T18:00:00",
      "link": ""
    },
    {
      "id": 375950,
      "lat": 31.78916803,
      "lon": 35.215500337,
      "label": "גאולה - ירושלים",
      "text": "",
      "stayTimes": "15:00 - 16:30",
      "t_start": "2020-03-31T13:00:00",
      "t_end": "2020-03-31T14:30:00",
      "link": ""
    },
    {
      "id": 375951,
      "lat": 32.9625904000001,
      "lon": 35.4834071000001,
      "label": "סופר כולל מרקט, איזור תעשיה - צפת",
      "text": "",
      "stayTimes": "13:30 - 14:00",
      "t_start": "2020-03-31T11:30:00",
      "t_end": "2020-03-31T12:00:00",
      "link": ""
    },
    {
      "id": 375952,
      "lat": 32.0898831000001,
      "lon": 34.834937,
      "label": "בית כנסת קופילוביץ - בני ברק",
      "text": "",
      "stayTimes": "07:00 - 09:00",
      "t_start": "2020-03-30T05:00:00",
      "t_end": "2020-03-30T07:00:00",
      "link": ""
    },
    {
      "id": 375953,
      "lat": 32.0551990060001,
      "lon": 34.8626548240001,
      "label": "מגה בעיר קניון קרית אונו - קרית אונו",
      "text": "",
      "stayTimes": "06:00 - 14:00",
      "t_start": "2020-04-02T04:00:00",
      "t_end": "2020-04-02T12:00:00",
      "link": ""
    },
    {
      "id": 375954,
      "lat": 32.0445779830001,
      "lon": 34.8021035450001,
      "label": "סופר אתי כל מרקט - תל אביב - יפו",
      "text": "",
      "stayTimes": "16:15 - 16:30",
      "t_start": "2020-04-02T14:15:00",
      "t_end": "2020-04-02T14:30:00",
      "link": ""
    },
    {
      "id": 375955,
      "lat": 32.07148441,
      "lon": 34.82805734,
      "label": "פרש מרקט - רמת גן",
      "text": "",
      "stayTimes": "11:00 - 12:30",
      "t_start": "2020-04-01T09:00:00",
      "t_end": "2020-04-01T10:30:00",
      "link": ""
    },
    {
      "id": 375956,
      "lat": 31.8158080470001,
      "lon": 35.202607432,
      "label": "מכולת \"זול וגדול\" שכונת רמות א - ירושלים",
      "text": "",
      "stayTimes": "10:00 - 11:00",
      "t_start": "2020-03-30T08:00:00",
      "t_end": "2020-03-30T09:00:00",
      "link": ""
    },
    {
      "id": 375957,
      "lat": 31.7867796,
      "lon": 35.2180795,
      "label": "בריסק - ירושלים",
      "text": "",
      "stayTimes": "16:00 - 20:30",
      "t_start": "2020-03-30T14:00:00",
      "t_end": "2020-03-30T18:30:00",
      "link": ""
    },
    {
      "id": 375958,
      "lat": 31.6611049270001,
      "lon": 34.589123752,
      "label": "סופר פארם קניון חוצות - אשקלון",
      "text": "",
      "stayTimes": "10:00 - 10:30",
      "t_start": "2020-04-03T08:00:00",
      "t_end": "2020-04-03T08:30:00",
      "link": ""
    },
    {
      "id": 375959,
      "lat": 32.0920991,
      "lon": 34.8387259,
      "label": "מטב - שירותי סיעוד עזרה וייעוץ לקשישים - בני ברק",
      "text": "",
      "stayTimes": "08:00 - 13:00",
      "t_start": "2020-04-01T06:00:00",
      "t_end": "2020-04-01T11:00:00",
      "link": ""
    },
    {
      "id": 375960,
      "lat": 32.7791922000001,
      "lon": 35.5029054,
      "label": "סופר מרקט יוחננוף - טבריה",
      "text": "",
      "stayTimes": "00:00 - 08:00",
      "t_start": "2020-04-02T22:00:00",
      "t_end": "2020-04-03T06:00:00",
      "link": ""
    },
    {
      "id": 375961,
      "lat": 32.0920991,
      "lon": 34.8387259,
      "label": "מטב - שירותי ייעוץ סיעוד ועזרה לקשישים - בני ברק",
      "text": "",
      "stayTimes": "08:00 - 13:00",
      "t_start": "2020-04-02T06:00:00",
      "t_end": "2020-04-02T11:00:00",
      "link": ""
    },
    {
      "id": 375962,
      "lat": 32.078894029,
      "lon": 34.8407030160001,
      "label": "יש חסד - בני ברק",
      "text": "",
      "stayTimes": "19:30 - 21:00",
      "t_start": "2020-04-02T17:30:00",
      "t_end": "2020-04-02T19:00:00",
      "link": ""
    },
    {
      "id": 375963,
      "lat": 32.7219273000001,
      "lon": 35.4949277000001,
      "label": "בית אבות יוקרה מחלקת יסמין - יבנאל",
      "text": "",
      "stayTimes": "14:00 - 22:00",
      "t_start": "2020-03-30T12:00:00",
      "t_end": "2020-03-30T20:00:00",
      "link": ""
    },
    {
      "id": 375964,
      "lat": 31.9659792,
      "lon": 34.8025789000001,
      "label": "בית מרקחת - ראשון לציון",
      "text": "",
      "stayTimes": "13:00 - 13:10",
      "t_start": "2020-03-31T11:00:00",
      "t_end": "2020-03-31T11:10:00",
      "link": ""
    },
    {
      "id": 375965,
      "lat": 32.691790129,
      "lon": 35.371605705,
      "label": "קופת חולים כללית - דבוריה",
      "text": "",
      "stayTimes": "09:00 - 09:30",
      "t_start": "2020-04-03T07:00:00",
      "t_end": "2020-04-03T07:30:00",
      "link": ""
    },
    {
      "id": 375966,
      "lat": 32.7219273000001,
      "lon": 35.4949277000001,
      "label": "בית אבות יוקרה מחלקת יסמין - יבנאל",
      "text": "",
      "stayTimes": "14:00 - 22:00",
      "t_start": "2020-03-31T12:00:00",
      "t_end": "2020-03-31T20:00:00",
      "link": ""
    },
    {
      "id": 375967,
      "lat": 32.086301286,
      "lon": 34.8348900760001,
      "label": "סופר נתיב החסד - בני ברק",
      "text": "",
      "stayTimes": "21:00 - 21:30",
      "t_start": "2020-03-31T19:00:00",
      "t_end": "2020-03-31T19:30:00",
      "link": ""
    },
    {
      "id": 375968,
      "lat": 31.9471436000001,
      "lon": 34.8918284000001,
      "label": "\"סופר פארם \" שדרות דוד המלך 2 לוד - לוד",
      "text": "",
      "stayTimes": "22:00 - 23:00",
      "t_start": "2020-04-02T20:00:00",
      "t_end": "2020-04-02T21:00:00",
      "link": ""
    },
    {
      "id": 375969,
      "lat": 31.9990278000001,
      "lon": 34.94685,
      "label": "\"סופר פארם מרכז מסחרי שוהם - שוהם",
      "text": "",
      "stayTimes": "16:30 - 17:30",
      "t_start": "2020-04-03T14:30:00",
      "t_end": "2020-04-03T15:30:00",
      "link": ""
    },
    {
      "id": 375970,
      "lat": 32.166809991,
      "lon": 34.842344559,
      "label": "בן גוריון 2, הרצליה",
      "text": "",
      "stayTimes": "08:00 - 08:30",
      "t_start": "2020-04-03T06:00:00",
      "t_end": "2020-04-03T06:30:00",
      "link": ""
    },
    {
      "id": 375971,
      "lat": 31.8180308,
      "lon": 35.1944247000001,
      "label": "סופר פארם קניון רמות - ירושלים",
      "text": "",
      "stayTimes": "10:00 - 10:20",
      "t_start": "2020-03-30T08:00:00",
      "t_end": "2020-03-30T08:20:00",
      "link": ""
    },
    {
      "id": 375972,
      "lat": 31.8075112980001,
      "lon": 35.2219486020001,
      "label": "בית מרקחת רמת שלמה - ירושלים",
      "text": "",
      "stayTimes": "14:00 - 14:15",
      "t_start": "2020-04-01T12:00:00",
      "t_end": "2020-04-01T12:15:00",
      "link": ""
    },
    {
      "id": 375973,
      "lat": 31.809617378,
      "lon": 35.2187470150001,
      "label": "חנות תקשורת - ירושלים",
      "text": "",
      "stayTimes": "14:30 - 15:00",
      "t_start": "2020-04-01T12:30:00",
      "t_end": "2020-04-01T13:00:00",
      "link": ""
    },
    {
      "id": 375974,
      "lat": 32.0279570000001,
      "lon": 34.864768,
      "label": "קופח כללית - אור יהודה",
      "text": "",
      "stayTimes": "07:30 - 19:00",
      "t_start": "2020-03-31T05:30:00",
      "t_end": "2020-03-31T17:00:00",
      "link": ""
    },
    {
      "id": 375975,
      "lat": 31.3210790000001,
      "lon": 34.6230639,
      "label": "ויקטורי - אופקים",
      "text": "",
      "stayTimes": "13:00 - 13:30",
      "t_start": "2020-04-02T11:00:00",
      "t_end": "2020-04-02T11:30:00",
      "link": ""
    },
    {
      "id": 375976,
      "lat": 32.0279570000001,
      "lon": 34.864768,
      "label": "קופח כללית - אור יהודה",
      "text": "",
      "stayTimes": "07:30 - 13:00",
      "t_start": "2020-03-30T05:30:00",
      "t_end": "2020-03-30T11:00:00",
      "link": ""
    },
    {
      "id": 375977,
      "lat": 32.0279570000001,
      "lon": 34.864768,
      "label": "קופח כללית - אור יהודה",
      "text": "",
      "stayTimes": "07:30 - 08:00",
      "t_start": "2020-04-02T05:30:00",
      "t_end": "2020-04-02T06:00:00",
      "link": ""
    },
    {
      "id": 375978,
      "lat": 32.0279570000001,
      "lon": 34.864768,
      "label": "קופח כללית - אור יהודה",
      "text": "",
      "stayTimes": "11:30 - 12:00",
      "t_start": "2020-04-03T09:30:00",
      "t_end": "2020-04-03T10:00:00",
      "link": ""
    },
    {
      "id": 375979,
      "lat": 32.0667213680001,
      "lon": 34.788182084,
      "label": "לסר (חנות ביצים) - תל אביב - יפו",
      "text": "",
      "stayTimes": "09:00 - 10:00",
      "t_start": "2020-04-02T07:00:00",
      "t_end": "2020-04-02T08:00:00",
      "link": ""
    },
    {
      "id": 375980,
      "lat": 32.028290579,
      "lon": 34.7483266520001,
      "label": "בית חולים בית בלב - בת ים",
      "text": "",
      "stayTimes": "08:00 - 16:00",
      "t_start": "2020-04-05T06:00:00",
      "t_end": "2020-04-05T14:00:00",
      "link": ""
    },
    {
      "id": 375981,
      "lat": 32.0951522440001,
      "lon": 34.838317536,
      "label": "מכולת - בני ברק",
      "text": "",
      "stayTimes": "20:30 - 21:00",
      "t_start": "2020-04-02T18:30:00",
      "t_end": "2020-04-02T19:00:00",
      "link": ""
    },
    {
      "id": 375982,
      "lat": 32.1673930440001,
      "lon": 34.8412880870001,
      "label": "סופר פארם - הרצליה",
      "text": "",
      "stayTimes": "12:00 - 12:30",
      "t_start": "2020-04-05T10:00:00",
      "t_end": "2020-04-05T10:30:00",
      "link": ""
    },
    {
      "id": 375983,
      "lat": 32.167390137,
      "lon": 34.841294954,
      "label": "חנות פארם - הרצליה",
      "text": "",
      "stayTimes": "12:30 - 13:00",
      "t_start": "2020-04-05T10:30:00",
      "t_end": "2020-04-05T11:00:00",
      "link": ""
    },
    {
      "id": 375984,
      "lat": 32.1818416,
      "lon": 34.8698910000001,
      "label": "ויקטורי - רעננה",
      "text": "",
      "stayTimes": "19:00 - 20:00",
      "t_start": "2020-04-05T17:00:00",
      "t_end": "2020-04-05T18:00:00",
      "link": ""
    },
    {
      "id": 375985,
      "lat": 32.0862497050001,
      "lon": 34.8349746970001,
      "label": "נתיב החסד - בני ברק",
      "text": "",
      "stayTimes": "07:30 - 08:00",
      "t_start": "2020-03-30T05:30:00",
      "t_end": "2020-03-30T06:00:00",
      "link": ""
    },
    {
      "id": 375986,
      "lat": 31.7390859130001,
      "lon": 34.981738953,
      "label": "מכולת רחוב הנורית - בית שמש",
      "text": "",
      "stayTimes": "10:00 - 10:30",
      "t_start": "2020-04-03T08:00:00",
      "t_end": "2020-04-03T08:30:00",
      "link": ""
    },
    {
      "id": 375987,
      "lat": 31.739338,
      "lon": 34.9829987000001,
      "label": "סופר \"הצלחה\" - בית שמש",
      "text": "",
      "stayTimes": "11:00 - 11:30",
      "t_start": "2020-04-03T09:00:00",
      "t_end": "2020-04-03T09:30:00",
      "link": ""
    },
    {
      "id": 375988,
      "lat": 31.7891547680001,
      "lon": 35.200832845,
      "label": "סופר פארם תחנה מרכזית ירושלים - ירושלים",
      "text": "",
      "stayTimes": "16:00 - 17:30",
      "t_start": "2020-03-30T14:00:00",
      "t_end": "2020-03-30T15:30:00",
      "link": ""
    },
    {
      "id": 375989,
      "lat": 32.086216194,
      "lon": 34.833729535,
      "label": "הום פלייב - בני ברק",
      "text": "",
      "stayTimes": "18:00 - 18:30",
      "t_start": "2020-03-30T16:00:00",
      "t_end": "2020-03-30T16:30:00",
      "link": ""
    },
    {
      "id": 375990,
      "lat": 32.0909845570001,
      "lon": 34.833674724,
      "label": "מכלת - בני ברק",
      "text": "",
      "stayTimes": "09:00 - 10:00",
      "t_start": "2020-03-31T07:00:00",
      "t_end": "2020-03-31T08:00:00",
      "link": ""
    },
    {
      "id": 375991,
      "lat": 32.7791922000001,
      "lon": 35.5029054,
      "label": "סופר מרקט יוחננוף - טבריה",
      "text": "",
      "stayTimes": "06:00 - 17:00",
      "t_start": "2020-03-30T04:00:00",
      "t_end": "2020-03-30T15:00:00",
      "link": ""
    },
    {
      "id": 375992,
      "lat": 32.7791922000001,
      "lon": 35.5029054,
      "label": "סופר מרקט יוחננוף - טבריה",
      "text": "",
      "stayTimes": "06:00 - 17:00",
      "t_start": "2020-03-31T04:00:00",
      "t_end": "2020-03-31T15:00:00",
      "link": ""
    },
    {
      "id": 375993,
      "lat": 32.7791922000001,
      "lon": 35.5029054,
      "label": "סופר מרקט יוחננוף - טבריה",
      "text": "",
      "stayTimes": "06:00 - 17:00",
      "t_start": "2020-04-01T04:00:00",
      "t_end": "2020-04-01T15:00:00",
      "link": ""
    },
    {
      "id": 375994,
      "lat": 32.7791922000001,
      "lon": 35.5029054,
      "label": "סופר מרקט יוחננוף - טבריה",
      "text": "",
      "stayTimes": "06:00 - 17:00",
      "t_start": "2020-04-02T04:00:00",
      "t_end": "2020-04-02T15:00:00",
      "link": ""
    },
    {
      "id": 375995,
      "lat": 31.6611049270001,
      "lon": 34.589126434,
      "label": "סופר פארם קניון חוצות - אשקלון",
      "text": "",
      "stayTimes": "10:00 - 10:30",
      "t_start": "2020-04-03T08:00:00",
      "t_end": "2020-04-03T08:30:00",
      "link": ""
    },
    {
      "id": 375996,
      "lat": 31.6910123000001,
      "lon": 34.5748005,
      "label": "קופת חולים היובל כללית - אשקלון",
      "text": "",
      "stayTimes": "08:30 - 09:00",
      "t_start": "2020-03-31T06:30:00",
      "t_end": "2020-03-31T07:00:00",
      "link": ""
    },
    {
      "id": 375997,
      "lat": 31.665112612,
      "lon": 34.566239178,
      "label": "מס הכנסה - אשקלון",
      "text": "",
      "stayTimes": "07:30 - 15:30",
      "t_start": "2020-03-30T05:30:00",
      "t_end": "2020-03-30T13:30:00",
      "link": ""
    },
    {
      "id": 375998,
      "lat": 32.079161442,
      "lon": 34.8384144680001,
      "label": "יש חסד - בני ברק",
      "text": "",
      "stayTimes": "12:00 - 14:00",
      "t_start": "2020-04-02T10:00:00",
      "t_end": "2020-04-02T12:00:00",
      "link": ""
    },
    {
      "id": 375999,
      "lat": 32.0914802,
      "lon": 34.8858244,
      "label": "סופר \"ויקטורי\" - פתח תקווה",
      "text": "",
      "stayTimes": "21:00 - 21:40",
      "t_start": "2020-04-02T19:00:00",
      "t_end": "2020-04-02T19:40:00",
      "link": ""
    },
    {
      "id": 376000,
      "lat": 32.1058370000001,
      "lon": 34.8923941,
      "label": "סופר \"אושר עד\" - פתח תקווה",
      "text": "",
      "stayTimes": "14:00 - 15:00",
      "t_start": "2020-04-05T12:00:00",
      "t_end": "2020-04-05T13:00:00",
      "link": ""
    },
    {
      "id": 376001,
      "lat": 32.5734600420001,
      "lon": 34.953848388,
      "label": "בנק הפועלים - זכרון יעקב",
      "text": "",
      "stayTimes": "21:00 - 21:30",
      "t_start": "2020-03-31T19:00:00",
      "t_end": "2020-03-31T19:30:00",
      "link": ""
    },
    {
      "id": 376002,
      "lat": 32.5744528000001,
      "lon": 34.9573079,
      "label": "10 TO 10 - זכרון יעקב",
      "text": "",
      "stayTimes": "16:00 - 17:00",
      "t_start": "2020-04-01T14:00:00",
      "t_end": "2020-04-01T15:00:00",
      "link": ""
    },
    {
      "id": 376003,
      "lat": 32.5669928,
      "lon": 34.9636553,
      "label": "שופר סל אקספרס - זכרון יעקב",
      "text": "",
      "stayTimes": "14:00 - 15:00",
      "t_start": "2020-03-31T12:00:00",
      "t_end": "2020-03-31T13:00:00",
      "link": ""
    },
    {
      "id": 376004,
      "lat": 32.055586707,
      "lon": 34.8633571340001,
      "label": "קופת חולים כללית - קרית אונו",
      "text": "",
      "stayTimes": "07:30 - 13:00",
      "t_start": "2020-04-01T05:30:00",
      "t_end": "2020-04-01T11:00:00",
      "link": ""
    },
    {
      "id": 376005,
      "lat": 32.0779937,
      "lon": 34.8285547,
      "label": "סופר \"בני תורה\" - בני ברק",
      "text": "",
      "stayTimes": "21:00 - 21:30",
      "t_start": "2020-04-02T19:00:00",
      "t_end": "2020-04-02T19:30:00",
      "link": ""
    },
    {
      "id": 376006,
      "lat": 32.0788934,
      "lon": 34.8407025000001,
      "label": "סופר \"יש חסד\" - בני ברק",
      "text": "",
      "stayTimes": "10:00 - 13:00",
      "t_start": "2020-04-02T08:00:00",
      "t_end": "2020-04-02T11:00:00",
      "link": ""
    },
    {
      "id": 376007,
      "lat": 32.1028236000001,
      "lon": 34.8361701000001,
      "label": "שופרסל דיל - בני ברק",
      "text": "",
      "stayTimes": "17:00 - 17:30",
      "t_start": "2020-03-31T15:00:00",
      "t_end": "2020-03-31T15:30:00",
      "link": ""
    },
    {
      "id": 376008,
      "lat": 31.419078719,
      "lon": 34.5959949430001,
      "label": "מסעדת טעם לשבח - שדרות",
      "text": "",
      "stayTimes": "08:00 - 08:30",
      "t_start": "2020-04-02T06:00:00",
      "t_end": "2020-04-02T06:30:00",
      "link": ""
    },
    {
      "id": 376009,
      "lat": 32.0555648280001,
      "lon": 34.86339502,
      "label": "קופת חולים כללית - קרית אונו",
      "text": "",
      "stayTimes": "07:30 - 14:00",
      "t_start": "2020-04-02T05:30:00",
      "t_end": "2020-04-02T12:00:00",
      "link": ""
    },
    {
      "id": 376010,
      "lat": 32.0751450000001,
      "lon": 34.854613,
      "label": "סופר חביב - גבעת שמואל",
      "text": "",
      "stayTimes": "09:00 - 09:30",
      "t_start": "2020-04-03T07:00:00",
      "t_end": "2020-04-03T07:30:00",
      "link": ""
    },
    {
      "id": 376011,
      "lat": 32.0754956430001,
      "lon": 34.8548399530001,
      "label": "על המשקל - גבעת שמואל",
      "text": "",
      "stayTimes": "09:30 - 09:45",
      "t_start": "2020-04-03T07:30:00",
      "t_end": "2020-04-03T07:45:00",
      "link": ""
    },
    {
      "id": 376012,
      "lat": 32.0887443710001,
      "lon": 34.826628558,
      "label": "נתיב החסד - בני ברק",
      "text": "",
      "stayTimes": "08:00 - 10:00",
      "t_start": "2020-03-31T06:00:00",
      "t_end": "2020-03-31T08:00:00",
      "link": ""
    },
    {
      "id": 376013,
      "lat": 32.0773136,
      "lon": 34.8423142,
      "label": "שוק העיר - בני ברק",
      "text": "",
      "stayTimes": "20:30 - 22:00",
      "t_start": "2020-04-02T18:30:00",
      "t_end": "2020-04-02T20:00:00",
      "link": ""
    },
    {
      "id": 376014,
      "lat": 31.930354962,
      "lon": 34.798596252,
      "label": "סופרפארם - נס ציונה",
      "text": "",
      "stayTimes": "08:55 - 09:05",
      "t_start": "2020-04-01T06:55:00",
      "t_end": "2020-04-01T07:05:00",
      "link": ""
    },
    {
      "id": 376015,
      "lat": 31.2540332,
      "lon": 34.7908044000001,
      "label": "קופת חולים שכונה ב'. מרפאת בן יאיר. בית מרקחת - באר שבע",
      "text": "",
      "stayTimes": "08:00 - 08:30",
      "t_start": "2020-03-30T06:00:00",
      "t_end": "2020-03-30T06:30:00",
      "link": ""
    },
    {
      "id": 376016,
      "lat": 32.4407945040001,
      "lon": 34.894924458,
      "label": "יוחננוף סופר מרקט - חדרה",
      "text": "",
      "stayTimes": "10:00 - 12:00",
      "t_start": "2020-04-03T08:00:00",
      "t_end": "2020-04-03T10:00:00",
      "link": ""
    },
    {
      "id": 376017,
      "lat": 31.922140217,
      "lon": 34.7937006000001,
      "label": "סופרפארם ישפרו סנטר - נס ציונה",
      "text": "",
      "stayTimes": "18:25 - 18:45",
      "t_start": "2020-04-02T16:25:00",
      "t_end": "2020-04-02T16:45:00",
      "link": ""
    },