{
  "points": [
    {
      "id": 46376,
      "lat": 32.0360309000001,
      "lon": 34.7627074000001,
      "label": "בית חולים וולפסון",
      "text": "",
      "stayTimes": "00:00-23:59",
      "t_start": "2020-03-17T22:00:00",
      "t_end": "2020-03-18T21:59:00",
      "link": ""
    },
    {
      "id": 46377,
      "lat": 32.0495300000001,
      "lon": 34.95075,
      "label": "בית כנסת \"משכנות נריה\", אלעד",
      "text": "",
      "stayTimes": "05:45-06:20",
      "t_start": "2020-03-18T03:45:00",
      "t_end": "2020-03-18T04:20:00",
      "link": ""
    },
    {
      "id": 46378,
      "lat": 31.87904,
      "lon": 35.248254,
      "label": "בית כנסת בבית מדרש \"אוהלי שם\" רח' נהר שלום כוכב יעקב",
      "text": "",
      "stayTimes": "05:15-06:15",
      "t_start": "2020-03-18T03:15:00",
      "t_end": "2020-03-18T04:15:00",
      "link": ""
    },
    {
      "id": 46379,
      "lat": 31.87904,
      "lon": 35.248254,
      "label": "בית כנסת בבית מדרש \"אוהלי שם\" רח' נהר שלום כוכב יעקב",
      "text": "",
      "stayTimes": "11:00-11:45",
      "t_start": "2020-03-18T09:00:00",
      "t_end": "2020-03-18T09:45:00",
      "link": ""
    },
    {
      "id": 46380,
      "lat": 31.87904,
      "lon": 35.248254,
      "label": "בית כנסת בבית מדרש \"אוהלי שם\" רח' נהר שלום כוכב יעקב",
      "text": "",
      "stayTimes": "17:30-18:15",
      "t_start": "2020-03-18T15:30:00",
      "t_end": "2020-03-18T16:15:00",
      "link": ""
    },
    {
      "id": 46381,
      "lat": 32.8040049050001,
      "lon": 35.0002236830001,
      "label": "בית כנסת מורשה - רח' השילוח 6 חיפה",
      "text": "",
      "stayTimes": "05:45-06:30",
      "t_start": "2020-03-18T03:45:00",
      "t_end": "2020-03-18T04:30:00",
      "link": ""
    },
    {
      "id": 46382,
      "lat": 31.6310856000001,
      "lon": 34.5260912000001,
      "label": "ביהכ\"נ תפעול חברת חשמל אתר רוטברג - אשקלון",
      "text": "",
      "stayTimes": "06:50 - 07:30",
      "t_start": "2020-03-18T04:50:00",
      "t_end": "2020-03-18T05:30:00",
      "link": ""
    },
    {
      "id": 46383,
      "lat": 32.1636519,
      "lon": 34.8428755,
      "label": "מכון דימות שללית שירותי בריאות, רמב\"ם 1, הרצליה",
      "text": "",
      "stayTimes": "09:00-11:00",
      "t_start": "2020-03-18T07:00:00",
      "t_end": "2020-03-18T09:00:00",
      "link": ""
    },
    {
      "id": 46384,
      "lat": 31.7954250000001,
      "lon": 34.662694,
      "label": "מרפאת \"ד\"ר בראון\", רחוב כיכר אלתא, רובע ז",
      "text": "",
      "stayTimes": "09:30-10:30",
      "t_start": "2020-03-18T07:30:00",
      "t_end": "2020-03-18T08:30:00",
      "link": ""
    },
    {
      "id": 46385,
      "lat": 32.0126802,
      "lon": 34.8054303000001,
      "label": "בנק מזרחי טפחות קומת כניסה - חולון",
      "text": "",
      "stayTimes": "10:30 - 11:30",
      "t_start": "2020-03-18T08:30:00",
      "t_end": "2020-03-18T09:30:00",
      "link": ""
    },
    {
      "id": 46386,
      "lat": 32.8040049050001,
      "lon": 35.0002236830001,
      "label": "בית כנסת מורשה -רח' השילוח 6 חיפה",
      "text": "",
      "stayTimes": "12:30-13:00",
      "t_start": "2020-03-18T10:30:00",
      "t_end": "2020-03-18T11:00:00",
      "link": ""
    },
    {
      "id": 46387,
      "lat": 31.6310856000001,
      "lon": 34.5260912000001,
      "label": "ביהכ\"נ תפעול חברת החשמל אתר רוטברג - אשקלון",
      "text": "",
      "stayTimes": "12:30 - 13:00",
      "t_start": "2020-03-18T10:30:00",
      "t_end": "2020-03-18T11:00:00",
      "link": ""
    },
    {
      "id": 46388,
      "lat": 32.0860216730001,
      "lon": 34.830397353,
      "label": "אשפוז יום - בני ברק",
      "text": "",
      "stayTimes": "13:00 - 14:00",
      "t_start": "2020-03-18T11:00:00",
      "t_end": "2020-03-18T12:00:00",
      "link": ""
    },
    {
      "id": 46389,
      "lat": 32.0100150000001,
      "lon": 34.8097050000001,
      "label": "סופר חצי חינם - חולון",
      "text": "",
      "stayTimes": "13:00 - 15:00",
      "t_start": "2020-03-18T11:00:00",
      "t_end": "2020-03-18T13:00:00",
      "link": ""
    },
    {
      "id": 46390,
      "lat": 31.7954250000001,
      "lon": 34.662694,
      "label": "מרפאת \"ד\"ר בראון\", רחוב כיכר אלתא, רובע ז",
      "text": "",
      "stayTimes": "17:00-17:30",
      "t_start": "2020-03-18T15:00:00",
      "t_end": "2020-03-18T15:30:00",
      "link": ""
    },
    {
      "id": 46391,
      "lat": 32.8040049050001,
      "lon": 35.0002236830001,
      "label": "בית כנסת מורשה -רח' השילוח 6 חיפה",
      "text": "",
      "stayTimes": "17:00-19:00",
      "t_start": "2020-03-18T15:00:00",
      "t_end": "2020-03-18T17:00:00",
      "link": ""
    },
    {
      "id": 46392,
      "lat": 31.2416998,
      "lon": 34.7925212000001,
      "label": "חנות תבלינים כוכב התבלינים עיר העתיקה ב\"ש - באר שבע",
      "text": "",
      "stayTimes": "20:00 - 20:30",
      "t_start": "2020-03-18T18:00:00",
      "t_end": "2020-03-18T18:30:00",
      "link": ""
    },
    {
      "id": 46393,
      "lat": 31.9421178060001,
      "lon": 34.8910435340001,
      "label": "קיוסק - לוד",
      "text": "",
      "stayTimes": "20:00 - 23:30",
      "t_start": "2020-03-18T18:00:00",
      "t_end": "2020-03-18T21:30:00",
      "link": ""
    },
    {
      "id": 46394,
      "lat": 32.036229468,
      "lon": 34.76199145,
      "label": "שופרסל  אקספרס מרכס מסחרי  בה\"ח וולפסון - חולון",
      "text": "",
      "stayTimes": "21:00 - 21:15",
      "t_start": "2020-03-18T19:00:00",
      "t_end": "2020-03-18T19:15:00",
      "link": ""
    },
    {
      "id": 46395,
      "lat": 32.1018083000001,
      "lon": 34.8298623000001,
      "label": "רמי לוי - בני ברק",
      "text": "",
      "stayTimes": "21:30 - 23:00",
      "t_start": "2020-03-18T19:30:00",
      "t_end": "2020-03-18T21:00:00",
      "link": ""
    },
    {
      "id": 46396,
      "lat": 32.8040049050001,
      "lon": 35.0002236830001,
      "label": "בית כנסת מורשה - רח' השילוח 6 חיפה",
      "text": "",
      "stayTimes": "05:45-06:30",
      "t_start": "2020-03-19T03:45:00",
      "t_end": "2020-03-19T04:30:00",
      "link": ""
    },
    {
      "id": 46397,
      "lat": 31.763070988,
      "lon": 35.2075006810001,
      "label": "בית כנסת \"שטיבלח\" - ירושלים",
      "text": "",
      "stayTimes": "07:00 - 10:00",
      "t_start": "2020-03-19T05:00:00",
      "t_end": "2020-03-19T08:00:00",
      "link": ""
    },
    {
      "id": 46398,
      "lat": 31.7834327,
      "lon": 35.173596,
      "label": "קופת חולים מאוחדת- מוקד חירום - ירושלים",
      "text": "",
      "stayTimes": "08:00 - 08:00",
      "t_start": "2020-03-19T06:00:00",
      "t_end": "2020-03-19T06:00:00",
      "link": ""
    },
    {
      "id": 46399,
      "lat": 32.0126802,
      "lon": 34.8054303000001,
      "label": "בנק מזרחי טפחות קומת כניסה - חולון",
      "text": "",
      "stayTimes": "10:30 - 11:30",
      "t_start": "2020-03-19T08:30:00",
      "t_end": "2020-03-19T09:30:00",
      "link": ""
    },
    {
      "id": 46400,
      "lat": 31.9430537260001,
      "lon": 34.889790406,
      "label": "קיוסק - לוד",
      "text": "",
      "stayTimes": "12:00 - 16:00",
      "t_start": "2020-03-19T10:00:00",
      "t_end": "2020-03-19T14:00:00",
      "link": ""
    },
    {
      "id": 46401,
      "lat": 32.8040049050001,
      "lon": 35.0002236830001,
      "label": "בית כנסת מורשה -רח' השילוח 6 חיפה",
      "text": "",
      "stayTimes": "12:30-13:00",
      "t_start": "2020-03-19T10:30:00",
      "t_end": "2020-03-19T11:00:00",
      "link": ""
    },
    {
      "id": 46402,
      "lat": 32.0873548000001,
      "lon": 34.8289585000001,
      "label": "בית הכנסת הגדול - בני ברק",
      "text": "",
      "stayTimes": "14:30 - 15:00",
      "t_start": "2020-03-19T12:30:00",
      "t_end": "2020-03-19T13:00:00",
      "link": ""
    },
    {
      "id": 46403,
      "lat": 31.9093954000001,
      "lon": 34.805436,
      "label": "חנות אופיס דיפו צומת בילו - רחובות",
      "text": "",
      "stayTimes": "16:30 - 17:00",
      "t_start": "2020-03-19T14:30:00",
      "t_end": "2020-03-19T15:00:00",
      "link": ""
    },
    {
      "id": 46404,
      "lat": 32.8040049050001,
      "lon": 35.0002236830001,
      "label": "בית כנסת מורשה -רח' השילוח 6 חיפה",
      "text": "",
      "stayTimes": "17:00-19:00",
      "t_start": "2020-03-19T15:00:00",
      "t_end": "2020-03-19T17:00:00",
      "link": ""
    },
    {
      "id": 46405,
      "lat": 31.310954,
      "lon": 34.6126154,
      "label": "מרפאת כללית בסניף מישור הגפן, אופקים",
      "text": "",
      "stayTimes": "18:00-18:30",
      "t_start": "2020-03-19T16:00:00",
      "t_end": "2020-03-19T16:30:00",
      "link": ""
    },
    {
      "id": 46406,
      "lat": 31.243507102,
      "lon": 34.810619413,
      "label": "B7 שופרסל בי (סופרפארם של שופרסל) - באר שבע",
      "text": "",
      "stayTimes": "19:00 - 19:30",
      "t_start": "2020-03-19T17:00:00",
      "t_end": "2020-03-19T17:30:00",
      "link": ""
    },
    {
      "id": 46407,
      "lat": 32.8040049050001,
      "lon": 35.0002236830001,
      "label": "בית כנסת מורשה - רח' השילוח 6 חיפה",
      "text": "",
      "stayTimes": "05:45-06:30",
      "t_start": "2020-03-20T03:45:00",
      "t_end": "2020-03-20T04:30:00",
      "link": ""
    },
    {
      "id": 46408,
      "lat": 32.8040049050001,
      "lon": 35.0002236830001,
      "label": "בית כנסת מורשה -רח' השילוח 6 חיפה",
      "text": "",
      "stayTimes": "12:30-13:00",
      "t_start": "2020-03-20T10:30:00",
      "t_end": "2020-03-20T11:00:00",
      "link": ""
    },
    {
      "id": 46409,
      "lat": 32.7694308550001,
      "lon": 35.4759519740001,
      "label": "מאפית אליס - טבריה",
      "text": "",
      "stayTimes": "12:30 - 13:00",
      "t_start": "2020-03-20T10:30:00",
      "t_end": "2020-03-20T11:00:00",
      "link": ""
    },
    {
      "id": 46410,
      "lat": 29.5542451860001,
      "lon": 34.940702039,
      "label": "מלר\"ד קורונה/מחלות זיהומיות יוספטל",
      "text": "",
      "stayTimes": "16:00-18:30",
      "t_start": "2020-03-20T14:00:00",
      "t_end": "2020-03-20T16:30:00",
      "link": ""
    },
    {
      "id": 46411,
      "lat": 32.8040049050001,
      "lon": 35.0002236830001,
      "label": "בית כנסת מורשה -רח' השילוח 6 חיפה",
      "text": "",
      "stayTimes": "17:00-19:00",
      "t_start": "2020-03-20T15:00:00",
      "t_end": "2020-03-20T17:00:00",
      "link": ""
    },
    {
      "id": 46412,
      "lat": 32.8040049050001,
      "lon": 35.0002236830001,
      "label": "בית כנסת מורשה - רח' השילוח 6 חיפה",
      "text": "",
      "stayTimes": "05:45-06:30",
      "t_start": "2020-03-21T03:45:00",
      "t_end": "2020-03-21T04:30:00",
      "link": ""
    },
    {
      "id": 46413,
      "lat": 32.086465339,
      "lon": 34.832410714,
      "label": "מקוה צאנז - בני ברק",
      "text": "",
      "stayTimes": "06:00 - 06:10",
      "t_start": "2020-03-21T04:00:00",
      "t_end": "2020-03-21T04:10:00",
      "link": ""
    },
    {
      "id": 46414,
      "lat": 32.8040049050001,
      "lon": 35.0002236830001,
      "label": "בית כנסת מורשה -רח' השילוח 6 חיפה",
      "text": "",
      "stayTimes": "12:30-13:00",
      "t_start": "2020-03-21T10:30:00",
      "t_end": "2020-03-21T11:00:00",
      "link": ""
    },
    {
      "id": 46415,
      "lat": 32.8040049050001,
      "lon": 35.0002236830001,
      "label": "בית כנסת מורשה -רח' השילוח 6 חיפה",
      "text": "",
      "stayTimes": "17:00-19:00",
      "t_start": "2020-03-21T15:00:00",
      "t_end": "2020-03-21T17:00:00",
      "link": ""
    },
    {
      "id": 46416,
      "lat": 32.0998254680001,
      "lon": 34.820579175,
      "label": "אושר עד - בני ברק",
      "text": "",
      "stayTimes": "19:50 - 20:30",
      "t_start": "2020-03-21T17:50:00",
      "t_end": "2020-03-21T18:30:00",
      "link": ""
    },
    {
      "id": 46417,
      "lat": 32.0998254680001,
      "lon": 34.820579175,
      "label": "עזר מציון - בני ברק",
      "text": "",
      "stayTimes": "23:00 - 00:00",
      "t_start": "2020-03-21T21:00:00",
      "t_end": "2020-03-21T22:00:00",
      "link": ""
    },
    {
      "id": 46418,
      "lat": 32.8040049050001,
      "lon": 35.0002236830001,
      "label": "בית כנסת מורשה - רח' השילוח 6 חיפה",
      "text": "",
      "stayTimes": "05:45-06:30",
      "t_start": "2020-03-22T03:45:00",
      "t_end": "2020-03-22T04:30:00",
      "link": ""
    },
    {
      "id": 46419,
      "lat": 32.4747429,
      "lon": 34.9978065,
      "label": "סופר סל שלי כרכור - פרדס חנה-כרכור",
      "text": "",
      "stayTimes": "08:30 - 12:30",
      "t_start": "2020-03-22T06:30:00",
      "t_end": "2020-03-22T10:30:00",
      "link": ""
    },
    {
      "id": 46420,
      "lat": 32.8040049050001,
      "lon": 35.0002236830001,
      "label": "בית כנסת מורשה -רח' השילוח 6 חיפה",
      "text": "",
      "stayTimes": "12:30-13:00",
      "t_start": "2020-03-22T10:30:00",
      "t_end": "2020-03-22T11:00:00",
      "link": ""
    },
    {
      "id": 46421,
      "lat": 32.8040049050001,
      "lon": 35.0002236830001,
      "label": "בית כנסת מורשה -רח' השילוח 6 חיפה",
      "text": "",
      "stayTimes": "17:00-19:00",
      "t_start": "2020-03-22T15:00:00",
      "t_end": "2020-03-22T17:00:00",
      "link": ""
    },
    {
      "id": 46422,
      "lat": 31.6732514890001,
      "lon": 34.568105486,
      "label": "סופר פארם - אשקלון",
      "text": "",
      "stayTimes": "15:30 - 16:30",
      "t_start": "2020-03-20T13:30:00",
      "t_end": "2020-03-20T14:30:00",
      "link": ""
    },
    {
      "id": 46423,
      "lat": 31.9667644,
      "lon": 34.8398698,
      "label": "מיון אסף הרופא - באר יעקב",
      "text": "",
      "stayTimes": "17:20 - 22:00",
      "t_start": "2020-03-18T15:20:00",
      "t_end": "2020-03-18T20:00:00",
      "link": ""
    },
    {
      "id": 46424,
      "lat": 32.0823722280001,
      "lon": 34.830741097,
      "label": "בית כנסת \"צעירים\" - בני ברק",
      "text": "",
      "stayTimes": "05:45 - 07:30",
      "t_start": "2020-03-18T03:45:00",
      "t_end": "2020-03-18T05:30:00",
      "link": ""
    },
    {
      "id": 46425,
      "lat": 32.0986403000001,
      "lon": 34.8432326000001,
      "label": "בית כנסת חסידי גור - בני ברק",
      "text": "",
      "stayTimes": "08:00 - 09:45",
      "t_start": "2020-03-18T06:00:00",
      "t_end": "2020-03-18T07:45:00",
      "link": ""
    },
    {
      "id": 46426,
      "lat": 31.7937262,
      "lon": 35.3337855,
      "label": "סופרמרקט \"רמי לוי שיווק השקמה\" - מעלה אדומים",
      "text": "",
      "stayTimes": "09:45 - 10:15",
      "t_start": "2020-03-18T07:45:00",
      "t_end": "2020-03-18T08:15:00",
      "link": ""
    },
    {
      "id": 46427,
      "lat": 31.862712,
      "lon": 35.1749548000001,
      "label": "סופר \"שוק העיר\" - גבעת זאב",
      "text": "",
      "stayTimes": "08:30 - 10:30",
      "t_start": "2020-03-24T06:30:00",
      "t_end": "2020-03-24T08:30:00",
      "link": ""
    },
    {
      "id": 46428,
      "lat": 31.862562788,
      "lon": 35.1748595820001,
      "label": "סופר \"שוק העיר\" - גבעת זאב",
      "text": "",
      "stayTimes": "08:00 - 09:15",
      "t_start": "2020-03-20T06:00:00",
      "t_end": "2020-03-20T07:15:00",
      "link": ""
    },
    {
      "id": 46429,
      "lat": 31.8932051,
      "lon": 34.8068646,
      "label": "טויז אר אס צומת בילו - רחובות",
      "text": "",
      "stayTimes": "18:30 - 19:00",
      "t_start": "2020-03-18T16:30:00",
      "t_end": "2020-03-18T17:00:00",
      "link": ""
    },
    {
      "id": 46430,
      "lat": 32.0141310000001,
      "lon": 34.7427910000001,
      "label": "בית מרקחת עזרא - בת ים",
      "text": "",
      "stayTimes": "16:30 - 17:10",
      "t_start": "2020-03-18T14:30:00",
      "t_end": "2020-03-18T15:10:00",
      "link": ""
    },
    {
      "id": 46431,
      "lat": 31.7656617000001,
      "lon": 35.1491024000001,
      "label": "מיון ביוליוגי בי\"ח הדסה ע\"כ - ירושלים",
      "text": "",
      "stayTimes": "16:00 - 20:00",
      "t_start": "2020-03-22T14:00:00",
      "t_end": "2020-03-22T18:00:00",
      "link": ""
    },
    {
      "id": 46432,
      "lat": 32.6213325640001,
      "lon": 35.3160931080001,
      "label": "ביח' העמק - עפולה",
      "text": "",
      "stayTimes": "19:00 - 20:00",
      "t_start": "2020-03-23T17:00:00",
      "t_end": "2020-03-23T18:00:00",
      "link": ""
    },
    {
      "id": 46433,
      "lat": 32.0836468000001,
      "lon": 34.8544321000001,
      "label": "מרפאה של דר' ברקוביץ - גבעת שמואל",
      "text": "",
      "stayTimes": "09:00 - 10:00",
      "t_start": "2020-03-22T07:00:00",
      "t_end": "2020-03-22T08:00:00",
      "link": ""
    },
    {
      "id": 46434,
      "lat": 32.0862991000001,
      "lon": 34.8348894000001,
      "label": "סופר מרקט נתיב החסד - בני ברק",
      "text": "",
      "stayTimes": "11:00 - 11:15",
      "t_start": "2020-03-20T09:00:00",
      "t_end": "2020-03-20T09:15:00",
      "link": ""
    },
    {
      "id": 46435,
      "lat": 32.0798340000001,
      "lon": 34.841219,
      "label": "בית כנסת מנין אברכים - בני ברק",
      "text": "",
      "stayTimes": "10:10 - 11:00",
      "t_start": "2020-03-19T08:10:00",
      "t_end": "2020-03-19T09:00:00",
      "link": ""
    },
    {
      "id": 46436,
      "lat": 32.084876937,
      "lon": 34.835267199,
      "label": "כולל הרן - בני ברק",
      "text": "",
      "stayTimes": "11:00 - 15:10",
      "t_start": "2020-03-19T09:00:00",
      "t_end": "2020-03-19T13:10:00",
      "link": ""
    },
    {
      "id": 46437,
      "lat": 32.6424195000001,
      "lon": 35.0924242,
      "label": "שופרסל דיל בביג - יקנעם (מושבה)",
      "text": "",
      "stayTimes": "14:00 - 15:00",
      "t_start": "2020-03-20T12:00:00",
      "t_end": "2020-03-20T13:00:00",
      "link": ""
    },
    {
      "id": 46438,
      "lat": 32.2886786490001,
      "lon": 34.8636800840001,
      "label": "חברת סונול - נתניה",
      "text": "",
      "stayTimes": "11:00 - 19:00",
      "t_start": "2020-03-19T09:00:00",
      "t_end": "2020-03-19T17:00:00",
      "link": ""
    },
    {
      "id": 46439,
      "lat": 32.2926403000001,
      "lon": 34.8624596000001,
      "label": "רמי לוי שיווק השקמה - נתניה",
      "text": "",
      "stayTimes": "20:00 - 21:00",
      "t_start": "2020-03-19T18:00:00",
      "t_end": "2020-03-19T19:00:00",
      "link": ""
    },
    {
      "id": 46440,
      "lat": 32.7866325000001,
      "lon": 35.5242448000001,
      "label": "מכולת \"טל מרקט\" - טבריה",
      "text": "",
      "stayTimes": "14:00 - 14:30",
      "t_start": "2020-03-18T12:00:00",
      "t_end": "2020-03-18T12:30:00",
      "link": ""
    },
    {
      "id": 46441,
      "lat": 32.7791922000001,
      "lon": 35.5029054,
      "label": "סופרמרקט \"יוחננוף\" - טבריה",
      "text": "",
      "stayTimes": "15:30 - 17:00",
      "t_start": "2020-03-18T13:30:00",
      "t_end": "2020-03-18T15:00:00",
      "link": ""
    },
    {
      "id": 46442,
      "lat": 31.6619693000001,
      "lon": 34.55967,
      "label": "מיון ברזילי - אשקלון",
      "text": "",
      "stayTimes": "20:30 - 23:30",
      "t_start": "2020-03-23T18:30:00",
      "t_end": "2020-03-23T21:30:00",
      "link": ""
    },
    {
      "id": 46443,
      "lat": 32.801459703,
      "lon": 35.6886500730001,
      "label": "בית מרקחת קניון נוף גולן - בני יהודה",
      "text": "",
      "stayTimes": "13:30 - 14:00",
      "t_start": "2020-03-22T11:30:00",
      "t_end": "2020-03-22T12:00:00",
      "link": ""
    },
    {
      "id": 46444,
      "lat": 32.7994380000001,
      "lon": 35.6832441,
      "label": "חנות ביג מוצרי בנין - גבעת יואב",
      "text": "",
      "stayTimes": "14:00 - 14:30",
      "t_start": "2020-03-22T12:00:00",
      "t_end": "2020-03-22T12:30:00",
      "link": ""
    },
    {
      "id": 46445,
      "lat": 31.7974363000001,
      "lon": 35.2422844000001,
      "label": "מחלקה פנימית א' הדסה הר הצופים - ירושלים",
      "text": "",
      "stayTimes": "09:00 - 18:00",
      "t_start": "2020-03-18T07:00:00",
      "t_end": "2020-03-18T16:00:00",
      "link": ""
    },
    {
      "id": 46446,
      "lat": 31.7974363000001,
      "lon": 35.2422844000001,
      "label": "מחלקה פנימית א' הדסה הר הצופים - ירושלים",
      "text": "",
      "stayTimes": "09:00 - 18:00",
      "t_start": "2020-03-19T07:00:00",
      "t_end": "2020-03-19T16:00:00",
      "link": ""
    },
    {
      "id": 46447,
      "lat": 32.0055320000001,
      "lon": 34.8854112000001,
      "label": "עבודה בנתב\"ג - לוד",
      "text": "",
      "stayTimes": "05:00 - 14:00",
      "t_start": "2020-03-18T03:00:00",
      "t_end": "2020-03-18T12:00:00",
      "link": ""
    },
    {
      "id": 46448,
      "lat": 32.5685534670001,
      "lon": 34.9548873620001,
      "label": "שופרסל בקניון פסגת זכרון - זכרון יעקב",
      "text": "",
      "stayTimes": "21:30 - 23:00",
      "t_start": "2020-03-21T19:30:00",
      "t_end": "2020-03-21T21:00:00",
      "link": ""
    },
    {
      "id": 46449,
      "lat": 31.8686612000001,
      "lon": 34.7460415,
      "label": "סופרפארם - יבנה",
      "text": "",
      "stayTimes": "20:30 - 21:00",
      "t_start": "2020-03-23T18:30:00",
      "t_end": "2020-03-23T19:00:00",
      "link": ""
    },
    {
      "id": 46450,
      "lat": 32.4520147000001,
      "lon": 34.8963615000001,
      "label": "מיון הלל יפה - חדרה",
      "text": "",
      "stayTimes": "22:00 - 00:45",
      "t_start": "2020-03-22T20:00:00",
      "t_end": "2020-03-22T22:45:00",
      "link": ""
    },
    {
      "id": 46451,
      "lat": 32.4382128230001,
      "lon": 34.927502492,
      "label": "בטרם - חדרה - חדרה",
      "text": "",
      "stayTimes": "21:30 - 22:00",
      "t_start": "2020-03-22T19:30:00",
      "t_end": "2020-03-22T20:00:00",
      "link": ""
    },
    {
      "id": 46452,
      "lat": 32.0854192,
      "lon": 34.8384949000001,
      "label": "קומפיוטיק - בני ברק",
      "text": "",
      "stayTimes": "19:45 - 20:15",
      "t_start": "2020-03-18T17:45:00",
      "t_end": "2020-03-18T18:15:00",
      "link": ""
    },
    {
      "id": 46453,
      "lat": 32.0902382100001,
      "lon": 34.836628795,
      "label": "כולל שערי שמעון נאות יוסף - בני ברק",
      "text": "",
      "stayTimes": "09:00 - 13:10",
      "t_start": "2020-03-18T07:00:00",
      "t_end": "2020-03-18T11:10:00",
      "link": ""
    },
    {
      "id": 46454,
      "lat": 32.084932,
      "lon": 34.835226,
      "label": "לוקווא - בני ברק",
      "text": "",
      "stayTimes": "07:15 - 08:30",
      "t_start": "2020-03-18T05:15:00",
      "t_end": "2020-03-18T06:30:00",
      "link": ""
    },
    {
      "id": 46455,
      "lat": 32.091213065,
      "lon": 34.8346251850001,
      "label": "לוקווא - בני ברק",
      "text": "",
      "stayTimes": "07:15 - 08:30",
      "t_start": "2020-03-19T05:15:00",
      "t_end": "2020-03-19T06:30:00",
      "link": ""
    },
    {
      "id": 46456,
      "lat": 32.0476757000001,
      "lon": 34.9633600000001,
      "label": "בית כנסת רעות - אלעד",
      "text": "",
      "stayTimes": "10:00 - 11:00",
      "t_start": "2020-03-18T08:00:00",
      "t_end": "2020-03-18T09:00:00",
      "link": ""
    },
    {
      "id": 46457,
      "lat": 32.0476757000001,
      "lon": 34.9633600000001,
      "label": "בית כנסת רעות - אלעד",
      "text": "",
      "stayTimes": "11:00 - 15:20",
      "t_start": "2020-03-18T09:00:00",
      "t_end": "2020-03-18T13:20:00",
      "link": ""
    },
    {
      "id": 46458,
      "lat": 32.0476757000001,
      "lon": 34.9633600000001,
      "label": "בית כנסת רעות - אלעד",
      "text": "",
      "stayTimes": "10:00 - 11:00",
      "t_start": "2020-03-19T08:00:00",
      "t_end": "2020-03-19T09:00:00",
      "link": ""
    },
    {
      "id": 46459,
      "lat": 32.0468535000001,
      "lon": 34.9490425000001,
      "label": "בית כנסת קול אליהו - אלעד",
      "text": "",
      "stayTimes": "11:00 - 15:30",
      "t_start": "2020-03-19T09:00:00",
      "t_end": "2020-03-19T13:30:00",
      "link": ""
    },
    {
      "id": 46460,
      "lat": 32.0476757000001,
      "lon": 34.9633600000001,
      "label": "בית הכנסת רעות - אלעד",
      "text": "",
      "stayTimes": "20:10 - 20:30",
      "t_start": "2020-03-19T18:10:00",
      "t_end": "2020-03-19T18:30:00",
      "link": ""
    },
    {
      "id": 46461,
      "lat": 32.0465211810001,
      "lon": 35.3012538770001,
      "label": "סופר מנחם באזור תעשיה - שילה",
      "text": "",
      "stayTimes": "16:43 - 16:55",
      "t_start": "2020-03-19T14:43:00",
      "t_end": "2020-03-19T14:55:00",
      "link": ""
    },
    {
      "id": 46462,
      "lat": 31.790460352,
      "lon": 35.2087794890001,
      "label": "קופ\"ח כללית - ירושלים",
      "text": "",
      "stayTimes": "11:30 - 12:05",
      "t_start": "2020-03-19T09:30:00",
      "t_end": "2020-03-19T10:05:00",
      "link": ""
    },
    {
      "id": 46463,
      "lat": 31.7662134070001,
      "lon": 35.1940274660001,
      "label": "שופרסלדיל - ירושלים",
      "text": "",
      "stayTimes": "15:10 - 16:10",
      "t_start": "2020-03-18T13:10:00",
      "t_end": "2020-03-18T14:10:00",
      "link": ""
    },
    {
      "id": 46464,
      "lat": 32.0891567,
      "lon": 34.8668668,
      "label": "חדר ניתוח בלינסון - פתח תקווה",
      "text": "",
      "stayTimes": "10:00 - 17:00",
      "t_start": "2020-03-18T08:00:00",
      "t_end": "2020-03-18T15:00:00",
      "link": ""
    },
    {
      "id": 46465,
      "lat": 32.0937292,
      "lon": 34.8895771000001,
      "label": "מגא בעיר - פתח תקווה",
      "text": "",
      "stayTimes": "16:00 - 16:30",
      "t_start": "2020-03-20T14:00:00",
      "t_end": "2020-03-20T14:30:00",
      "link": ""
    },
    {
      "id": 46466,
      "lat": 32.087752874,
      "lon": 34.8323685350001,
      "label": "ביה\"כ צורטקוב - בני ברק",
      "text": "",
      "stayTimes": "18:30 - 19:00",
      "t_start": "2020-03-21T16:30:00",
      "t_end": "2020-03-21T17:00:00",
      "link": ""
    },
    {
      "id": 46467,
      "lat": 32.0908013000001,
      "lon": 34.8389312,
      "label": "סופרמרקט יש חסד - בני ברק",
      "text": "",
      "stayTimes": "20:00 - 21:30",
      "t_start": "2020-03-21T18:00:00",
      "t_end": "2020-03-21T19:30:00",
      "link": ""
    },
    {
      "id": 46468,
      "lat": 32.9328932820001,
      "lon": 35.0913713530001,
      "label": "קופת חולים כללית, עמידר עכו - עכו",
      "text": "",
      "stayTimes": "11:30 - 12:30",
      "t_start": "2020-03-20T09:30:00",
      "t_end": "2020-03-20T10:30:00",
      "link": ""
    },
    {
      "id": 46469,
      "lat": 32.935867466,
      "lon": 35.0890832640001,
      "label": "בית כנסת- אורייתא, סמוך לרחוב נפתלי - עכו",
      "text": "",
      "stayTimes": "10:30 - 11:30",
      "t_start": "2020-03-20T08:30:00",
      "t_end": "2020-03-20T09:30:00",
      "link": ""
    },
    {
      "id": 46470,
      "lat": 32.9250475000001,
      "lon": 35.0828051,
      "label": "שופרסל דיל- עכו - עכו",
      "text": "",
      "stayTimes": "19:30 - 20:30",
      "t_start": "2020-03-19T17:30:00",
      "t_end": "2020-03-19T18:30:00",
      "link": ""
    },
    {
      "id": 46471,
      "lat": 32.8057798290001,
      "lon": 35.1043605840001,
      "label": "התבלינים של הדס - קרית אתא",
      "text": "",
      "stayTimes": "15:25 - 15:45",
      "t_start": "2020-03-18T13:25:00",
      "t_end": "2020-03-18T13:45:00",
      "link": ""
    },
    {
      "id": 46472,
      "lat": 31.2286537000001,
      "lon": 34.809427,
      "label": "משתלת כדורי - באר שבע",
      "text": "",
      "stayTimes": "11:00 - 11:30",
      "t_start": "2020-03-18T09:00:00",
      "t_end": "2020-03-18T09:30:00",
      "link": ""
    },
    {
      "id": 46473,
      "lat": 31.2450470000001,
      "lon": 34.7994660000001,
      "label": "קופת חולים מכבי סניף קריית הממשלה - באר שבע",
      "text": "",
      "stayTimes": "11:30 - 12:00",
      "t_start": "2020-03-18T09:30:00",
      "t_end": "2020-03-18T10:00:00",
      "link": ""
    },
    {
      "id": 46474,
      "lat": 31.2133285,
      "lon": 34.8110105000001,
      "label": "ספור אושר עד - באר שבע",
      "text": "",
      "stayTimes": "13:00 - 15:30",
      "t_start": "2020-03-18T11:00:00",
      "t_end": "2020-03-18T13:30:00",
      "link": ""
    },
    {
      "id": 46475,
      "lat": 31.2257532,
      "lon": 34.8081039,
      "label": "מחסן עצים ארזים - באר שבע",
      "text": "",
      "stayTimes": "12:30 - 13:00",
      "t_start": "2020-03-18T10:30:00",
      "t_end": "2020-03-18T11:00:00",
      "link": ""
    },
    {
      "id": 46476,
      "lat": 32.7888394,
      "lon": 35.5350300000001,
      "label": "עקנין בע\"מ צרכי בנין - טבריה",
      "text": "",
      "stayTimes": "09:30 - 09:45",
      "t_start": "2020-03-18T07:30:00",
      "t_end": "2020-03-18T07:45:00",
      "link": ""
    },
    {
      "id": 46477,
      "lat": 32.7855700000001,
      "lon": 35.5393350000001,
      "label": "תבליני כהן - טבריה",
      "text": "",
      "stayTimes": "09:45 - 10:15",
      "t_start": "2020-03-18T07:45:00",
      "t_end": "2020-03-18T08:15:00",
      "link": ""
    },
    {
      "id": 46478,
      "lat": 31.9476142,
      "lon": 34.8914086,
      "label": "מוקד טרם - לוד",
      "text": "",
      "stayTimes": "13:30 - 15:00",
      "t_start": "2020-03-20T11:30:00",
      "t_end": "2020-03-20T13:00:00",
      "link": ""
    },
    {
      "id": 46479,
      "lat": 32.0812255390001,
      "lon": 34.840566849,
      "label": "בית כנסת קדושי קראקא - בני ברק",
      "text": "",
      "stayTimes": "08:00 - 11:00",
      "t_start": "2020-03-21T06:00:00",
      "t_end": "2020-03-21T09:00:00",
      "link": ""
    },
    {
      "id": 46480,
      "lat": 32.0852217,
      "lon": 34.8304099000001,
      "label": "בית כנסת חסידי בלז - בני ברק",
      "text": "",
      "stayTimes": "09:00 - 22:00",
      "t_start": "2020-03-20T07:00:00",
      "t_end": "2020-03-20T20:00:00",
      "link": ""
    },
    {
      "id": 46481,
      "lat": 31.7649503000001,
      "lon": 35.1494106000001,
      "label": "הדסה עין כרם - ירושלים",
      "text": "",
      "stayTimes": "11:00 - 16:30",
      "t_start": "2020-03-19T09:00:00",
      "t_end": "2020-03-19T14:30:00",
      "link": ""
    },
    {
      "id": 46482,
      "lat": 32.008303074,
      "lon": 34.7912482130001,
      "label": "שופרסל - חולון",
      "text": "",
      "stayTimes": "10:30 - 10:45",
      "t_start": "2020-03-19T08:30:00",
      "t_end": "2020-03-19T08:45:00",
      "link": ""
    },
    {
      "id": 46483,
      "lat": 32.1778717,
      "lon": 34.9292990000001,
      "label": "בי פרי - אבזור רכבי נכים - כפר סבא",
      "text": "",
      "stayTimes": "12:30 - 15:30",
      "t_start": "2020-03-18T10:30:00",
      "t_end": "2020-03-18T13:30:00",
      "link": ""
    },
    {
      "id": 46484,
      "lat": 32.0924884,
      "lon": 34.8379598000001,
      "label": "מרפאת טר\"מ בני ברק - בני ברק",
      "text": "",
      "stayTimes": "13:00 - 16:00",
      "t_start": "2020-03-20T11:00:00",
      "t_end": "2020-03-20T14:00:00",
      "link": ""
    },
    {
      "id": 46485,
      "lat": 32.0128584500001,
      "lon": 34.7523648690001,
      "label": "יוחננוף - בת ים",
      "text": "",
      "stayTimes": "16:30 - 17:10",
      "t_start": "2020-03-19T14:30:00",
      "t_end": "2020-03-19T15:10:00",
      "link": ""
    },
    {
      "id": 46486,
      "lat": 31.3739640210001,
      "lon": 35.0061627330001,
      "label": "סופר מחסני השוק - שמעה",
      "text": "",
      "stayTimes": "15:00 - 16:00",
      "t_start": "2020-03-18T13:00:00",
      "t_end": "2020-03-18T14:00:00",
      "link": ""
    },
    {
      "id": 46487,
      "lat": 32.569352,
      "lon": 34.9334500000001,
      "label": "סופרמרקט רמי לוי - זכרון יעקב",
      "text": "",
      "stayTimes": "11:30 - 13:30",
      "t_start": "2020-03-18T09:30:00",
      "t_end": "2020-03-18T11:30:00",
      "link": ""
    },
    {
      "id": 46488,
      "lat": 32.0833752,
      "lon": 34.8296135000001,
      "label": "בית כנסת תפארת ציון - בני ברק",
      "text": "",
      "stayTimes": "20:30 - 21:00",
      "t_start": "2020-03-21T18:30:00",
      "t_end": "2020-03-21T19:00:00",
      "link": ""
    },
    {
      "id": 46489,
      "lat": 32.085051891,
      "lon": 34.8778206050001,
      "label": "בית כנסת \"אבי עזרי\" - בני ברק",
      "text": "",
      "stayTimes": "20:20 - 21:00",
      "t_start": "2020-03-20T18:20:00",
      "t_end": "2020-03-20T19:00:00",
      "link": ""
    },
    {
      "id": 46490,
      "lat": 32.0997094000001,
      "lon": 34.8287219000001,
      "label": "מחסני חשמל - בני ברק",
      "text": "",
      "stayTimes": "15:15 - 16:00",
      "t_start": "2020-03-25T13:15:00",
      "t_end": "2020-03-25T14:00:00",
      "link": ""
    },
    {
      "id": 46491,
      "lat": 32.0874743210001,
      "lon": 34.8330099030001,
      "label": "תלמוד תורה באר יהושע - בני ברק",
      "text": "",
      "stayTimes": "12:20 - 15:00",
      "t_start": "2020-03-19T10:20:00",
      "t_end": "2020-03-19T13:00:00",
      "link": ""
    },
    {
      "id": 46492,
      "lat": 31.7914709,
      "lon": 34.6604398000001,
      "label": "בית הכנסת קהל חסידים - אשדוד",
      "text": "",
      "stayTimes": "10:30 - 11:30",
      "t_start": "2020-03-18T08:30:00",
      "t_end": "2020-03-18T09:30:00",
      "link": ""
    },
    {
      "id": 46493,
      "lat": 32.0773965000001,
      "lon": 34.7966304,
      "label": "סופרמרקט \" פלגמרקט - תל אביב - יפו",
      "text": "",
      "stayTimes": "11:00 - 11:30",
      "t_start": "2020-03-20T09:00:00",
      "t_end": "2020-03-20T09:30:00",
      "link": ""
    },
    {
      "id": 46494,
      "lat": 32.0469846300001,
      "lon": 34.7587096350001,
      "label": "אטליז \"אבוחילווא\" - תל אביב - יפו",
      "text": "",
      "stayTimes": "11:00 - 12:00",
      "t_start": "2020-03-19T09:00:00",
      "t_end": "2020-03-19T10:00:00",
      "link": ""
    },
    {
      "id": 46495,
      "lat": 32.1174727000001,
      "lon": 34.7977255000001,
      "label": "סופר סל \"טאגור\" - תל אביב - יפו",
      "text": "",
      "stayTimes": "12:30 - 13:00",
      "t_start": "2020-03-19T10:30:00",
      "t_end": "2020-03-19T11:00:00",
      "link": ""
    },
    {
      "id": 46496,
      "lat": 32.0141083090001,
      "lon": 34.7449400100001,
      "label": "מרפאת כללית - השקמה בת ים - בת ים",
      "text": "",
      "stayTimes": "08:00 - 10:00",
      "t_start": "2020-03-19T06:00:00",
      "t_end": "2020-03-19T08:00:00",
      "link": ""
    },
    {
      "id": 46497,
      "lat": 32.0141083090001,
      "lon": 34.7449400100001,
      "label": "מרפאת כללית - השקמה בת ים - בת ים",
      "text": "",
      "stayTimes": "08:00 - 10:00",
      "t_start": "2020-03-22T06:00:00",
      "t_end": "2020-03-22T08:00:00",
      "link": ""
    },
    {
      "id": 46498,
      "lat": 32.0141083090001,
      "lon": 34.7449400100001,
      "label": "מרפאת כללית - השקמה בת ים - בת ים",
      "text": "",
      "stayTimes": "08:00 - 10:00",
      "t_start": "2020-03-25T06:00:00",
      "t_end": "2020-03-25T08:00:00",
      "link": ""
    },
    {
      "id": 46499,
      "lat": 32.008471,
      "lon": 34.8001090000001,
      "label": "ליברה חברה לביטוח - חולון",
      "text": "",
      "stayTimes": "10:00 - 15:00",
      "t_start": "2020-03-20T08:00:00",
      "t_end": "2020-03-20T13:00:00",
      "link": ""
    },
    {
      "id": 46500,
      "lat": 32.7891667000001,
      "lon": 35.535,
      "label": "שופרסל דיל טבריה - טבריה",
      "text": "",
      "stayTimes": "08:00 - 16:00",
      "t_start": "2020-03-18T06:00:00",
      "t_end": "2020-03-18T14:00:00",
      "link": ""
    },
    {
      "id": 46501,
      "lat": 32.7891667000001,
      "lon": 35.535,
      "label": "שופרסל דיל - טבריה",
      "text": "",
      "stayTimes": "08:00 - 16:00",
      "t_start": "2020-03-19T06:00:00",
      "t_end": "2020-03-19T14:00:00",
      "link": ""
    },
    {
      "id": 46502,
      "lat": 31.7916038000001,
      "lon": 35.1996482000001,
      "label": "מד\"א - ירושלים",
      "text": "",
      "stayTimes": "09:50 - 11:50",
      "t_start": "2020-03-23T07:50:00",
      "t_end": "2020-03-23T09:50:00",
      "link": ""
    },
    {
      "id": 46503,
      "lat": 32.0152498,
      "lon": 34.7567722000001,
      "label": "סופרדוש בת ים - בת ים",
      "text": "",
      "stayTimes": "16:30 - 17:30",
      "t_start": "2020-03-23T14:30:00",
      "t_end": "2020-03-23T15:30:00",
      "link": ""
    },
    {
      "id": 46504,
      "lat": 31.6570530000001,
      "lon": 34.5581874000001,
      "label": "בי\"ס אולפנת צביה - אשקלון",
      "text": "",
      "stayTimes": "12:30 - 13:30",
      "t_start": "2020-03-19T10:30:00",
      "t_end": "2020-03-19T11:30:00",
      "link": ""
    },
    {
      "id": 46505,
      "lat": 32.0552349000001,
      "lon": 34.9606875000001,
      "label": "שפע שוק מהדרין - אלעד",
      "text": "",
      "stayTimes": "14:00 - 15:00",
      "t_start": "2020-03-19T12:00:00",
      "t_end": "2020-03-19T13:00:00",
      "link": ""
    },
    {
      "id": 46506,
      "lat": 32.086358977,
      "lon": 34.8866596120001,
      "label": "רשות המיסים קומה 11 - פתח תקווה",
      "text": "",
      "stayTimes": "09:00 - 13:00",
      "t_start": "2020-03-18T07:00:00",
      "t_end": "2020-03-18T11:00:00",
      "link": ""
    },
    {
      "id": 46507,
      "lat": 31.7650299690001,
      "lon": 35.1486071190001,
      "label": "משמרת טיפול נמרץ הדסה - ירושלים",
      "text": "",
      "stayTimes": "08:00 - 16:00",
      "t_start": "2020-03-23T06:00:00",
      "t_end": "2020-03-23T14:00:00",
      "link": ""
    },
    {
      "id": 46508,
      "lat": 31.7914709,
      "lon": 34.6604398000001,
      "label": "בית הכנסת קהל חסידים - אשדוד",
      "text": "",
      "stayTimes": "17:00 - 18:00",
      "t_start": "2020-03-21T15:00:00",
      "t_end": "2020-03-21T16:00:00",
      "link": ""
    },
    {
      "id": 46509,
      "lat": 31.7914709,
      "lon": 34.6604398000001,
      "label": "בית כנסת קהל חסידים - אשדוד",
      "text": "",
      "stayTimes": "19:00 - 19:30",
      "t_start": "2020-03-21T17:00:00",
      "t_end": "2020-03-21T17:30:00",
      "link": ""
    },
    {
      "id": 46510,
      "lat": 31.7914709,
      "lon": 34.6604398000001,
      "label": "בית כנסת קהל חסידים - אשדוד",
      "text": "",
      "stayTimes": "17:00 - 18:00",
      "t_start": "2020-03-19T15:00:00",
      "t_end": "2020-03-19T16:00:00",
      "link": ""
    },
    {
      "id": 46511,
      "lat": 31.7914709,
      "lon": 34.6604398000001,
      "label": "בית כנסת קהל חסידים - אשדוד",
      "text": "",
      "stayTimes": "22:00 - 23:00",
      "t_start": "2020-03-19T20:00:00",
      "t_end": "2020-03-19T21:00:00",
      "link": ""
    },
    {
      "id": 46512,
      "lat": 31.7914709,
      "lon": 34.6604398000001,
      "label": "בית כנסת קהל חסידים - אשדוד",
      "text": "",
      "stayTimes": "09:00 - 10:00",
      "t_start": "2020-03-20T07:00:00",
      "t_end": "2020-03-20T08:00:00",
      "link": ""
    },
    {
      "id": 46513,
      "lat": 31.7708458000001,
      "lon": 34.6328370000001,
      "label": "תפילה בחצר הבניין של בית הכנסת - אשדוד",
      "text": "",
      "stayTimes": "17:00 - 19:00",
      "t_start": "2020-03-20T15:00:00",
      "t_end": "2020-03-20T17:00:00",
      "link": ""
    },
    {
      "id": 46514,
      "lat": 31.789693132,
      "lon": 34.6614227310001,
      "label": "בית כנסת אימרי חיים ויז'ניץ - אשדוד",
      "text": "",
      "stayTimes": "08:45 - 11:30",
      "t_start": "2020-03-21T06:45:00",
      "t_end": "2020-03-21T09:30:00",
      "link": ""
    },
    {
      "id": 46515,
      "lat": 32.0347566630001,
      "lon": 34.8481217040001,
      "label": "סופר יוחננוף - אור יהודה",
      "text": "",
      "stayTimes": "08:30 - 10:30",
      "t_start": "2020-03-18T06:30:00",
      "t_end": "2020-03-18T08:30:00",
      "link": ""
    },
    {
      "id": 46516,
      "lat": 32.037273,
      "lon": 34.8655430000001,
      "label": "מסוף קרית אונו - קרית אונו",
      "text": "",
      "stayTimes": "15:30 - 16:30",
      "t_start": "2020-03-22T13:30:00",
      "t_end": "2020-03-22T14:30:00",
      "link": ""
    },
    {
      "id": 46517,
      "lat": 32.1540643000001,
      "lon": 34.8984201000001,
      "label": "בית החולים שלוותה - הוד השרון",
      "text": "",
      "stayTimes": "14:00 - 15:30",
      "t_start": "2020-03-18T12:00:00",
      "t_end": "2020-03-18T13:30:00",
      "link": ""
    },
    {
      "id": 46518,
      "lat": 32.0795392000001,
      "lon": 34.8359919000001,
      "label": "ישיבת גאון יעקב - בני ברק",
      "text": "",
      "stayTimes": "10:00 - 12:00",
      "t_start": "2020-03-18T08:00:00",
      "t_end": "2020-03-18T10:00:00",
      "link": ""
    },
    {
      "id": 46519,
      "lat": 32.087523064,
      "lon": 34.8339075660001,
      "label": "בית הכנסת בית אברהם - בני ברק",
      "text": "",
      "stayTimes": "08:30 - 10:30",
      "t_start": "2020-03-21T06:30:00",
      "t_end": "2020-03-21T08:30:00",
      "link": ""
    },
    {
      "id": 46520,
      "lat": 32.322299,
      "lon": 34.8593550000001,
      "label": "בית כנסת בית אליהו - נתניה",
      "text": "",
      "stayTimes": "17:30 - 18:30",
      "t_start": "2020-03-19T15:30:00",
      "t_end": "2020-03-19T16:30:00",
      "link": ""
    },
    {
      "id": 46521,
      "lat": 32.3364657000001,
      "lon": 34.8648199,
      "label": "בית כנסת יעקב מאיר - נתניה",
      "text": "",
      "stayTimes": "17:30 - 18:30",
      "t_start": "2020-03-20T15:30:00",
      "t_end": "2020-03-20T16:30:00",
      "link": ""
    },
    {
      "id": 46522,
      "lat": 32.3226049620001,
      "lon": 34.8632334260001,
      "label": "בית כנסת יעקב מאיר - נתניה",
      "text": "",
      "stayTimes": "08:00 - 10:00",
      "t_start": "2020-03-21T06:00:00",
      "t_end": "2020-03-21T08:00:00",
      "link": ""
    },
    {
      "id": 46523,
      "lat": 32.3364657000001,
      "lon": 34.8648199,
      "label": "בית כנסת יעקב מאיר - נתניה",
      "text": "",
      "stayTimes": "17:00 - 17:30",
      "t_start": "2020-03-21T15:00:00",
      "t_end": "2020-03-21T15:30:00",
      "link": ""
    },
    {
      "id": 46524,
      "lat": 32.3364657000001,
      "lon": 34.8648199,
      "label": "בית כנסת יעקב מאיר - נתניה",
      "text": "",
      "stayTimes": "18:30 - 19:00",
      "t_start": "2020-03-21T16:30:00",
      "t_end": "2020-03-21T17:00:00",
      "link": ""
    },
    {
      "id": 46525,
      "lat": 32.318382984,
      "lon": 34.885954138,
      "label": "מרפאה כללית - נתניה",
      "text": "",
      "stayTimes": "08:00 - 09:30",
      "t_start": "2020-03-22T06:00:00",
      "t_end": "2020-03-22T07:30:00",
      "link": ""
    },
    {
      "id": 46526,
      "lat": 32.3231348,
      "lon": 34.8713024,
      "label": "שופרסל דיל - נתניה",
      "text": "",
      "stayTimes": "12:30 - 13:00",
      "t_start": "2020-03-22T10:30:00",
      "t_end": "2020-03-22T11:00:00",
      "link": ""
    },
    {
      "id": 46527,
      "lat": 32.0867236060001,
      "lon": 34.8295834300001,
      "label": "שריתל'ה הלבשה אישית - בני ברק",
      "text": "",
      "stayTimes": "20:00 - 22:00",
      "t_start": "2020-03-18T18:00:00",
      "t_end": "2020-03-18T20:00:00",
      "link": ""
    },
    {
      "id": 46528,
      "lat": 31.697706963,
      "lon": 34.5749100250001,
      "label": "סופר ויקטורי - אשקלון",
      "text": "",
      "stayTimes": "11:00 - 13:00",
      "t_start": "2020-03-18T09:00:00",
      "t_end": "2020-03-18T11:00:00",
      "link": ""
    },
    {
      "id": 46529,
      "lat": 31.697788105,
      "lon": 34.575005391,
      "label": "סופר ויקטורי - אשקלון",
      "text": "",
      "stayTimes": "08:30 - 10:00",
      "t_start": "2020-03-23T06:30:00",
      "t_end": "2020-03-23T08:00:00",
      "link": ""
    },
    {
      "id": 46530,
      "lat": 31.697706963,
      "lon": 34.575005391,
      "label": "ויקטורי - אשקלון",
      "text": "",
      "stayTimes": "09:00 - 10:10",
      "t_start": "2020-03-26T07:00:00",
      "t_end": "2020-03-26T08:10:00",
      "link": ""
    },
    {
      "id": 46531,
      "lat": 32.0952951,
      "lon": 34.7839011,
      "label": "אל וסינו - תל אביב - יפו",
      "text": "",
      "stayTimes": "00:30 - 02:00",
      "t_start": "2020-03-22T22:30:00",
      "t_end": "2020-03-23T00:00:00",
      "link": ""
    },
    {
      "id": 46532,
      "lat": 32.2868611000001,
      "lon": 34.8664061000001,
      "label": "סופר יוחננוף - נתניה",
      "text": "",
      "stayTimes": "13:00 - 14:00",
      "t_start": "2020-03-25T11:00:00",
      "t_end": "2020-03-25T12:00:00",
      "link": ""
    },
    {
      "id": 46533,
      "lat": 31.700286653,
      "lon": 35.1235812080001,
      "label": "ישיבת \"נעימות התורה\" - ביתר עילית",
      "text": "",
      "stayTimes": "10:30 - 21:00",
      "t_start": "2020-03-18T08:30:00",
      "t_end": "2020-03-18T19:00:00",
      "link": ""
    },
    {
      "id": 46534,
      "lat": 32.0503593,
      "lon": 34.9597364000001,
      "label": "בית כנסת \"משכנות נריה \" - אלעד",
      "text": "",
      "stayTimes": "07:45 - 08:20",
      "t_start": "2020-03-18T05:45:00",
      "t_end": "2020-03-18T06:20:00",
      "link": ""
    },
    {
      "id": 46535,
      "lat": 32.1636936090001,
      "lon": 34.842887913,
      "label": "קופ\"ח כללית - הרצליה",
      "text": "",
      "stayTimes": "11:00 - 13:00",
      "t_start": "2020-03-18T09:00:00",
      "t_end": "2020-03-18T11:00:00",
      "link": ""
    },
    {
      "id": 46536,
      "lat": 32.1136338000001,
      "lon": 34.8414937000001,
      "label": "סופר טיב טעם - תל אביב - יפו",
      "text": "",
      "stayTimes": "18:00 - 19:00",
      "t_start": "2020-03-18T16:00:00",
      "t_end": "2020-03-18T17:00:00",
      "link": ""
    },
    {
      "id": 46537,
      "lat": 32.0230769,
      "lon": 34.8617718,
      "label": "מכולת שוק אבולבן - אור יהודה",
      "text": "",
      "stayTimes": "11:00 - 12:00",
      "t_start": "2020-03-20T09:00:00",
      "t_end": "2020-03-20T10:00:00",
      "link": ""
    },
    {
      "id": 46538,
      "lat": 32.3086936060001,
      "lon": 34.8732704820001,
      "label": "בית כנסת חב\"ד - נתניה",
      "text": "",
      "stayTimes": "07:00 - 11:00",
      "t_start": "2020-03-21T05:00:00",
      "t_end": "2020-03-21T09:00:00",
      "link": ""
    },
    {
      "id": 46539,
      "lat": 32.2956485980001,
      "lon": 34.845039806,
      "label": "קופת חולים כללית - נתניה",
      "text": "",
      "stayTimes": "11:00 - 11:30",
      "t_start": "2020-03-19T09:00:00",
      "t_end": "2020-03-19T09:30:00",
      "link": ""
    },
    {
      "id": 46540,
      "lat": 32.306917807,
      "lon": 34.8690509680001,
      "label": "סופר מרקט מגה - נתניה",
      "text": "",
      "stayTimes": "11:00 - 11:30",
      "t_start": "2020-03-20T09:00:00",
      "t_end": "2020-03-20T09:30:00",
      "link": ""
    },
    {
      "id": 46541,
      "lat": 32.3068328000001,
      "lon": 34.8694745,
      "label": "קופ\"ח כללית - נתניה",
      "text": "",
      "stayTimes": "18:00 - 19:00",
      "t_start": "2020-03-25T16:00:00",
      "t_end": "2020-03-25T17:00:00",
      "link": ""
    },
    {
      "id": 46542,
      "lat": 31.992153221,
      "lon": 34.768386547,
      "label": "גלידה אנדריי - ראשון לציון",
      "text": "",
      "stayTimes": "14:00 - 14:15",
      "t_start": "2020-03-18T12:00:00",
      "t_end": "2020-03-18T12:15:00",
      "link": ""
    },
    {
      "id": 46543,
      "lat": 32.0603861880001,
      "lon": 34.7771782930001,
      "label": "חנות יאנוביץ - תל אביב - יפו",
      "text": "",
      "stayTimes": "10:30 - 12:00",
      "t_start": "2020-03-20T08:30:00",
      "t_end": "2020-03-20T10:00:00",
      "link": ""
    },
    {
      "id": 46544,
      "lat": 31.8874354000001,
      "lon": 34.8202336000001,
      "label": "סופר יינות ביתן מרכז שרונה - רחובות",
      "text": "",
      "stayTimes": "11:00 - 11:30",
      "t_start": "2020-03-18T09:00:00",
      "t_end": "2020-03-18T09:30:00",
      "link": ""
    },
    {
      "id": 46545,
      "lat": 32.0187128000001,
      "lon": 34.8029324,
      "label": "חנות \"טסה\" - חולון",
      "text": "",
      "stayTimes": "14:00 - 14:20",
      "t_start": "2020-03-18T12:00:00",
      "t_end": "2020-03-18T12:20:00",
      "link": ""
    },
    {
      "id": 46546,
      "lat": 32.4357942,
      "lon": 34.9163935,
      "label": "מרפאה אורטופדית, בית חולים הלל יפה - חדרה",
      "text": "",
      "stayTimes": "09:10 - 10:00",
      "t_start": "2020-03-19T07:10:00",
      "t_end": "2020-03-19T08:00:00",
      "link": ""
    },
    {
      "id": 46547,
      "lat": 32.451798479,
      "lon": 34.894246604,
      "label": "מיון פנימי, בית חולים הלל יפה - חדרה",
      "text": "",
      "stayTimes": "10:00 - 12:00",
      "t_start": "2020-03-19T08:00:00",
      "t_end": "2020-03-19T10:00:00",
      "link": ""
    },
    {
      "id": 46548,
      "lat": 32.4888435880001,
      "lon": 34.970554421,
      "label": "\"רמי לוי\" מתחם ביג - פרדס חנה-כרכור",
      "text": "",
      "stayTimes": "19:00 - 19:20",
      "t_start": "2020-03-23T17:00:00",
      "t_end": "2020-03-23T17:20:00",
      "link": ""
    },
    {
      "id": 46549,
      "lat": 32.4506375,
      "lon": 34.9097396000001,
      "label": "מסעדת \"רפי בצומת\" - חדרה",
      "text": "",
      "stayTimes": "19:00 - 19:30",
      "t_start": "2020-03-18T17:00:00",
      "t_end": "2020-03-18T17:30:00",
      "link": ""
    },
    {
      "id": 46550,
      "lat": 32.0348409160001,
      "lon": 34.848170958,
      "label": "יוחננוף הגדול - סופר - אור יהודה",
      "text": "",
      "stayTimes": "16:30 - 17:00",
      "t_start": "2020-03-25T14:30:00",
      "t_end": "2020-03-25T15:00:00",
      "link": ""
    },
    {
      "id": 46551,
      "lat": 31.6035606,
      "lon": 34.7589160000001,
      "label": "קופת חולים כללית סניף ג' - קרית גת",
      "text": "",
      "stayTimes": "18:15 - 19:00",
      "t_start": "2020-03-23T16:15:00",
      "t_end": "2020-03-23T17:00:00",
      "link": ""
    },
    {
      "id": 46552,
      "lat": 31.662374293,
      "lon": 34.5592837890001,
      "label": "ביקור במיון - אשקלון",
      "text": "",
      "stayTimes": "19:30 - 21:00",
      "t_start": "2020-03-22T17:30:00",
      "t_end": "2020-03-22T19:00:00",
      "link": ""
    },
    {
      "id": 46553,
      "lat": 32.022975289,
      "lon": 34.85841365,
      "label": "רשת יוחננוף - אור יהודה",
      "text": "",
      "stayTimes": "15:00 - 23:59",
      "t_start": "2020-03-19T13:00:00",
      "t_end": "2020-03-19T21:59:00",
      "link": ""
    },
    {
      "id": 46554,
      "lat": 32.0347833110001,
      "lon": 34.848167629,
      "label": "סופרמקט יוחננוף - אור יהודה",
      "text": "",
      "stayTimes": "07:00 - 15:00",
      "t_start": "2020-03-20T05:00:00",
      "t_end": "2020-03-20T13:00:00",
      "link": ""
    },
    {
      "id": 46555,
      "lat": 32.034739674,
      "lon": 34.848171919,
      "label": "סופרמרקט יוחננוף - אור יהודה",
      "text": "",
      "stayTimes": "07:00 - 15:00",
      "t_start": "2020-03-22T05:00:00",
      "t_end": "2020-03-22T13:00:00",
      "link": ""
    },
    {
      "id": 46556,
      "lat": 31.6805084000001,
      "lon": 34.5570960000001,
      "label": "ניו פארם אפרידר {BE] - אשקלון",
      "text": "",
      "stayTimes": "11:00 - 11:30",
      "t_start": "2020-03-20T09:00:00",
      "t_end": "2020-03-20T09:30:00",
      "link": ""
    },
    {
      "id": 46557,
      "lat": 31.6641894000001,
      "lon": 34.5632752000001,
      "label": "סופר ויקטורי - אשקלון",
      "text": "",
      "stayTimes": "11:00 - 11:30",
      "t_start": "2020-03-18T09:00:00",
      "t_end": "2020-03-18T09:30:00",
      "link": ""
    },
    {
      "id": 46558,
      "lat": 31.6641894000001,
      "lon": 34.5632752000001,
      "label": "סופר ויקטורי - אשקלון",
      "text": "",
      "stayTimes": "11:00 - 12:00",
      "t_start": "2020-03-19T09:00:00",
      "t_end": "2020-03-19T10:00:00",
      "link": ""
    },
    {
      "id": 46559,
      "lat": 31.6641894000001,
      "lon": 34.5632752000001,
      "label": "סופר ויקטורי - אשקלון",
      "text": "",
      "stayTimes": "13:30 - 14:30",
      "t_start": "2020-03-19T11:30:00",
      "t_end": "2020-03-19T12:30:00",
      "link": ""
    },
    {
      "id": 46560,
      "lat": 31.6696972,
      "lon": 34.5779276000001,
      "label": "חנות פרבורגר - אשקלון",
      "text": "",
      "stayTimes": "12:00 - 13:00",
      "t_start": "2020-03-19T10:00:00",
      "t_end": "2020-03-19T11:00:00",
      "link": ""
    },
    {
      "id": 46561,
      "lat": 31.6693527,
      "lon": 34.576629,
      "label": "חנות ממתקי אלי - אשקלון",
      "text": "",
      "stayTimes": "13:00 - 13:30",
      "t_start": "2020-03-19T11:00:00",
      "t_end": "2020-03-19T11:30:00",
      "link": ""
    },
    {
      "id": 46562,
      "lat": 31.773365368,
      "lon": 35.185650546,
      "label": "בית חולים שערי צדק - ירושלים",
      "text": "",
      "stayTimes": "08:00 - 21:30",
      "t_start": "2020-03-23T06:00:00",
      "t_end": "2020-03-23T19:30:00",
      "link": ""
    },
    {
      "id": 46563,
      "lat": 32.0142516000001,
      "lon": 34.7670197,
      "label": "מוקד מכבי הופיין - חולון",
      "text": "",
      "stayTimes": "22:45 - 00:20",
      "t_start": "2020-03-23T20:45:00",
      "t_end": "2020-03-23T22:20:00",
      "link": ""
    },
    {
      "id": 46564,
      "lat": 32.0142516000001,
      "lon": 34.7670197,
      "label": "מוקד מכבי הופיין - חולון",
      "text": "",
      "stayTimes": "21:40 - 00:30",
      "t_start": "2020-03-24T19:40:00",
      "t_end": "2020-03-24T22:30:00",
      "link": ""
    },
    {
      "id": 46565,
      "lat": 32.0142516000001,
      "lon": 34.7670197,
      "label": "מוקד מכבי הופיים - חולון",
      "text": "",
      "stayTimes": "21:05 - 22:05",
      "t_start": "2020-03-25T19:05:00",
      "t_end": "2020-03-25T20:05:00",
      "link": ""
    },
    {
      "id": 46566,
      "lat": 31.6622786990001,
      "lon": 34.5592685010001,
      "label": "ביח ברזילי - אשקלון",
      "text": "",
      "stayTimes": "09:00 - 10:00",
      "t_start": "2020-03-25T07:00:00",
      "t_end": "2020-03-25T08:00:00",
      "link": ""
    },
    {
      "id": 46567,
      "lat": 31.6664161,
      "lon": 34.5844755000001,
      "label": "תבליני מצליח - אשקלון",
      "text": "",
      "stayTimes": "08:00 - 09:00",
      "t_start": "2020-03-19T06:00:00",
      "t_end": "2020-03-19T07:00:00",
      "link": ""
    },
    {
      "id": 46568,
      "lat": 31.6561888000001,
      "lon": 34.5878943000001,
      "label": "סיטונאות רחמים - אשקלון",
      "text": "",
      "stayTimes": "07:00 - 08:00",
      "t_start": "2020-03-20T05:00:00",
      "t_end": "2020-03-20T06:00:00",
      "link": ""
    },
    {
      "id": 46569,
      "lat": 31.6744616290001,
      "lon": 34.5583050380001,
      "label": "מכולת שכונתית-רח הטייסים - אשקלון",
      "text": "",
      "stayTimes": "07:30 - 08:00",
      "t_start": "2020-03-25T05:30:00",
      "t_end": "2020-03-25T06:00:00",
      "link": ""
    },
    {
      "id": 46570,
      "lat": 32.083756651,
      "lon": 34.8337066030001,
      "label": "כולל חניכי ישיבת חברון - בני ברק",
      "text": "",
      "stayTimes": "09:00 - 19:00",
      "t_start": "2020-03-19T07:00:00",
      "t_end": "2020-03-19T17:00:00",
      "link": ""
    },
    {
      "id": 46571,
      "lat": 31.6687937,
      "lon": 34.5847829000001,
      "label": "שוק עירוני - אשקלון",
      "text": "",
      "stayTimes": "15:00 - 15:30",
      "t_start": "2020-03-19T13:00:00",
      "t_end": "2020-03-19T13:30:00",
      "link": ""
    },
    {
      "id": 46572,
      "lat": 31.6682664000001,
      "lon": 34.6023671,
      "label": "סופרמרקט יינות ביתן - אזור תעשייה צפוני - אשקלון",
      "text": "",
      "stayTimes": "16:00 - 17:00",
      "t_start": "2020-03-19T14:00:00",
      "t_end": "2020-03-19T15:00:00",
      "link": ""
    },
    {
      "id": 46573,
      "lat": 31.6633589680001,
      "lon": 34.5858703590001,
      "label": "מוקד \"טרם\" - אשקלון",
      "text": "",
      "stayTimes": "11:30 - 12:30",
      "t_start": "2020-03-20T09:30:00",
      "t_end": "2020-03-20T10:30:00",
      "link": ""
    },
    {
      "id": 46574,
      "lat": 31.6687478000001,
      "lon": 34.5847833,
      "label": "שוק אשקלון - אשקלון",
      "text": "",
      "stayTimes": "19:00 - 20:00",
      "t_start": "2020-03-19T17:00:00",
      "t_end": "2020-03-19T18:00:00",
      "link": ""
    },
    {
      "id": 46575,
      "lat": 31.6761345130001,
      "lon": 34.575818349,
      "label": "סופר \"ויקטורי\" - אשקלון",
      "text": "",
      "stayTimes": "18:00 - 19:00",
      "t_start": "2020-03-19T16:00:00",
      "t_end": "2020-03-19T17:00:00",
      "link": ""
    },
    {
      "id": 46576,
      "lat": 31.6668652000001,
      "lon": 34.584778,
      "label": "חנות \"סעדה דגים\" השוק הישן - אשקלון",
      "text": "",
      "stayTimes": "20:30 - 20:45",
      "t_start": "2020-03-19T18:30:00",
      "t_end": "2020-03-19T18:45:00",
      "link": ""
    },
    {
      "id": 46577,
      "lat": 31.6905695340001,
      "lon": 34.5809599670001,
      "label": "שיעור תורה בבית כנסת בישיבה \"שובה ישראל\" - אשקלון",
      "text": "",
      "stayTimes": "19:00 - 21:00",
      "t_start": "2020-03-18T17:00:00",
      "t_end": "2020-03-18T19:00:00",
      "link": ""
    },
    {
      "id": 46578,
      "lat": 31.6651933420001,
      "lon": 34.566930498,
      "label": "חברת החשמל - אשקלון",
      "text": "",
      "stayTimes": "06:00 - 17:00",
      "t_start": "2020-03-18T04:00:00",
      "t_end": "2020-03-18T15:00:00",
      "link": ""
    },
    {
      "id": 46579,
      "lat": 31.665187309,
      "lon": 34.566901828,
      "label": "חברת החשמל - אשקלון",
      "text": "",
      "stayTimes": "06:00 - 17:00",
      "t_start": "2020-03-19T04:00:00",
      "t_end": "2020-03-19T15:00:00",
      "link": ""
    },
    {
      "id": 46580,
      "lat": 32.086082301,
      "lon": 34.8304487670001,
      "label": "בית מרקחת - בני ברק",
      "text": "",
      "stayTimes": "12:00 - 13:00",
      "t_start": "2020-03-23T10:00:00",
      "t_end": "2020-03-23T11:00:00",
      "link": ""
    },
    {
      "id": 46581,
      "lat": 31.747611239,
      "lon": 34.9933915010001,
      "label": "סופר-פארם, קניון נעמי - בית שמש",
      "text": "",
      "stayTimes": "17:00 - 17:30",
      "t_start": "2020-03-23T15:00:00",
      "t_end": "2020-03-23T15:30:00",
      "link": ""
    },
    {
      "id": 46582,
      "lat": 32.0905584000001,
      "lon": 34.8328416000001,
      "label": "בית כנסת תפארת נחמן - בני ברק",
      "text": "",
      "stayTimes": "17:00 - 12:00",
      "t_start": "2020-03-20T15:00:00",
      "t_end": "2020-03-21T10:00:00",
      "link": ""
    },
    {
      "id": 46583,
      "lat": 32.082238449,
      "lon": 34.8403200290001,
      "label": "בית כנסת נחלת משה - בני ברק",
      "text": "",
      "stayTimes": "11:00 - 13:00",
      "t_start": "2020-03-20T09:00:00",
      "t_end": "2020-03-20T11:00:00",
      "link": ""
    },
    {
      "id": 46584,
      "lat": 32.057107,
      "lon": 34.8691424,
      "label": "סופר פארם - גני תקווה",
      "text": "",
      "stayTimes": "12:30 - 12:45",
      "t_start": "2020-03-27T10:30:00",
      "t_end": "2020-03-27T10:45:00",
      "link": ""
    },
    {
      "id": 46585,
      "lat": 32.0900940000001,
      "lon": 34.8282610000001,
      "label": "ישיבת סלבוטקה - בני ברק",
      "text": "",
      "stayTimes": "13:00 - 15:30",
      "t_start": "2020-03-20T11:00:00",
      "t_end": "2020-03-20T13:30:00",
      "link": ""
    },
    {
      "id": 46586,
      "lat": 32.0763242,
      "lon": 34.8398895,
      "label": "בית כנסת משכנות יעקב - בני ברק",
      "text": "",
      "stayTimes": "17:00 - 17:30",
      "t_start": "2020-03-21T15:00:00",
      "t_end": "2020-03-21T15:30:00",
      "link": ""
    },
    {
      "id": 46587,
      "lat": 32.0859852,
      "lon": 34.8355715000001,
      "label": "בית כנסת איצקוביץ - בני ברק",
      "text": "",
      "stayTimes": "12:30 - 13:00",
      "t_start": "2020-03-20T10:30:00",
      "t_end": "2020-03-20T11:00:00",
      "link": ""
    },
    {
      "id": 46588,
      "lat": 32.0984322410001,
      "lon": 34.833049869,
      "label": "בית כנסת אור הצפון - בני ברק",
      "text": "",
      "stayTimes": "17:00 - 12:00",
      "t_start": "2020-03-20T15:00:00",
      "t_end": "2020-03-21T10:00:00",
      "link": ""
    },
    {
      "id": 46589,
      "lat": 32.0905584000001,
      "lon": 34.8328416000001,
      "label": "בית כנסת תפארת נחמן - בני ברק",
      "text": "",
      "stayTimes": "17:00 - 12:00",
      "t_start": "2020-03-20T15:00:00",
      "t_end": "2020-03-21T10:00:00",
      "link": ""
    },
    {
      "id": 46590,
      "lat": 32.4341140000001,
      "lon": 34.9091965000001,
      "label": "ארכה חנות חומרי חשמל חדרה - חדרה",
      "text": "",
      "stayTimes": "07:00 - 17:00",
      "t_start": "2020-03-22T05:00:00",
      "t_end": "2020-03-22T15:00:00",
      "link": ""
    },
    {
      "id": 46591,
      "lat": 32.0773361,
      "lon": 34.8543272000001,
      "label": "סופר פארם - גבעת שמואל",
      "text": "",
      "stayTimes": "16:30 - 16:45",
      "t_start": "2020-03-18T14:30:00",
      "t_end": "2020-03-18T14:45:00",
      "link": ""
    },
    {
      "id": 46592,
      "lat": 31.9359125,
      "lon": 34.8258773000001,
      "label": "מאפיה דרך הלחם, ספר אקספרס, קצביה, מענדניה - באר יעקב",
      "text": "",
      "stayTimes": "11:00 - 12:30",
      "t_start": "2020-03-23T09:00:00",
      "t_end": "2020-03-23T10:30:00",
      "link": ""
    },
    {
      "id": 46593,
      "lat": 31.941866443,
      "lon": 34.833751224,
      "label": "שופרסל, בקניון - באר יעקב",
      "text": "",
      "stayTimes": "10:30 - 10:45",
      "t_start": "2020-03-24T08:30:00",
      "t_end": "2020-03-24T08:45:00",
      "link": ""
    },
    {
      "id": 46594,
      "lat": 32.1046489170001,
      "lon": 34.8118631410001,
      "label": "תחנת בדיקה לקורונה,ברוקח - תל אביב - יפו",
      "text": "",
      "stayTimes": "20:30 - 21:00",
      "t_start": "2020-03-25T18:30:00",
      "t_end": "2020-03-25T19:00:00",
      "link": ""
    },
    {
      "id": 46595,
      "lat": 31.6355262000001,
      "lon": 34.5528603000001,
      "label": "רמי לוי - אשקלון",
      "text": "",
      "stayTimes": "21:00 - 23:00",
      "t_start": "2020-03-22T19:00:00",
      "t_end": "2020-03-22T21:00:00",
      "link": ""
    },
    {
      "id": 46596,
      "lat": 31.8865552,
      "lon": 35.0182949000001,
      "label": "סופר ברעות- סופר שלי, מרכז מסחרי רעות - מודיעין-מכבים-רעות",
      "text": "",
      "stayTimes": "17:00 - 17:20",
      "t_start": "2020-03-23T15:00:00",
      "t_end": "2020-03-23T15:20:00",
      "link": ""
    },
    {
      "id": 46597,
      "lat": 31.8876283430001,
      "lon": 34.9607796560001,
      "label": "חנות גרעיני עפולה- מרכז מסחרי - מודיעין-מכבים-רעות",
      "text": "",
      "stayTimes": "17:50 - 18:00",
      "t_start": "2020-03-18T15:50:00",
      "t_end": "2020-03-18T16:00:00",
      "link": ""
    },
    {
      "id": 46598,
      "lat": 31.8865552,
      "lon": 35.0182949000001,
      "label": "סופרמרקט שופרסל שלי- מרכז מסחרי לב רעות - מודיעין-מכבים-רעות",
      "text": "",
      "stayTimes": "10:00 - 10:15",
      "t_start": "2020-03-20T08:00:00",
      "t_end": "2020-03-20T08:15:00",
      "link": ""
    },
    {
      "id": 46599,
      "lat": 32.103972238,
      "lon": 34.810706204,
      "label": "בדיקה בתל אביב במתחם של מד\"א - תל אביב - יפו",
      "text": "",
      "stayTimes": "22:45 - 22:55",
      "t_start": "2020-03-25T20:45:00",
      "t_end": "2020-03-25T20:55:00",
      "link": ""
    },
    {
      "id": 46600,
      "lat": 32.0908013000001,
      "lon": 34.8389312,
      "label": "סופר יש חסד - בני ברק",
      "text": "",
      "stayTimes": "22:45 - 23:30",
      "t_start": "2020-03-22T20:45:00",
      "t_end": "2020-03-22T21:30:00",
      "link": ""
    },
    {
      "id": 46601,
      "lat": 32.08714036,
      "lon": 34.828771558,
      "label": "כולל יוצאי חברון - בני ברק",
      "text": "",
      "stayTimes": "10:15 - 13:00",
      "t_start": "2020-03-19T08:15:00",
      "t_end": "2020-03-19T11:00:00",
      "link": ""
    },
    {
      "id": 46602,
      "lat": 32.087135102,
      "lon": 34.828786721,
      "label": "כולל יוצאי חברון - בני ברק",
      "text": "",
      "stayTimes": "11:00 - 12:30",
      "t_start": "2020-03-24T09:00:00",
      "t_end": "2020-03-24T10:30:00",
      "link": ""
    },
    {
      "id": 46603,
      "lat": 32.0880753010001,
      "lon": 34.839479827,
      "label": "בית כנסת חנכי ישיבית - בני ברק",
      "text": "",
      "stayTimes": "08:00 - 08:00",
      "t_start": "2020-03-21T06:00:00",
      "t_end": "2020-03-21T06:00:00",
      "link": ""
    },
    {
      "id": 46604,
      "lat": 32.8098420000001,
      "lon": 35.0565800000001,
      "label": "סופר יוחננוף אאוטלט חוצות המפרץ חיפה - חיפה",
      "text": "",
      "stayTimes": "17:30 - 18:30",
      "t_start": "2020-03-19T15:30:00",
      "t_end": "2020-03-19T16:30:00",
      "link": ""
    },
    {
      "id": 46605,
      "lat": 32.4490906,
      "lon": 34.9147627,
      "label": "סופר אושר עד - חדרה",
      "text": "",
      "stayTimes": "19:00 - 19:15",
      "t_start": "2020-03-19T17:00:00",
      "t_end": "2020-03-19T17:15:00",
      "link": ""
    },
    {
      "id": 46606,
      "lat": 32.4475695,
      "lon": 34.9133438000001,
      "label": "מאפיית המשפחה (צמוד לאושר עד) - חדרה",
      "text": "",
      "stayTimes": "19:15 - 19:30",
      "t_start": "2020-03-19T17:15:00",
      "t_end": "2020-03-19T17:30:00",
      "link": ""
    },
    {
      "id": 46607,
      "lat": 31.7932938000001,
      "lon": 34.651325,
      "label": "בית מרקחת כללית - אשדוד",
      "text": "",
      "stayTimes": "08:30 - 09:00",
      "t_start": "2020-03-19T06:30:00",
      "t_end": "2020-03-19T07:00:00",
      "link": ""
    },
    {
      "id": 46608,
      "lat": 31.79243675,
      "lon": 34.65534726,
      "label": "בית מרקחת קופ\"ח כללית - אשדוד",
      "text": "",
      "stayTimes": "10:00 - 11:00",
      "t_start": "2020-03-23T08:00:00",
      "t_end": "2020-03-23T09:00:00",
      "link": ""
    },
    {
      "id": 46609,
      "lat": 32.098909357,
      "lon": 34.829762456,
      "label": "אושר עד - בני ברק",
      "text": "",
      "stayTimes": "18:45 - 20:00",
      "t_start": "2020-03-23T16:45:00",
      "t_end": "2020-03-23T18:00:00",
      "link": ""
    },
    {
      "id": 46610,
      "lat": 32.0888296300001,
      "lon": 34.8390491580001,
      "label": "בית כנסת חניכי ישיבות סמינר אלקיים - בני ברק",
      "text": "",
      "stayTimes": "07:00 - 09:30",
      "t_start": "2020-03-21T05:00:00",
      "t_end": "2020-03-21T07:30:00",
      "link": ""
    },
    {
      "id": 46611,
      "lat": 32.0605863850001,
      "lon": 34.776487135,
      "label": "מפעל לליטוש יהלומים - תל אביב - יפו",
      "text": "",
      "stayTimes": "09:30 - 11:30",
      "t_start": "2020-03-24T07:30:00",
      "t_end": "2020-03-24T09:30:00",
      "link": ""
    },
    {
      "id": 46612,
      "lat": 32.0994975,
      "lon": 34.8755340000001,
      "label": "חצי חינם - פתח תקווה",
      "text": "",
      "stayTimes": "12:00 - 12:30",
      "t_start": "2020-03-23T10:00:00",
      "t_end": "2020-03-23T10:30:00",
      "link": ""
    },
    {
      "id": 46613,
      "lat": 32.1058370000001,
      "lon": 34.8923941,
      "label": "סופר אושר עד סגולה - פתח תקווה",
      "text": "",
      "stayTimes": "10:10 - 12:05",
      "t_start": "2020-03-18T08:10:00",
      "t_end": "2020-03-18T10:05:00",
      "link": ""
    },
    {
      "id": 46614,
      "lat": 32.07889549,
      "lon": 34.8407095050001,
      "label": "סופר \"יש\" - בני ברק",
      "text": "",
      "stayTimes": "16:00 - 20:00",
      "t_start": "2020-03-18T14:00:00",
      "t_end": "2020-03-18T18:00:00",
      "link": ""
    },
    {
      "id": 46615,
      "lat": 32.085804954,
      "lon": 34.827918448,
      "label": "בית כנסת גור - בני ברק",
      "text": "",
      "stayTimes": "16:30 - 18:00",
      "t_start": "2020-03-21T14:30:00",
      "t_end": "2020-03-21T16:00:00",
      "link": ""
    },
    {
      "id": 46616,
      "lat": 32.0940110660001,
      "lon": 34.842704842,
      "label": "בית הכנסת שירת ישראל - בני ברק",
      "text": "",
      "stayTimes": "09:45 - 12:30",
      "t_start": "2020-03-21T07:45:00",
      "t_end": "2020-03-21T10:30:00",
      "link": ""
    },
    {
      "id": 46617,
      "lat": 32.0972669000001,
      "lon": 34.8379174,
      "label": "בית הכנסת זיו יהודה - בני ברק",
      "text": "",
      "stayTimes": "09:00 - 10:00",
      "t_start": "2020-03-22T07:00:00",
      "t_end": "2020-03-22T08:00:00",
      "link": ""
    },
    {
      "id": 46618,
      "lat": 31.8997105,
      "lon": 35.0136182000001,
      "label": "חנות ירקות \"אפונה וגזר\" - מודיעין-מכבים-רעות",
      "text": "",
      "stayTimes": "08:30 - 09:00",
      "t_start": "2020-03-20T06:30:00",
      "t_end": "2020-03-20T07:00:00",
      "link": ""
    },
    {
      "id": 46619,
      "lat": 31.8996547,
      "lon": 35.0138978000001,
      "label": "מכולת \"גולד מרקט\" - מודיעין-מכבים-רעות",
      "text": "",
      "stayTimes": "09:00 - 09:30",
      "t_start": "2020-03-20T07:00:00",
      "t_end": "2020-03-20T07:30:00",
      "link": ""
    },
    {
      "id": 46620,
      "lat": 32.0917393,
      "lon": 34.8223515,
      "label": "סטוק סנטר - רמת גן",
      "text": "",
      "stayTimes": "19:50 - 20:00",
      "t_start": "2020-03-22T17:50:00",
      "t_end": "2020-03-22T18:00:00",
      "link": ""
    },
    {
      "id": 46621,
      "lat": 32.0837975000001,
      "lon": 34.8141098,
      "label": "גוד פארם - רמת גן",
      "text": "",
      "stayTimes": "15:00 - 15:15",
      "t_start": "2020-03-20T13:00:00",
      "t_end": "2020-03-20T13:15:00",
      "link": ""
    },
    {
      "id": 46622,
      "lat": 32.0841454440001,
      "lon": 34.8193542230001,
      "label": "סופר סיטי - רמת גן",
      "text": "",
      "stayTimes": "20:00 - 20:10",
      "t_start": "2020-03-22T18:00:00",
      "t_end": "2020-03-22T18:10:00",
      "link": ""
    },
    {
      "id": 46623,
      "lat": 31.7789552,
      "lon": 34.6570806,
      "label": "בי\"ח אסותא- חדר ניתוח - אשדוד",
      "text": "",
      "stayTimes": "19:00 - 07:00",
      "t_start": "2020-03-25T17:00:00",
      "t_end": "2020-03-26T05:00:00",
      "link": ""
    },
    {
      "id": 46624,
      "lat": 32.0474520000001,
      "lon": 34.7582999000001,
      "label": "סופר שוק שדרות ירושלים ביפו - תל אביב - יפו",
      "text": "",
      "stayTimes": "14:00 - 15:00",
      "t_start": "2020-03-18T12:00:00",
      "t_end": "2020-03-18T13:00:00",
      "link": ""
    },
    {
      "id": 46625,
      "lat": 32.0794196000001,
      "lon": 34.8364418,
      "label": "בית כנסת חסידי סאטמר - בני ברק",
      "text": "",
      "stayTimes": "08:00 - 09:30",
      "t_start": "2020-03-23T06:00:00",
      "t_end": "2020-03-23T07:30:00",
      "link": ""
    },
    {
      "id": 46626,
      "lat": 32.0065000000001,
      "lon": 34.951178,
      "label": "סופרמרקט בשוהם מרקט - שוהם",
      "text": "",
      "stayTimes": "10:00 - 10:30",
      "t_start": "2020-03-19T08:00:00",
      "t_end": "2020-03-19T08:30:00",
      "link": ""
    },
    {
      "id": 46627,
      "lat": 31.8920779000001,
      "lon": 34.8205555000001,
      "label": "סופר\" הטוב והמיטיב\" - רחובות",
      "text": "",
      "stayTimes": "09:00 - 09:20",
      "t_start": "2020-03-19T07:00:00",
      "t_end": "2020-03-19T07:20:00",
      "link": ""
    },
    {
      "id": 46628,
      "lat": 31.7899423000001,
      "lon": 35.1953033,
      "label": "ישיבת \"ופרצת\" - ירושלים",
      "text": "",
      "stayTimes": "11:00 - 16:15",
      "t_start": "2020-03-18T09:00:00",
      "t_end": "2020-03-18T14:15:00",
      "link": ""
    },
    {
      "id": 46629,
      "lat": 31.7675203000001,
      "lon": 35.2953086000001,
      "label": "מרפאת \"טרם\" - מעלה אדומים",
      "text": "",
      "stayTimes": "11:00 - 12:00",
      "t_start": "2020-03-22T09:00:00",
      "t_end": "2020-03-22T10:00:00",
      "link": ""
    },
    {
      "id": 46630,
      "lat": 31.7675203000001,
      "lon": 35.2953086000001,
      "label": "מרפאת \"טרם\" - מעלה אדומים",
      "text": "",
      "stayTimes": "15:00 - 16:00",
      "t_start": "2020-03-22T13:00:00",
      "t_end": "2020-03-22T14:00:00",
      "link": ""
    },
    {
      "id": 46631,
      "lat": 31.7649503000001,
      "lon": 35.1494106000001,
      "label": "מיון פנימי בי\"ח הדסה עין כרם - ירושלים",
      "text": "",
      "stayTimes": "23:00 - 01:00",
      "t_start": "2020-03-22T21:00:00",
      "t_end": "2020-03-22T23:00:00",
      "link": ""
    },
    {
      "id": 46632,
      "lat": 32.0814278,
      "lon": 34.7898728000001,
      "label": "שופרסל קניון ויצמן - תל אביב - יפו",
      "text": "",
      "stayTimes": "14:00 - 17:00",
      "t_start": "2020-03-18T12:00:00",
      "t_end": "2020-03-18T15:00:00",
      "link": ""
    },
    {
      "id": 46633,
      "lat": 32.0854144,
      "lon": 34.8253573000001,
      "label": "בית כנסת ישראל הצעיר - בני ברק",
      "text": "",
      "stayTimes": "07:00 - 08:30",
      "t_start": "2020-03-21T05:00:00",
      "t_end": "2020-03-21T06:30:00",
      "link": ""
    },
    {
      "id": 46634,
      "lat": 32.0854144,
      "lon": 34.8253573000001,
      "label": "בית כנסת ישראל הצעיר - בני ברק",
      "text": "",
      "stayTimes": "12:30 - 13:00",
      "t_start": "2020-03-19T10:30:00",
      "t_end": "2020-03-19T11:00:00",
      "link": ""
    },
    {
      "id": 46635,
      "lat": 32.0828243,
      "lon": 34.8262474000001,
      "label": "סופר \"יש בשכונה\" - בני ברק",
      "text": "",
      "stayTimes": "13:00 - 13:30",
      "t_start": "2020-03-20T11:00:00",
      "t_end": "2020-03-20T11:30:00",
      "link": ""
    },
    {
      "id": 46636,
      "lat": 32.0258672000001,
      "lon": 34.8593382,
      "label": "סופר יש חסד - אור יהודה",
      "text": "",
      "stayTimes": "19:00 - 19:30",
      "t_start": "2020-03-25T17:00:00",
      "t_end": "2020-03-25T17:30:00",
      "link": ""
    },
    {
      "id": 46637,
      "lat": 31.8070985000001,
      "lon": 34.7848264,
      "label": "בית כנסת קהילתי תיכון רמון - גדרה",
      "text": "",
      "stayTimes": "08:00 - 10:00",
      "t_start": "2020-03-21T06:00:00",
      "t_end": "2020-03-21T08:00:00",
      "link": ""
    },
    {
      "id": 46638,
      "lat": 32.090239926,
      "lon": 34.825733954,
      "label": "ישיבת תפארת בחורים שיקומית - בני ברק",
      "text": "",
      "stayTimes": "08:00 - 12:00",
      "t_start": "2020-03-23T06:00:00",
      "t_end": "2020-03-23T10:00:00",
      "link": ""
    },
    {
      "id": 46639,
      "lat": 31.9478329,
      "lon": 34.9011619,
      "label": "מעבדה של מכבי - לוד",
      "text": "",
      "stayTimes": "07:30 - 08:30",
      "t_start": "2020-03-19T05:30:00",
      "t_end": "2020-03-19T06:30:00",
      "link": ""
    },
    {
      "id": 46640,
      "lat": 31.9478329,
      "lon": 34.9011619,
      "label": "קליניקה פרטית מטעם מכבי - לוד",
      "text": "",
      "stayTimes": "16:00 - 20:00",
      "t_start": "2020-03-18T14:00:00",
      "t_end": "2020-03-18T18:00:00",
      "link": ""
    },
    {
      "id": 46641,
      "lat": 31.9478329,
      "lon": 34.9011619,
      "label": "קליניקה פרטית מכבי - לוד",
      "text": "",
      "stayTimes": "16:00 - 20:00",
      "t_start": "2020-03-22T14:00:00",
      "t_end": "2020-03-22T18:00:00",
      "link": ""
    },
    {
      "id": 46642,
      "lat": 31.927581,
      "lon": 34.872009,
      "label": "מרכז בריאות כללית - רמלה",
      "text": "",
      "stayTimes": "14:00 - 19:00",
      "t_start": "2020-03-19T12:00:00",
      "t_end": "2020-03-19T17:00:00",
      "link": ""
    },
    {
      "id": 46643,
      "lat": 31.9220189000001,
      "lon": 34.8587808,
      "label": "מרכז בריאות הילד כללית - רמלה",
      "text": "",
      "stayTimes": "08:00 - 14:00",
      "t_start": "2020-03-22T06:00:00",
      "t_end": "2020-03-22T12:00:00",
      "link": ""
    },
    {
      "id": 46644,
      "lat": 31.9220189000001,
      "lon": 34.8587808,
      "label": "מרכז בריאות הילד כללית - רמלה",
      "text": "",
      "stayTimes": "08:00 - 13:30",
      "t_start": "2020-03-18T06:00:00",
      "t_end": "2020-03-18T11:30:00",
      "link": ""
    },
    {
      "id": 46645,
      "lat": 31.9478329,
      "lon": 34.9011619,
      "label": "קליניקה פרטית מכבי - לוד",
      "text": "",
      "stayTimes": "08:30 - 11:30",
      "t_start": "2020-03-24T06:30:00",
      "t_end": "2020-03-24T09:30:00",
      "link": ""
    },
    {
      "id": 46646,
      "lat": 31.9220189000001,
      "lon": 34.8587808,
      "label": "מרכז בריאות הילד כללית - רמלה",
      "text": "",
      "stayTimes": "08:00 - 14:30",
      "t_start": "2020-03-23T06:00:00",
      "t_end": "2020-03-23T12:30:00",
      "link": ""
    },
    {
      "id": 46647,
      "lat": 31.9220189000001,
      "lon": 34.8587808,
      "label": "מרכז בריאות הילד - רמלה",
      "text": "",
      "stayTimes": "08:15 - 11:00",
      "t_start": "2020-03-25T06:15:00",
      "t_end": "2020-03-25T09:00:00",
      "link": ""
    },
    {
      "id": 46648,
      "lat": 32.0142516000001,
      "lon": 34.7670197,
      "label": "מוקד מכבי - חולון",
      "text": "",
      "stayTimes": "19:00 - 23:00",
      "t_start": "2020-03-24T17:00:00",
      "t_end": "2020-03-24T21:00:00",
      "link": ""
    },
    {
      "id": 46649,
      "lat": 31.8042301,
      "lon": 34.7838441000001,
      "label": "סופר פארם גדרה הצעירה - גדרה",
      "text": "",
      "stayTimes": "20:15 - 20:30",
      "t_start": "2020-03-18T18:15:00",
      "t_end": "2020-03-18T18:30:00",
      "link": ""
    },
    {
      "id": 46650,
      "lat": 31.8167329,
      "lon": 34.7806883000001,
      "label": "בית ספר אוהל שלום - גדרה",
      "text": "",
      "stayTimes": "11:20 - 11:40",
      "t_start": "2020-03-19T09:20:00",
      "t_end": "2020-03-19T09:40:00",
      "link": ""
    },
    {
      "id": 46651,
      "lat": 31.9211925970001,
      "lon": 34.876954875,
      "label": "פיקוד העורף-מוקד קורונה - רמלה",
      "text": "",
      "stayTimes": "07:00 - 16:00",
      "t_start": "2020-03-19T05:00:00",
      "t_end": "2020-03-19T14:00:00",
      "link": ""
    },
    {
      "id": 46652,
      "lat": 31.9211343160001,
      "lon": 34.876920543,
      "label": "פיקוד העורף-מוקד קורונה - רמלה",
      "text": "",
      "stayTimes": "07:00 - 16:00",
      "t_start": "2020-03-20T05:00:00",
      "t_end": "2020-03-20T14:00:00",
      "link": ""
    },
    {
      "id": 46653,
      "lat": 31.921163456,
      "lon": 34.8769892070001,
      "label": "פיקוד העורף-מוקד קורונה - רמלה",
      "text": "",
      "stayTimes": "07:00 - 09:00",
      "t_start": "2020-03-22T05:00:00",
      "t_end": "2020-03-22T07:00:00",
      "link": ""
    },
    {
      "id": 46654,
      "lat": 31.9211343160001,
      "lon": 34.8769892070001,
      "label": "מרפאת פיקוד העורף - רמלה",
      "text": "",
      "stayTimes": "09:00 - 10:00",
      "t_start": "2020-03-22T07:00:00",
      "t_end": "2020-03-22T08:00:00",
      "link": ""
    },
    {
      "id": 46655,
      "lat": 32.2727963510001,
      "lon": 34.9129163470001,
      "label": "בית כנסת \"שבזי\" קדימה - קדימה-צורן",
      "text": "",
      "stayTimes": "07:30 - 09:30",
      "t_start": "2020-03-21T05:30:00",
      "t_end": "2020-03-21T07:30:00",
      "link": ""
    },
    {
      "id": 46656,
      "lat": 32.2727382950001,
      "lon": 34.9129506840001,
      "label": "בית כנסת \"שבזי\" קדימה - קדימה-צורן",
      "text": "",
      "stayTimes": "12:30 - 21:30",
      "t_start": "2020-03-21T10:30:00",
      "t_end": "2020-03-21T19:30:00",
      "link": ""
    },
    {
      "id": 46657,
      "lat": 32.2728253830001,
      "lon": 34.9129163630001,
      "label": "בית כנסת \"שבזי\" קדימה - קדימה-צורן",
      "text": "",
      "stayTimes": "18:25 - 19:00",
      "t_start": "2020-03-21T16:25:00",
      "t_end": "2020-03-21T17:00:00",
      "link": ""
    },
    {
      "id": 46658,
      "lat": 32.27151816,
      "lon": 34.9170467980001,
      "label": "בית כנסת \"המרוקאי\" קדימה - קדימה-צורן",
      "text": "",
      "stayTimes": "05:00 - 06:00",
      "t_start": "2020-03-22T03:00:00",
      "t_end": "2020-03-22T04:00:00",
      "link": ""
    },
    {
      "id": 46659,
      "lat": 32.271548142,
      "lon": 34.9171340660001,
      "label": "בית כנסת \"מרוקאי\" קדימה - קדימה-צורן",
      "text": "",
      "stayTimes": "05:00 - 06:00",
      "t_start": "2020-03-20T03:00:00",
      "t_end": "2020-03-20T04:00:00",
      "link": ""
    },
    {
      "id": 46660,
      "lat": 32.2715191140001,
      "lon": 34.9170310700001,
      "label": "בית כנסת \"מרוקאי\" קדימה - קדימה-צורן",
      "text": "",
      "stayTimes": "05:00 - 06:00",
      "t_start": "2020-03-18T03:00:00",
      "t_end": "2020-03-18T04:00:00",
      "link": ""
    },
    {
      "id": 46661,
      "lat": 32.2714429170001,
      "lon": 34.9172024590001,
      "label": "בית כנסת \"מרוקאי\" קדימה - קדימה-צורן",
      "text": "",
      "stayTimes": "05:00 - 06:00",
      "t_start": "2020-03-19T03:00:00",
      "t_end": "2020-03-19T04:00:00",
      "link": ""
    },
    {
      "id": 46662,
      "lat": 32.2762888,
      "lon": 34.9204034000001,
      "label": "סופרמרקט \"רמי לוי\" קדימה - קדימה-צורן",
      "text": "",
      "stayTimes": "19:45 - 21:00",
      "t_start": "2020-03-21T17:45:00",
      "t_end": "2020-03-21T19:00:00",
      "link": ""
    },
    {
      "id": 46663,
      "lat": 32.066315,
      "lon": 34.8109544000001,
      "label": "סופר Mega - גבעתיים",
      "text": "",
      "stayTimes": "21:45 - 22:30",
      "t_start": "2020-03-22T19:45:00",
      "t_end": "2020-03-22T20:30:00",
      "link": ""
    },
    {
      "id": 46664,
      "lat": 31.9370367110001,
      "lon": 35.038946331,
      "label": "חנות כלבו \"עזרא ואחווה\" מרכז עסקים - מודיעין עילית",
      "text": "",
      "stayTimes": "18:00 - 19:00",
      "t_start": "2020-03-22T16:00:00",
      "t_end": "2020-03-22T17:00:00",
      "link": ""
    },
    {
      "id": 46665,
      "lat": 31.9326186370001,
      "lon": 35.0453525200001,
      "label": "חנות מוצרי סית \"סנטר ליין\" - מודיעין עילית",
      "text": "",
      "stayTimes": "16:30 - 16:50",
      "t_start": "2020-03-24T14:30:00",
      "t_end": "2020-03-24T14:50:00",
      "link": ""
    },
    {
      "id": 46666,
      "lat": 31.932251722,
      "lon": 34.888791246,
      "label": "חנות BOOOM - רמלה",
      "text": "",
      "stayTimes": "11:00 - 12:00",
      "t_start": "2020-03-18T09:00:00",
      "t_end": "2020-03-18T10:00:00",
      "link": ""
    },
    {
      "id": 46667,
      "lat": 31.9454999000001,
      "lon": 34.8920591,
      "label": "רמי לוי - לוד",
      "text": "",
      "stayTimes": "12:00 - 13:00",
      "t_start": "2020-03-22T10:00:00",
      "t_end": "2020-03-22T11:00:00",
      "link": ""
    },
    {
      "id": 46668,
      "lat": 31.931367058,
      "lon": 34.889472229,
      "label": "חנות BOOOM - לוד",
      "text": "",
      "stayTimes": "15:20 - 16:00",
      "t_start": "2020-03-23T13:20:00",
      "t_end": "2020-03-23T14:00:00",
      "link": ""
    },
    {
      "id": 46669,
      "lat": 31.9540566250001,
      "lon": 34.890366369,
      "label": "אושר עד - לוד",
      "text": "",
      "stayTimes": "17:00 - 18:00",
      "t_start": "2020-03-23T15:00:00",
      "t_end": "2020-03-23T16:00:00",
      "link": ""
    },
    {
      "id": 46670,
      "lat": 31.946440017,
      "lon": 34.8978359610001,
      "label": "בית מרקחת מכבי - לוד",
      "text": "",
      "stayTimes": "14:00 - 15:00",
      "t_start": "2020-03-23T12:00:00",
      "t_end": "2020-03-23T13:00:00",
      "link": ""
    },
    {
      "id": 46671,
      "lat": 31.9325056000001,
      "lon": 35.0445323000001,
      "label": "בית מדקש ישיבת באר יצחק רח מנחת חינוך 1 - מודיעין עילית",
      "text": "",
      "stayTimes": "18:00 - 19:30",
      "t_start": "2020-03-18T16:00:00",
      "t_end": "2020-03-18T17:30:00",
      "link": ""
    },
    {
      "id": 46672,
      "lat": 31.9325056000001,
      "lon": 35.0445323000001,
      "label": "בית מדרש ישיבת באר יצחק מנחת חינוך 1 - מודיעין עילית",
      "text": "",
      "stayTimes": "13:00 - 13:30",
      "t_start": "2020-03-19T11:00:00",
      "t_end": "2020-03-19T11:30:00",
      "link": ""
    },
    {
      "id": 46673,
      "lat": 31.9325056000001,
      "lon": 35.0445323000001,
      "label": "בית המדרש ישיבת באר יצחק - מודיעין עילית",
      "text": "",
      "stayTimes": "12:00 - 13:30",
      "t_start": "2020-03-18T10:00:00",
      "t_end": "2020-03-18T11:30:00",
      "link": ""
    },
    {
      "id": 46674,
      "lat": 31.9393470000001,
      "lon": 34.86089,
      "label": "בית כנסת רשבם - רמלה",
      "text": "",
      "stayTimes": "14:30 - 17:00",
      "t_start": "2020-03-21T12:30:00",
      "t_end": "2020-03-21T15:00:00",
      "link": ""
    },
    {
      "id": 46675,
      "lat": 32.0468261550001,
      "lon": 34.908611948,
      "label": "סופרמרקט יש - בארות יצחק",
      "text": "",
      "stayTimes": "13:45 - 14:30",
      "t_start": "2020-03-23T11:45:00",
      "t_end": "2020-03-23T12:30:00",
      "link": ""
    },
    {
      "id": 46676,
      "lat": 31.9325056000001,
      "lon": 35.0445323000001,
      "label": "בית מדרש ישיבת באר יצחק רחוב מנחת חינוך 1 - מודיעין עילית",
      "text": "",
      "stayTimes": "18:00 - 19:30",
      "t_start": "2020-03-19T16:00:00",
      "t_end": "2020-03-19T17:30:00",
      "link": ""
    },
    {
      "id": 46678,
      "lat": 31.9324770000001,
      "lon": 35.042265,
      "label": "מרכל - מודיעין עילית",
      "text": "",
      "stayTimes": "08:30 - 09:10",
      "t_start": "2020-03-22T06:30:00",
      "t_end": "2020-03-22T07:10:00",
      "link": ""
    },
    {
      "id": 46679,
      "lat": 31.926964394,
      "lon": 35.041944619,
      "label": "מרכול  רחוב נתיבות המשפט פינת מסילת יוסף - מודיעין עילית",
      "text": "",
      "stayTimes": "18:50 - 19:10",
      "t_start": "2020-03-26T16:50:00",
      "t_end": "2020-03-26T17:10:00",
      "link": ""
    },
    {
      "id": 46680,
      "lat": 31.9247418,
      "lon": 35.0410441000001,
      "label": "קריאת תורה בבית הכנסת שירה חדשה - מודיעין עילית",
      "text": "",
      "stayTimes": "10:30 - 11:00",
      "t_start": "2020-03-21T08:30:00",
      "t_end": "2020-03-21T09:00:00",
      "link": ""
    },
    {
      "id": 46681,
      "lat": 32.573515684,
      "lon": 34.9540216790001,
      "label": "משרד שרותי רב קו - זכרון יעקב",
      "text": "",
      "stayTimes": "11:00 - 17:30",
      "t_start": "2020-03-18T09:00:00",
      "t_end": "2020-03-18T15:30:00",
      "link": ""
    },
    {
      "id": 46682,
      "lat": 32.5735174930001,
      "lon": 34.9540195340001,
      "label": "משרד שרותי רב קו - זכרון יעקב",
      "text": "",
      "stayTimes": "11:00 - 17:30",
      "t_start": "2020-03-19T09:00:00",
      "t_end": "2020-03-19T15:30:00",
      "link": ""
    },
    {
      "id": 46683,
      "lat": 32.5735138760001,
      "lon": 34.954023825,
      "label": "משרד שרותי רב קו - זכרון יעקב",
      "text": "",
      "stayTimes": "11:00 - 17:30",
      "t_start": "2020-03-22T09:00:00",
      "t_end": "2020-03-22T15:30:00",
      "link": ""
    },
    {
      "id": 46684,
      "lat": 31.8601944000001,
      "lon": 34.8145379000001,
      "label": "יוחננוף - קרית עקרון",
      "text": "",
      "stayTimes": "16:30 - 17:00",
      "t_start": "2020-03-19T14:30:00",
      "t_end": "2020-03-19T15:00:00",
      "link": ""
    },
    {
      "id": 46685,
      "lat": 32.7891667000001,
      "lon": 35.535,
      "label": "שופרסל דיל - טבריה",
      "text": "",
      "stayTimes": "12:00 - 14:00",
      "t_start": "2020-03-19T10:00:00",
      "t_end": "2020-03-19T12:00:00",
      "link": ""
    },
    {
      "id": 46686,
      "lat": 32.7891667000001,
      "lon": 35.535,
      "label": "שופרסל דיל - טבריה",
      "text": "",
      "stayTimes": "21:00 - 21:10",
      "t_start": "2020-03-23T19:00:00",
      "t_end": "2020-03-23T19:10:00",
      "link": ""
    },
    {
      "id": 46687,
      "lat": 31.8142379270001,
      "lon": 34.776425123,
      "label": "מעון מוריה - גדרה",
      "text": "",
      "stayTimes": "06:00 - 21:00",
      "t_start": "2020-03-19T04:00:00",
      "t_end": "2020-03-19T19:00:00",
      "link": ""
    },
    {
      "id": 46688,
      "lat": 31.8142447650001,
      "lon": 34.7764170770001,
      "label": "מעון מוריה - גדרה",
      "text": "",
      "stayTimes": "06:00 - 14:00",
      "t_start": "2020-03-20T04:00:00",
      "t_end": "2020-03-20T12:00:00",
      "link": ""
    },
    {
      "id": 46689,
      "lat": 31.8142139,
      "lon": 34.7764126000001,
      "label": "מעון מוריה - גדרה",
      "text": "",
      "stayTimes": "06:00 - 20:00",
      "t_start": "2020-03-21T04:00:00",
      "t_end": "2020-03-21T18:00:00",
      "link": ""
    },
    {
      "id": 46690,
      "lat": 31.7949197,
      "lon": 34.6399758000001,
      "label": "סופר פארם - אשדוד",
      "text": "",
      "stayTimes": "13:30 - 15:30",
      "t_start": "2020-03-18T11:30:00",
      "t_end": "2020-03-18T13:30:00",
      "link": ""
    },
    {
      "id": 46691,
      "lat": 31.6629795000001,
      "lon": 34.5766783,
      "label": "קופ\"ח כללית נאות אשקלון - אשקלון",
      "text": "",
      "stayTimes": "07:30 - 13:30",
      "t_start": "2020-03-25T05:30:00",
      "t_end": "2020-03-25T11:30:00",
      "link": ""
    },
    {
      "id": 46692,
      "lat": 32.6331587,
      "lon": 35.3619834,
      "label": "יקבי כרמל - עפולה",
      "text": "",
      "stayTimes": "20:00 - 08:00",
      "t_start": "2020-03-18T18:00:00",
      "t_end": "2020-03-19T06:00:00",
      "link": ""
    },
    {
      "id": 46693,
      "lat": 31.813558712,
      "lon": 34.6601969600001,
      "label": "רמי לוי - אשדוד",
      "text": "",
      "stayTimes": "10:00 - 12:00",
      "t_start": "2020-03-18T08:00:00",
      "t_end": "2020-03-18T10:00:00",
      "link": ""
    },
    {
      "id": 46694,
      "lat": 31.813560991,
      "lon": 34.6601808670001,
      "label": "רמי לוי - אשדוד",
      "text": "",
      "stayTimes": "10:30 - 12:00",
      "t_start": "2020-03-24T08:30:00",
      "t_end": "2020-03-24T10:00:00",
      "link": ""
    },
    {
      "id": 46695,
      "lat": 31.8079432420001,
      "lon": 34.6573172600001,
      "label": "מחסני בשר - אשדוד",
      "text": "",
      "stayTimes": "10:00 - 10:30",
      "t_start": "2020-03-24T08:00:00",
      "t_end": "2020-03-24T08:30:00",
      "link": ""
    },
    {
      "id": 46696,
      "lat": 32.015268334,
      "lon": 34.756772578,
      "label": "סופר דוש בקניון בת ים - בת ים",
      "text": "",
      "stayTimes": "16:00 - 17:30",
      "t_start": "2020-03-24T14:00:00",
      "t_end": "2020-03-24T15:30:00",
      "link": ""
    },
    {
      "id": 46697,
      "lat": 32.6782892800001,
      "lon": 35.2433936890001,
      "label": "שופר סל מתחם פרץ סנטר - מגדל העמק",
      "text": "",
      "stayTimes": "17:30 - 18:45",
      "t_start": "2020-03-22T15:30:00",
      "t_end": "2020-03-22T16:45:00",
      "link": ""
    },
    {
      "id": 46698,
      "lat": 31.22172999,
      "lon": 34.8032847640001,
      "label": "דיל אקספרס קריית יהודית - באר שבע",
      "text": "",
      "stayTimes": "00:00 - 01:00",
      "t_start": "2020-03-17T22:00:00",
      "t_end": "2020-03-17T23:00:00",
      "link": ""
    },
    {
      "id": 46699,
      "lat": 31.2399585000001,
      "lon": 34.7938263,
      "label": "מחסני השוק ליד בית החייל - באר שבע",
      "text": "",
      "stayTimes": "19:00 - 21:00",
      "t_start": "2020-03-19T17:00:00",
      "t_end": "2020-03-19T19:00:00",
      "link": ""
    },
    {
      "id": 46700,
      "lat": 31.374236604,
      "lon": 35.006553292,
      "label": "סופר מחסני השוק- מיתרים - שמעה",
      "text": "",
      "stayTimes": "12:30 - 13:30",
      "t_start": "2020-03-25T10:30:00",
      "t_end": "2020-03-25T11:30:00",
      "link": ""
    },
    {
      "id": 46701,
      "lat": 31.2433310000001,
      "lon": 34.8125470000001,
      "label": "סופר פארם ביג - באר שבע",
      "text": "",
      "stayTimes": "09:30 - 10:00",
      "t_start": "2020-03-25T07:30:00",
      "t_end": "2020-03-25T08:00:00",
      "link": ""
    },
    {
      "id": 46702,
      "lat": 31.2413889000001,
      "lon": 34.8105556,
      "label": "ACE ביג - באר שבע",
      "text": "",
      "stayTimes": "10:00 - 10:30",
      "t_start": "2020-03-25T08:00:00",
      "t_end": "2020-03-25T08:30:00",
      "link": ""
    },
    {
      "id": 46703,
      "lat": 31.2428483750001,
      "lon": 34.8121199610001,
      "label": "חנות נעמן BIG - באר שבע",
      "text": "",
      "stayTimes": "10:00 - 10:30",
      "t_start": "2020-03-25T08:00:00",
      "t_end": "2020-03-25T08:30:00",
      "link": ""
    },
    {
      "id": 46704,
      "lat": 31.7789552,
      "lon": 34.6570806,
      "label": "מיון ביה\"ח אסותא - אשדוד",
      "text": "",
      "stayTimes": "17:00 - 17:30",
      "t_start": "2020-03-26T15:00:00",
      "t_end": "2020-03-26T15:30:00",
      "link": ""
    },
    {
      "id": 46705,
      "lat": 31.984200215,
      "lon": 34.8059405130001,
      "label": "בית כנסת ישורון - ראשון לציון",
      "text": "",
      "stayTimes": "18:00 - 18:30",
      "t_start": "2020-03-21T16:00:00",
      "t_end": "2020-03-21T16:30:00",
      "link": ""
    },
    {
      "id": 46706,
      "lat": 31.9909974,
      "lon": 34.7607583000001,
      "label": "מאפיית קראמבל - ראשון לציון",
      "text": "",
      "stayTimes": "23:00 - 23:30",
      "t_start": "2020-03-26T21:00:00",
      "t_end": "2020-03-26T21:30:00",
      "link": ""
    },
    {
      "id": 46707,
      "lat": 32.6038847,
      "lon": 35.2930428000001,
      "label": "רמי לוי - עפולה",
      "text": "",
      "stayTimes": "20:30 - 21:30",
      "t_start": "2020-03-21T18:30:00",
      "t_end": "2020-03-21T19:30:00",
      "link": ""
    },
    {
      "id": 46708,
      "lat": 32.6109777990001,
      "lon": 35.2879909660001,
      "label": "חנות שבו - כלי כתיבה - עפולה",
      "text": "",
      "stayTimes": "18:30 - 18:45",
      "t_start": "2020-03-22T16:30:00",
      "t_end": "2020-03-22T16:45:00",
      "link": ""
    },
    {
      "id": 46709,
      "lat": 32.6122728,
      "lon": 35.2882818000001,
      "label": "מאפייה קציר - עפולה",
      "text": "",
      "stayTimes": "08:00 - 09:00",
      "t_start": "2020-03-24T06:00:00",
      "t_end": "2020-03-24T07:00:00",
      "link": ""
    },
    {
      "id": 46710,
      "lat": 32.0763242,
      "lon": 34.8398895,
      "label": "בית כנסת משכנות יעקב באולם  הישיבה דעת תבונות למעלה - בני ברק",
      "text": "",
      "stayTimes": "10:00 - 12:00",
      "t_start": "2020-03-21T08:00:00",
      "t_end": "2020-03-21T10:00:00",
      "link": ""
    },
    {
      "id": 46711,
      "lat": 32.0862964340001,
      "lon": 34.8348863210001,
      "label": "נתיב החסד - בני ברק",
      "text": "",
      "stayTimes": "11:00 - 12:30",
      "t_start": "2020-03-24T09:00:00",
      "t_end": "2020-03-24T10:30:00",
      "link": ""
    },
    {
      "id": 46712,
      "lat": 32.090743767,
      "lon": 34.832575702,
      "label": "מכירה שכונתית בגינת אבן שפרוט - בני ברק",
      "text": "",
      "stayTimes": "12:00 - 08:00",
      "t_start": "2020-03-25T10:00:00",
      "t_end": "2020-03-22T06:00:00",
      "link": ""
    },
    {
      "id": 46713,
      "lat": 32.0794501020001,
      "lon": 34.815074942,
      "label": "סופר פארם - רמת גן",
      "text": "",
      "stayTimes": "10:30 - 11:00",
      "t_start": "2020-03-25T08:30:00",
      "t_end": "2020-03-25T09:00:00",
      "link": ""
    },
    {
      "id": 46714,
      "lat": 31.66687574,
      "lon": 34.5847790080001,
      "label": "סעדה הדגים ליד ג'וליה - אזור תעשיה - אשקלון",
      "text": "",
      "stayTimes": "09:30 - 10:00",
      "t_start": "2020-03-20T07:30:00",
      "t_end": "2020-03-20T08:00:00",
      "link": ""
    },
    {
      "id": 46715,
      "lat": 32.076331177,
      "lon": 34.839895675,
      "label": "בית כנסת משכנות יעקב באולם - בני ברק",
      "text": "",
      "stayTimes": "09:45 - 11:00",
      "t_start": "2020-03-22T07:45:00",
      "t_end": "2020-03-22T09:00:00",
      "link": ""
    },
    {
      "id": 46716,
      "lat": 32.076332155,
      "lon": 34.8398897370001,
      "label": "בית כנסת משכנות יעקב - בני ברק",
      "text": "",
      "stayTimes": "01:00 - 01:30",
      "t_start": "2020-03-23T23:00:00",
      "t_end": "2020-03-23T23:30:00",
      "link": ""
    },
    {
      "id": 46717,
      "lat": 32.0786915,
      "lon": 34.8367749000001,
      "label": "בית כנסת לדרמן - בני ברק",
      "text": "",
      "stayTimes": "18:15 - 19:00",
      "t_start": "2020-03-21T16:15:00",
      "t_end": "2020-03-21T17:00:00",
      "link": ""
    },
    {
      "id": 46718,
      "lat": 32.0786915,
      "lon": 34.8367749000001,
      "label": "בית כנסת לדרמן - בני ברק",
      "text": "",
      "stayTimes": "21:00 - 22:00",
      "t_start": "2020-03-21T19:00:00",
      "t_end": "2020-03-21T20:00:00",
      "link": ""
    },
    {
      "id": 46719,
      "lat": 32.0786915,
      "lon": 34.8367749000001,
      "label": "בית כנסת לדרמן למטה - בני ברק",
      "text": "",
      "stayTimes": "17:40 - 18:15",
      "t_start": "2020-03-22T15:40:00",
      "t_end": "2020-03-22T16:15:00",
      "link": ""
    },
    {
      "id": 46720,
      "lat": 32.0788157000001,
      "lon": 34.8400310000001,
      "label": "עזרא ואחווה - בני ברק",
      "text": "",
      "stayTimes": "16:30 - 17:30",
      "t_start": "2020-03-24T14:30:00",
      "t_end": "2020-03-24T15:30:00",
      "link": ""
    },
    {
      "id": 46721,
      "lat": 33.0327904000001,
      "lon": 35.1034588000001,
      "label": "סופרמרקט רמי לוי - נהריה",
      "text": "",
      "stayTimes": "23:00 - 22:00",
      "t_start": "2020-03-23T21:00:00",
      "t_end": "2020-03-23T20:00:00",
      "link": ""
    },
    {
      "id": 46722,
      "lat": 33.0735393000001,
      "lon": 35.138159,
      "label": "מרפאה כללית בצת - בצת",
      "text": "",
      "stayTimes": "10:00 - 18:00",
      "t_start": "2020-03-23T08:00:00",
      "t_end": "2020-03-23T16:00:00",
      "link": ""
    },
    {
      "id": 46723,
      "lat": 33.0728,
      "lon": 35.1430135000001,
      "label": "מרפאה כללית - שלומי",
      "text": "",
      "stayTimes": "12:00 - 12:30",
      "t_start": "2020-03-24T10:00:00",
      "t_end": "2020-03-24T10:30:00",
      "link": ""
    },
    {
      "id": 46724,
      "lat": 33.0741361190001,
      "lon": 35.142915181,
      "label": "קייטנת ילדים במתנס - שלומי",
      "text": "",
      "stayTimes": "10:00 - 10:30",
      "t_start": "2020-03-25T08:00:00",
      "t_end": "2020-03-25T08:30:00",
      "link": ""
    },
    {
      "id": 46725,
      "lat": 31.976393785,
      "lon": 34.8880033460001,
      "label": "מכולת המושב - זיתן",
      "text": "",
      "stayTimes": "08:00 - 08:30",
      "t_start": "2020-03-23T06:00:00",
      "t_end": "2020-03-23T06:30:00",
      "link": ""
    },